time,phase,pos_x,pos_y,yaw_deg,speed_kph,vx_body,vy_body,yaw_rate_dps,throttle,brake,steer_deg,gear,rpm,fz_fl,fz_fr,fz_rl,fz_rr,sr_fl,sr_fr,sr_rl,sr_rr,sa_fl_deg,sa_fr_deg,sa_rl_deg,sa_rr_deg,fx_fl,fx_fr,fx_rl,fx_rr,fy_fl,fy_fr,fy_rl,fy_rr,lat_accel_g,susp_defl_fl_mm,susp_defl_fr_mm,susp_defl_rl_mm,susp_defl_rr_mm,susp_vel_fl,susp_vel_fr,susp_vel_rl,susp_vel_rr,roll_deg,pitch_deg,fz_total,understeer_deg,fc_util_fl,fc_util_fr,fc_util_rl,fc_util_rr,radius_m,yaw_rate_ref_dps
0.0000,accel,0.0000,0.0000,0.0000,0.0000,0.0000,0.0000,0.0000,0.0000,0.0000,0.0000,1,1000.0000,3776.8500,3776.8500,3090.1500,3090.1500,0.0000,0.0000,0.0000,0.0000,0.0000,0.0000,0.0000,0.0000,0.0000,0.0000,0.0000,0.0000,0.0000,0.0000,0.0000,0.0000,0.0000,0.0000,0.0000,0.0000,0.0000,0.0000,0.0000,0.0000,0.0000,0.0000,0.0000,13734.0000,0.0000,0.0000,0.0000,0.0000,0.0000,0.0000,0.0000
0.1000,accel,0.0000,0.0000,0.0000,0.0189,0.0039,0.0000,0.0000,0.0667,0.0000,0.0000,1,1000.0000,3719.9859,3719.9859,3147.1123,3147.1123,0.0008,0.0008,0.0027,0.0027,0.0000,0.0000,0.0000,0.0000,-1.0416,-1.0416,112.8544,112.8544,0.0000,0.0000,0.0000,0.0000,0.0000,-0.1181,-0.1181,0.1924,0.1924,-4.1916,-4.1916,5.1645,5.1645,0.0000,-0.0068,13734.1964,0.0000,0.0003,0.0003,0.0359,0.0359,0.0000,0.0000
0.2000,accel,0.0018,0.0000,0.0000,0.1124,0.0284,0.0000,0.0000,0.1333,0.0000,0.0000,1,1000.0000,3697.7662,3697.7662,3169.3250,3169.3250,0.0007,0.0007,0.0048,0.0048,0.0000,0.0000,0.0000,0.0000,-2.8329,-2.8329,243.5492,243.5492,0.0000,0.0000,0.0000,0.0000,0.0000,-0.6790,-0.6790,0.8527,0.8527,-6.5338,-6.5338,7.4472,7.4472,0.0000,-0.0338,13734.1823,0.0000,0.0008,0.0008,0.0768,0.0768,0.0000,0.0000
0.3000,accel,0.0072,0.0000,0.0000,0.2736,0.0708,0.0000,0.0000,0.2000,0.0000,0.0000,1,1000.0000,3681.7075,3681.7075,3185.2874,3185.2874,0.0007,0.0007,0.0081,0.0081,0.0000,0.0000,0.0000,0.0000,-4.6947,-4.6947,440.7257,440.7257,0.0000,0.0000,0.0000,0.0000,0.0000,-1.3894,-1.3894,1.6337,1.6337,-6.0479,-6.0479,6.0221,6.0221,0.0000,-0.0666,13733.9897,0.0000,0.0013,0.0013,0.1384,0.1384,0.0000,0.0000
0.4000,accel,0.0179,0.0000,0.0000,0.5293,0.1314,0.0000,0.0000,0.2667,0.0000,0.0000,1,1000.0000,3289.3321,3289.3321,3579.8694,3579.8694,-0.0027,-0.0027,0.0251,0.0251,0.0000,0.0000,0.0000,0.0000,-214.9057,-214.9057,1531.7813,1531.7813,0.0000,0.0000,0.0000,0.0000,0.0000,-0.9928,-0.9928,3.7285,3.7285,-120.9880,-120.9880,142.9065,142.9065,0.0000,-0.1040,13738.4029,0.0000,0.0653,0.0653,0.4279,0.4279,0.0000,0.0000
0.5000,accel,0.0353,0.0000,0.0000,0.6918,0.2327,0.0000,0.0000,0.3333,0.0000,0.0000,1,1000.0000,3185.3519,3185.3519,3682.8777,3682.8777,0.0054,0.0054,-0.2233,-0.2233,0.0000,0.0000,0.0000,0.0000,278.7973,278.7973,-3682.8777,-3682.8777,0.0000,0.0000,0.0000,0.0000,0.0000,-1.8347,-1.8347,6.4160,6.4160,-144.6832,-144.6832,157.2349,157.2349,0.0000,-0.1818,13736.4590,0.0000,0.0875,0.0875,1.0000,1.0000,0.0000,0.0000
0.6000,accel,0.0628,0.0000,0.0000,1.2334,0.2970,0.0000,0.0000,0.4000,0.0000,0.0000,1,1000.0000,3854.2209,3854.2209,3011.0218,3011.0218,0.1442,0.1442,0.0017,0.0017,0.0000,0.0000,0.0000,0.0000,3777.5200,3777.5200,53.6555,53.6555,0.0000,0.0000,0.0000,0.0000,0.0000,-1.2752,-1.2752,5.9329,5.9329,59.3966,59.3966,-76.1976,-76.1976,0.0000,-0.1588,13730.4854,0.0000,0.9801,0.9801,0.0178,0.0178,0.0000,0.0000
0.7000,accel,0.1011,0.0000,0.0000,1.6891,0.3896,0.0000,0.0000,0.4667,0.0000,0.0000,1,1000.0000,4558.7452,4558.7452,2312.8338,2312.8338,0.1470,0.1470,0.3964,0.3964,0.0000,0.0000,0.0000,0.0000,4472.0362,4472.0362,2213.4407,2213.4407,0.0000,0.0000,0.0000,0.0000,0.0000,0.0472,0.0472,6.8555,6.8555,327.9825,327.9825,-282.2693,-282.2693,0.0000,-0.1500,13743.1580,0.0000,0.9810,0.9810,0.9570,0.9570,0.0000,0.0000
0.8000,accel,0.1508,0.0000,0.0000,1.8363,0.5916,0.0000,0.0000,0.5333,0.0000,0.0000,1,1000.0000,2614.0908,2614.0908,4257.0389,4257.0389,-0.1479,-0.1479,-0.1181,-0.1181,0.0000,0.0000,0.0000,0.0000,-2614.0908,-2614.0908,-4234.0359,-4234.0359,0.0000,0.0000,0.0000,0.0000,0.0000,-3.1672,-3.1672,11.1273,11.1273,-298.3828,-298.3828,339.7864,339.7864,0.0000,-0.3150,13742.2594,0.0000,1.0000,1.0000,0.9946,0.9946,0.0000,0.0000
0.9000,accel,0.2152,0.0000,0.0000,2.6450,0.7169,0.0000,0.0000,0.6000,0.0000,0.0000,1,1000.0000,2589.9848,2589.9848,4281.4738,4281.4738,-0.3546,-0.3546,0.4538,0.4538,0.0000,0.0000,0.0000,0.0000,-2571.2102,-2571.2102,4066.4274,4066.4274,0.0000,0.0000,0.0000,0.0000,0.0000,-3.3173,-3.3173,11.2007,11.2007,-304.1976,-304.1976,348.8267,348.8267,0.0000,-0.3199,13742.9172,0.0000,0.9928,0.9928,0.9498,0.9498,0.0000,0.0000
1.0000,accel,0.2952,0.0000,0.0000,3.2334,0.8210,0.0000,0.0000,0.6667,0.0000,0.0000,1,1000.0000,4459.3116,4459.3116,2410.9822,2410.9822,0.4751,0.4751,0.5763,0.5763,0.0000,0.0000,0.0000,0.0000,4223.9923,4223.9923,2257.1146,2257.1146,0.0000,0.0000,0.0000,0.0000,0.0000,-1.7140,-1.7140,9.4358,9.4358,305.8208,305.8208,-272.6582,-272.6582,0.0000,-0.2457,13740.5876,0.0000,0.9472,0.9472,0.9362,0.9362,0.0000,0.0000
1.1000,accel,0.3934,0.0000,0.0000,3.9425,1.0177,0.0000,0.0000,0.7333,0.0000,0.0000,1,1000.0000,3700.2405,3700.2405,3161.8459,3161.8459,0.4212,0.4212,0.5305,0.5305,0.0000,0.0000,0.0000,0.0000,3529.3179,3529.3179,2975.3132,2975.3132,0.0000,0.0000,0.0000,0.0000,0.0000,-3.3684,-3.3684,10.5808,10.5808,18.7359,18.7359,-66.3038,-66.3038,0.0000,-0.3074,13724.1728,0.0000,0.9538,0.9538,0.9410,0.9410,0.0000,0.0000
1.2000,accel,0.5117,0.0000,0.0000,4.5005,1.2599,0.0000,0.0000,0.8000,0.0000,0.0000,1,1183.3510,3749.9625,3749.9625,3114.4811,3114.4811,-0.3340,-0.3340,0.5802,0.5802,0.0000,0.0000,0.0000,0.0000,-3733.8738,-3733.8738,2914.4889,2914.4889,0.0000,0.0000,0.0000,0.0000,0.0000,-6.2668,-6.2668,12.3012,12.3012,67.6088,67.6088,-92.1252,-92.1252,0.0000,-0.4092,13728.8872,0.0000,0.9957,0.9957,0.9358,0.9358,0.0000,0.0000
1.3000,accel,0.6522,0.0000,0.0000,5.1466,1.4493,0.0000,0.0000,0.8667,0.0000,0.0000,1,1600.1483,4948.6195,4948.6195,1928.3233,1928.3233,-0.0441,-0.0441,0.6644,0.6644,0.0000,0.0000,0.0000,0.0000,-3445.8156,-3445.8156,1788.6448,1788.6448,0.0000,0.0000,0.0000,0.0000,0.0000,-4.5482,-4.5482,12.3471,12.3471,529.8857,529.8857,-431.3558,-431.3558,0.0000,-0.3723,13753.8855,0.0000,0.6963,0.6963,0.9276,0.9276,0.0000,0.0000
1.4000,accel,0.8173,0.0000,0.0000,6.4356,1.7104,0.0000,0.0000,0.9333,0.0000,0.0000,1,1396.4788,3879.5678,3879.5678,2986.5147,2986.5147,0.4491,0.4491,0.5445,0.5445,0.0000,0.0000,0.0000,0.0000,3686.9118,3686.9118,2805.8312,2805.8312,0.0000,0.0000,0.0000,0.0000,0.0000,-6.9969,-6.9969,13.2046,13.2046,126.7526,126.7526,-135.1400,-135.1400,0.0000,-0.4452,13732.1652,0.0000,0.9503,0.9503,0.9395,0.9395,0.0000,0.0000
1.5000,accel,1.0118,0.0000,0.0000,7.3761,2.0571,0.0000,0.0000,1.0000,0.0000,0.0000,1,1724.2825,3687.3429,3687.3429,3177.3345,3177.3345,-0.3496,-0.3496,0.5685,0.5685,0.0000,0.0000,0.0000,0.0000,-3663.2261,-3663.2261,2977.1105,2977.1105,0.0000,0.0000,0.0000,0.0000,0.0000,-10.1601,-10.1601,16.4340,16.4340,81.4938,81.4938,-103.6872,-103.6872,0.0000,-0.5860,13729.3549,0.0000,0.9935,0.9935,0.9370,0.9370,0.0000,0.0000
1.6000,accel,1.2393,0.0000,0.0000,8.6085,2.4367,0.0000,0.0000,1.0000,0.0000,0.0000,1,1000.0000,2580.8914,2580.8914,4288.8752,4288.8752,-0.1738,-0.1738,-0.0148,-0.0148,0.0000,0.0000,0.0000,0.0000,-2580.8914,-2580.8914,-1236.8714,-1236.8714,0.0000,0.0000,0.0000,0.0000,0.0000,-13.1499,-13.1499,19.9346,19.9346,-236.5629,-236.5629,264.4484,264.4484,0.0000,-0.7291,13739.5333,0.0000,1.0000,1.0000,0.2884,0.2884,0.0000,0.0000
1.7000,accel,1.4997,0.0000,0.0000,9.9967,2.7625,0.0000,0.0000,1.0000,0.0000,0.0000,1,1918.9653,2746.4371,2746.4371,4120.8143,4120.8143,-0.4575,-0.4575,0.4856,0.4856,0.0000,0.0000,0.0000,0.0000,-2689.6370,-2689.6370,3898.3436,3898.3436,0.0000,0.0000,0.0000,0.0000,0.0000,-13.3956,-13.3956,20.5859,20.5859,-187.5092,-187.5092,190.7104,190.7104,0.0000,-0.7488,13734.5027,0.0000,0.9793,0.9793,0.9460,0.9460,0.0000,0.0000
1.8000,accel,1.7975,0.0000,0.0000,11.2297,3.1127,0.0000,0.0000,1.0000,0.0000,0.0000,1,1598.9090,3480.1260,3480.1260,3382.4621,3382.4621,-0.0538,-0.0538,0.3035,0.3035,0.0000,0.0000,0.0000,0.0000,-2719.4290,-2719.4290,3281.7320,3281.7320,0.0000,0.0000,0.0000,0.0000,0.0000,-13.4828,-13.4828,20.5507,20.5507,31.8341,31.8341,-74.4846,-74.4846,0.0000,-0.7500,13725.1763,0.0000,0.7814,0.7814,0.9702,0.9702,0.0000,0.0000
1.9000,accel,2.1317,0.0000,0.0000,12.6650,3.5095,0.0000,0.0000,1.0000,0.0000,0.0000,1,1348.1025,2842.6142,2842.6142,4023.6609,4023.6609,-0.4735,-0.4735,0.0743,0.0743,0.0000,0.0000,0.0000,0.0000,-2778.4298,-2778.4298,3496.4538,3496.4538,0.0000,0.0000,0.0000,0.0000,0.0000,-15.4013,-15.4013,21.8475,21.8475,-145.7040,-145.7040,139.2332,139.2332,0.0000,-0.8208,13732.5502,0.0000,0.9774,0.9774,0.8690,0.8690,0.0000,0.0000
2.0000,accel,2.5008,0.0000,0.0000,14.0525,3.8306,0.0000,0.0000,1.0000,0.0000,0.0000,1,1981.8146,3956.1840,3956.1840,2912.6671,2912.6671,0.0669,0.0669,0.3129,0.3129,0.0000,0.0000,0.0000,0.0000,3303.1775,3303.1775,2821.8630,2821.8630,0.0000,0.0000,0.0000,0.0000,0.0000,-13.9732,-13.9732,20.4935,20.4935,227.1618,227.1618,-208.3027,-208.3027,0.0000,-0.7595,13737.7022,0.0000,0.8349,0.8349,0.9688,0.9688,0.0000,0.0000
2.1000,accel,2.9093,0.0000,0.0000,15.4568,4.2371,0.0000,0.0000,1.0000,0.0000,0.0000,1,2209.5267,3481.3663,3481.3663,3382.8521,3382.8521,0.0247,0.0247,0.3193,0.3193,0.0000,0.0000,0.0000,0.0000,1469.2684,1469.2684,3274.1340,3274.1340,0.0000,0.0000,0.0000,0.0000,0.0000,-15.7107,-15.7107,21.5292,21.5292,54.6099,54.6099,-81.3621,-81.3621,0.0000,-0.8206,13728.4368,0.0000,0.4220,0.4220,0.9679,0.9679,0.0000,0.0000
2.2000,accel,3.3592,0.0000,0.0000,16.7108,4.6330,0.0000,0.0000,1.0000,0.0000,0.0000,1,2902.4517,2962.8834,2962.8834,3902.0413,3902.0413,-0.1514,-0.1514,0.4342,0.4342,0.0000,0.0000,0.0000,0.0000,-2962.8834,-2962.8834,3715.4003,3715.4003,0.0000,0.0000,0.0000,0.0000,0.0000,-15.2335,-15.2335,21.6272,21.6272,-112.5399,-112.5399,92.7887,92.7887,0.0000,-0.8123,13729.8493,0.0000,1.0000,1.0000,0.9522,0.9522,0.0000,0.0000
2.3000,accel,3.8525,0.0000,0.0000,18.4724,5.1223,0.0000,0.0000,1.0000,0.0000,0.0000,1,3615.0437,3068.1601,3068.1601,3795.3867,3795.3867,-0.0805,-0.0805,0.4979,0.4979,0.0000,0.0000,0.0000,0.0000,-2829.3364,-2829.3364,3585.1477,3585.1477,0.0000,0.0000,0.0000,0.0000,0.0000,-18.6132,-18.6132,24.1462,24.1462,-58.3202,-58.3202,24.9370,24.9370,0.0000,-0.9423,13727.0935,0.0000,0.9222,0.9222,0.9446,0.9446,0.0000,0.0000
2.4000,accel,4.3948,0.0000,0.0000,20.2276,5.6115,0.0000,0.0000,1.0000,0.0000,0.0000,1,5621.7011,3027.1457,3027.1457,3836.7938,3836.7938,-0.1021,-0.1021,0.6463,0.6463,0.0000,0.0000,0.0000,0.0000,-2949.6498,-2949.6498,3565.4194,3565.4194,0.0000,0.0000,0.0000,0.0000,0.0000,-20.0075,-20.0075,25.2436,25.2436,-60.0789,-60.0789,30.5258,30.5258,0.0000,-0.9972,13727.8789,0.0000,0.9744,0.9744,0.9293,0.9293,0.0000,0.0000
2.5000,accel,4.9856,0.0000,0.0000,22.0073,6.1015,0.0000,0.0000,1.0000,0.0000,0.0000,2,1997.6510,2855.8988,2855.8988,4009.8846,4009.8846,-0.1696,-0.1696,0.3894,0.3894,0.0000,0.0000,0.0000,0.0000,-2855.8988,-2855.8988,3841.3085,3841.3085,0.0000,0.0000,0.0000,0.0000,0.0000,-20.6893,-20.6893,25.9485,25.9485,-104.1370,-104.1370,92.7129,92.7129,0.0000,-1.0277,13731.5670,0.0000,1.0000,1.0000,0.9580,0.9580,0.0000,0.0000
2.6000,accel,5.6020,0.0000,0.0000,22.1836,6.1695,0.0000,0.0000,1.0000,0.0000,0.0000,2,1360.8106,3621.0705,3621.0705,3242.8204,3242.8204,-0.2328,-0.2328,0.0935,0.0935,0.0000,0.0000,0.0000,0.0000,-3621.0705,-3621.0705,3009.0363,3009.0363,0.0000,0.0000,0.0000,0.0000,0.0000,-8.7208,-8.7208,14.4179,14.4179,40.5924,40.5924,-70.5765,-70.5765,0.0000,-0.5099,13727.7817,0.0000,1.0000,1.0000,0.9279,0.9279,0.0000,0.0000
2.7000,accel,6.2195,0.0000,0.0000,22.2477,6.2487,0.0000,0.0000,1.0000,0.0000,0.0000,2,1187.8059,2612.3123,2612.3123,4261.6072,4261.6072,-0.2502,-0.2502,-0.0489,-0.0489,0.0000,0.0000,0.0000,0.0000,-2612.3123,-2612.3123,-3159.9717,-3159.9717,0.0000,0.0000,0.0000,0.0000,0.0000,-5.9558,-5.9558,10.5429,10.5429,-278.9725,-278.9725,347.4579,347.4579,0.0000,-0.3636,13747.8391,0.0000,1.0000,1.0000,0.7415,0.7415,0.0000,0.0000
2.8000,accel,6.8509,0.0000,0.0000,23.1311,6.3495,0.0000,0.0000,1.0000,0.0000,0.0000,2,1670.8213,4607.0229,4607.0229,2266.3396,2266.3396,0.0838,0.0838,0.2402,0.2402,0.0000,0.0000,0.0000,0.0000,4158.7495,4158.7495,2220.1441,2220.1441,0.0000,0.0000,0.0000,0.0000,0.0000,-3.1392,-3.1392,9.7105,9.7105,379.1576,379.1576,-315.9463,-315.9463,0.0000,-0.2832,13746.7250,0.0000,0.9027,0.9027,0.9796,0.9796,0.0000,0.0000
2.9000,accel,7.5010,0.0000,0.0000,23.6170,6.6140,0.0000,0.0000,1.0000,0.0000,0.0000,2,1289.7353,2574.9116,2574.9116,4296.8270,4296.8270,-0.2002,-0.2002,-0.0245,-0.0245,0.0000,0.0000,0.0000,0.0000,-2574.9116,-2574.9116,-1925.9731,-1925.9731,0.0000,0.0000,0.0000,0.0000,0.0000,-6.8425,-6.8425,13.6379,13.6379,-283.3242,-283.3242,330.5955,330.5955,0.0000,-0.4513,13743.4773,0.0000,1.0000,1.0000,0.4482,0.4482,0.0000,0.0000
3.0000,accel,8.1707,0.0000,0.0000,24.3903,6.7726,0.0000,0.0000,1.0000,0.0000,0.0000,2,1231.7547,3710.5986,3710.5986,3152.7675,3152.7675,0.0736,0.0736,-0.0900,-0.0900,0.0000,0.0000,0.0000,0.0000,3213.4025,3213.4025,-2994.7301,-2994.7301,0.0000,0.0000,0.0000,0.0000,0.0000,-5.8832,-5.8832,12.5649,12.5649,48.0279,48.0279,-83.0700,-83.0700,0.0000,-0.4065,13726.7323,0.0000,0.8660,0.8660,0.9499,0.9499,0.0000,0.0000
3.1000,accel,8.8591,0.0000,0.0000,25.1747,6.9442,0.0000,0.0000,1.0000,0.0000,0.0000,2,1496.8468,4101.4270,4101.4270,2766.5767,2766.5767,0.0246,0.0246,0.0725,0.0725,0.0000,0.0000,0.0000,0.0000,1725.1743,1725.1743,2383.2163,2383.2163,0.0000,0.0000,0.0000,0.0000,0.0000,-5.4379,-5.4379,11.9996,11.9996,199.9056,199.9056,-189.3726,-189.3726,0.0000,-0.3843,13736.0074,0.0000,0.4206,0.4206,0.8614,0.8614,0.0000,0.0000
3.2000,accel,9.5657,0.0000,0.0000,25.8355,7.0963,0.0000,0.0000,1.0000,0.0000,0.0000,2,1677.0507,3819.9011,3819.9011,3043.7594,3043.7594,0.1767,0.1767,0.1540,0.1540,0.0000,0.0000,0.0000,0.0000,3762.4834,3762.4834,2991.1023,2991.1023,0.0000,0.0000,0.0000,0.0000,0.0000,-3.8016,-3.8016,10.9987,10.9987,70.9324,70.9324,-103.0279,-103.0279,0.0000,-0.3262,13727.3212,0.0000,0.9850,0.9850,0.9827,0.9827,0.0000,0.0000
3.3000,accel,10.2923,0.0000,0.0000,26.4480,7.3425,0.0000,0.0000,1.0000,0.0000,0.0000,2,1383.2645,3794.2682,3794.2682,3070.6059,3070.6059,0.0537,0.0537,-0.0575,-0.0575,0.0000,0.0000,0.0000,0.0000,2847.1639,2847.1639,-2482.8594,-2482.8594,0.0000,0.0000,0.0000,0.0000,0.0000,-6.4241,-6.4241,12.6523,12.6523,86.9046,86.9046,-107.1693,-107.1693,0.0000,-0.4204,13729.7482,0.0000,0.7504,0.7504,0.8086,0.8086,0.0000,0.0000
3.4000,accel,11.0383,0.0000,0.0000,27.2206,7.5335,0.0000,0.0000,1.0000,0.0000,0.0000,2,1506.7650,3559.9802,3559.9802,3302.1947,3302.1947,0.0440,0.0440,0.0005,0.0005,0.0000,0.0000,0.0000,0.0000,2366.8327,2366.8327,-18.4681,-18.4681,0.0000,0.0000,0.0000,0.0000,0.0000,-6.2822,-6.2822,12.6390,12.6390,-5.8785,-5.8785,-40.9061,-40.9061,0.0000,-0.4170,13724.3499,0.0000,0.6648,0.6648,0.0056,0.0056,0.0000,0.0000
3.5000,accel,11.8031,0.0000,0.0000,27.7242,7.6921,0.0000,0.0000,1.0000,0.0000,0.0000,1,2355.3051,3918.1586,3918.1586,2948.4487,2948.4487,0.1054,0.1054,-0.1356,-0.1356,0.0000,0.0000,0.0000,0.0000,3720.3780,3720.3780,-2948.4487,-2948.4487,0.0000,0.0000,0.0000,0.0000,0.0000,-5.3034,-5.3034,10.7606,10.7606,125.2531,125.2531,-128.5587,-128.5587,0.0000,-0.3540,13733.2146,0.0000,0.9495,0.9495,1.0000,1.0000,0.0000,0.0000
3.6000,accel,12.5726,0.0000,0.0000,27.7105,7.6903,0.0000,0.0000,1.0000,0.0000,0.0000,1,2368.8228,3849.7078,3849.7078,3016.5295,3016.5295,0.1010,0.1010,-0.1305,-0.1305,0.0000,0.0000,0.0000,0.0000,3628.5332,3628.5332,-3016.5295,-3016.5295,0.0000,0.0000,0.0000,0.0000,0.0000,-1.7381,-1.7381,5.1968,5.1968,62.2196,62.2196,-69.3657,-69.3657,0.0000,-0.1528,13732.4746,0.0000,0.9425,0.9425,1.0000,1.0000,0.0000,0.0000
3.7000,accel,13.3445,0.0000,0.0000,28.2190,7.7861,0.0000,0.0000,1.0000,0.0000,0.0000,1,3302.3118,3451.5368,3451.5368,3414.5193,3414.5193,0.0177,0.0177,0.1646,0.1646,0.0000,0.0000,0.0000,0.0000,1062.9404,1062.9404,3360.8283,3360.8283,0.0000,0.0000,0.0000,0.0000,0.0000,-3.4633,-3.4633,6.6015,6.6015,-56.9972,-56.9972,48.0371,48.0371,0.0000,-0.2218,13732.1121,0.0000,0.3080,0.3080,0.9843,0.9843,0.0000,0.0000
3.8000,accel,14.1558,0.0000,0.0000,30.0970,8.2942,0.0000,0.0000,1.0000,0.0000,0.0000,1,4437.3591,3514.2543,3514.2543,3350.8925,3350.8925,0.0439,0.0439,0.3378,0.3378,0.0000,0.0000,0.0000,0.0000,2335.4121,2335.4121,3234.1442,3234.1442,0.0000,0.0000,0.0000,0.0000,0.0000,-13.7196,-13.7196,18.0483,18.0483,47.8533,47.8533,-65.6304,-65.6304,0.0000,-0.7001,13730.2936,0.0000,0.6646,0.6646,0.9652,0.9652,0.0000,0.0000
3.9000,accel,15.0174,0.0000,0.0000,31.8696,8.7905,0.0000,0.0000,1.0000,0.0000,0.0000,1,6096.4261,3522.6715,3522.6715,3343.3949,3343.3949,0.0372,0.0372,0.4891,0.4891,0.0000,0.0000,0.0000,0.0000,2080.6399,2080.6399,3161.5479,3161.5479,0.0000,0.0000,0.0000,0.0000,0.0000,-17.7457,-17.7457,22.5837,22.5837,91.4815,91.4815,-100.1679,-100.1679,0.0000,-0.8887,13732.1327,0.0000,0.5906,0.5906,0.9456,0.9456,0.0000,0.0000
4.0000,accel,15.9280,0.0000,0.0000,33.6302,9.2782,0.0000,0.0000,1.0000,0.0000,0.0000,1,6664.5891,3533.1668,3533.1668,3333.3240,3333.3240,0.0402,0.0402,0.5068,0.5068,0.0000,0.0000,0.0000,0.0000,2207.6093,2207.6093,3145.3758,3145.3758,0.0000,0.0000,0.0000,0.0000,0.0000,-19.2646,-19.2646,24.3080,24.3080,110.8692,110.8692,-115.3617,-115.3617,0.0000,-0.9602,13732.9817,0.0000,0.6248,0.6248,0.9436,0.9436,0.0000,0.0000
4.1000,accel,16.8874,0.0000,0.0000,35.3906,9.7653,0.0000,0.0000,1.0000,0.0000,0.0000,1,6782.3007,3541.1347,3541.1347,3325.5800,3325.5800,0.0446,0.0446,0.4899,0.4899,0.0000,0.0000,0.0000,0.0000,2375.2952,2375.2952,3144.4202,3144.4202,0.0000,0.0000,0.0000,0.0000,0.0000,-19.8829,-19.8829,25.0008,25.0008,120.2387,120.2387,-122.5227,-122.5227,0.0000,-0.9891,13733.4295,0.0000,0.6708,0.6708,0.9455,0.9455,0.0000,0.0000
4.2000,accel,17.8957,0.0000,0.0000,37.1533,10.2536,0.0000,0.0000,1.0000,0.0000,0.0000,1,6794.0992,3541.9028,3541.9028,3324.9071,3324.9071,0.0476,0.0476,0.4653,0.4653,0.0000,0.0000,0.0000,0.0000,2476.3970,2476.3970,3153.3097,3153.3097,0.0000,0.0000,0.0000,0.0000,0.0000,-20.1806,-20.1806,25.3026,25.3026,123.5233,123.5233,-124.8708,-124.8708,0.0000,-1.0023,13733.6199,0.0000,0.6992,0.6992,0.9484,0.9484,0.0000,0.0000
4.3000,accel,18.9530,0.0000,0.0000,38.9199,10.7439,0.0000,0.0000,1.0000,0.0000,0.0000,1,6779.0058,3537.1214,3537.1214,3329.7169,3329.7169,0.0484,0.0484,0.4385,0.4385,0.0000,0.0000,0.0000,0.0000,2499.6127,2499.6127,3168.6894,3168.6894,0.0000,0.0000,0.0000,0.0000,0.0000,-20.3775,-20.3775,25.4643,25.4643,123.5791,123.5791,-124.6516,-124.6516,0.0000,-1.0102,13733.6766,0.0000,0.7067,0.7067,0.9516,0.9516,0.0000,0.0000
4.4000,accel,20.0595,0.0000,0.0000,40.6921,11.2363,0.0000,0.0000,1.0000,0.0000,0.0000,1,6755.8186,3528.6538,3528.6538,3338.1801,3338.1801,0.0477,0.0477,0.4107,0.4107,0.0000,0.0000,0.0000,0.0000,2470.7175,2470.7175,3188.4594,3188.4594,0.0000,0.0000,0.0000,0.0000,0.0000,-20.5496,-20.5496,25.5765,25.5765,121.9131,121.9131,-123.0352,-123.0352,0.0000,-1.0165,13733.6678,0.0000,0.7002,0.7002,0.9551,0.9551,0.0000,0.0000
4.5000,accel,21.2153,0.0000,0.0000,42.4763,11.7313,0.0000,0.0000,1.0000,0.0000,0.0000,2,2931.0976,3510.2013,3510.2013,3356.5354,3356.5354,0.0463,0.0463,0.1999,0.1999,0.0000,0.0000,0.0000,0.0000,2414.3703,2414.3703,3303.4554,3303.4554,0.0000,0.0000,0.0000,0.0000,0.0000,-20.7443,-20.7443,25.6850,25.6850,116.4794,116.4794,-118.5653,-118.5653,0.0000,-1.0232,13733.4735,0.0000,0.6878,0.6878,0.9842,0.9842,0.0000,0.0000
4.6000,accel,22.3949,0.0000,0.0000,42.4771,11.7895,0.0000,0.0000,1.0000,0.0000,0.0000,2,2195.5029,3897.7524,3897.7524,2969.7162,2969.7162,0.0780,0.0780,-0.0685,-0.0685,0.0000,0.0000,0.0000,0.0000,3443.0599,3443.0599,-2591.5128,-2591.5128,0.0000,0.0000,0.0000,0.0000,0.0000,-8.4706,-8.4706,13.7202,13.7202,148.7626,148.7626,-143.6225,-143.6225,0.0000,-0.4890,13734.9373,0.0000,0.8833,0.8833,0.8726,0.8726,0.0000,0.0000
4.7000,accel,23.5748,0.0000,0.0000,42.7122,11.7920,0.0000,0.0000,1.0000,0.0000,0.0000,2,2575.1147,3784.6198,3784.6198,3081.1312,3081.1312,0.0775,0.0775,0.0846,0.0846,0.0000,0.0000,0.0000,0.0000,3335.9628,3335.9628,2788.7976,2788.7976,0.0000,0.0000,0.0000,0.0000,0.0000,-3.2121,-3.2121,6.8660,6.8660,50.9248,50.9248,-62.8311,-62.8311,0.0000,-0.2221,13731.5020,0.0000,0.8815,0.8815,0.9051,0.9051,0.0000,0.0000
4.8000,accel,24.7732,0.0000,0.0000,43.6038,12.0684,0.0000,0.0000,1.0000,0.0000,0.0000,2,2447.4870,3716.9459,3716.9459,3149.0460,3149.0460,0.0588,0.0588,0.0143,0.0143,0.0000,0.0000,0.0000,0.0000,2924.4761,2924.4761,784.5437,784.5437,0.0000,0.0000,0.0000,0.0000,0.0000,-7.4239,-7.4239,11.3540,11.3540,65.9738,65.9738,-75.4842,-75.4842,0.0000,-0.4138,13731.9838,0.0000,0.7868,0.7868,0.2491,0.2491,0.0000,0.0000
4.9000,accel,25.9972,0.0000,0.0000,44.5264,12.3260,0.0000,0.0000,1.0000,0.0000,0.0000,2,2498.0463,3722.5551,3722.5551,3144.0039,3144.0039,0.0558,0.0558,0.0136,0.0136,0.0000,0.0000,0.0000,0.0000,2853.0306,2853.0306,746.3574,746.3574,0.0000,0.0000,0.0000,0.0000,0.0000,-9.0063,-9.0063,12.9018,12.9018,84.0406,84.0406,-87.9801,-87.9801,0.0000,-0.4828,13733.1179,0.0000,0.7664,0.7664,0.2374,0.2374,0.0000,0.0000
5.0000,accel,27.2470,0.0000,0.0000,45.4632,12.5860,0.0000,0.0000,1.0000,0.0000,0.0000,2,2553.9441,3725.8119,3725.8119,3140.9916,3140.9916,0.0540,0.0540,0.0148,0.0148,0.0000,0.0000,0.0000,0.0000,2803.9021,2803.9021,814.1267,814.1267,0.0000,0.0000,0.0000,0.0000,0.0000,-9.7410,-9.7410,13.6555,13.6555,92.6906,92.6906,-94.2243,-94.2243,0.0000,-0.5156,13733.6070,0.0000,0.7526,0.7526,0.2592,0.2592,0.0000,0.0000
5.1000,accel,28.5231,0.0000,0.0000,46.4119,12.8490,0.0000,0.0000,1.0000,0.0000,0.0000,2,2611.8110,3727.1998,3727.1998,3139.6997,3139.6997,0.0524,0.0524,0.0165,0.0165,0.0000,0.0000,0.0000,0.0000,2760.1611,2760.1611,906.3265,906.3265,0.0000,0.0000,0.0000,0.0000,0.0000,-10.1203,-10.1203,14.0798,14.0798,97.0386,97.0386,-97.6242,-97.6242,0.0000,-0.5333,13733.7990,0.0000,0.7405,0.7405,0.2887,0.2887,0.0000,0.0000
5.2000,accel,29.8257,0.0000,0.0000,47.3720,13.1152,0.0000,0.0000,1.0000,0.0000,0.0000,2,2670.7073,3727.6604,3727.6604,3139.2740,3139.2740,0.0509,0.0509,0.0183,0.0183,0.0000,0.0000,0.0000,0.0000,2714.9207,2714.9207,1000.3854,1000.3854,0.0000,0.0000,0.0000,0.0000,0.0000,-10.3543,-10.3543,14.3674,14.3674,99.5635,99.5635,-99.8005,-99.8005,0.0000,-0.5448,13733.8688,0.0000,0.7283,0.7283,0.3187,0.3187,0.0000,0.0000
5.3000,accel,31.1551,0.0000,0.0000,48.3438,13.3846,0.0000,0.0000,1.0000,0.0000,0.0000,2,2730.5039,3727.1974,3727.1974,3139.7449,3139.7449,0.0494,0.0494,0.0201,0.0201,0.0000,0.0000,0.0000,0.0000,2667.2035,2667.2035,1093.0033,1093.0033,0.0000,0.0000,0.0000,0.0000,0.0000,-10.5319,-10.5319,14.5973,14.5973,101.1541,101.1541,-101.3077,-101.3077,0.0000,-0.5538,13733.8847,0.0000,0.7156,0.7156,0.3481,0.3481,0.0000,0.0000
5.4000,accel,32.5116,0.0000,0.0000,49.3272,13.6573,0.0000,0.0000,1.0000,0.0000,0.0000,2,2791.1499,3725.6314,3725.6314,3141.3059,3141.3059,0.0479,0.0479,0.0218,0.0218,0.0000,0.0000,0.0000,0.0000,2616.8800,2616.8800,1182.9326,1182.9326,0.0000,0.0000,0.0000,0.0000,0.0000,-10.6916,-10.6916,14.8019,14.8019,102.1241,102.1241,-102.3231,-102.3231,0.0000,-0.5618,13733.8746,0.0000,0.7024,0.7024,0.3766,0.3766,0.0000,0.0000
5.5000,accel,33.8957,0.0000,0.0000,50.3226,13.9334,0.0000,0.0000,1.0000,0.0000,0.0000,2,2852.5996,3722.7858,3722.7858,3144.1395,3144.1395,0.0464,0.0464,0.0235,0.0235,0.0000,0.0000,0.0000,0.0000,2563.8000,2563.8000,1269.2789,1269.2789,0.0000,0.0000,0.0000,0.0000,0.0000,-10.8506,-10.8506,14.9945,14.9945,102.5760,102.5760,-102.8891,-102.8891,0.0000,-0.5695,13733.8506,0.0000,0.6887,0.6887,0.4037,0.4037,0.0000,0.0000
5.6000,accel,35.3076,0.0000,0.0000,51.3301,14.2130,0.0000,0.0000,1.0000,0.0000,0.0000,2,2914.8189,3718.5320,3718.5320,3148.3776,3148.3776,0.0449,0.0449,0.0252,0.0252,0.0000,0.0000,0.0000,0.0000,2507.7333,2507.7333,1351.5470,1351.5470,0.0000,0.0000,0.0000,0.0000,0.0000,-11.0170,-11.0170,15.1802,15.1802,102.5387,102.5387,-103.0049,-103.0049,0.0000,-0.5773,13733.8191,0.0000,0.6744,0.6744,0.4293,0.4293,0.0000,0.0000
5.7000,accel,36.7476,0.0000,0.0000,52.3484,14.4958,0.0000,0.0000,1.0000,0.0000,0.0000,2,2976.6585,3712.1180,3712.1180,3154.7682,3154.7682,0.0435,0.0435,0.0265,0.0265,0.0000,0.0000,0.0000,0.0000,2450.3005,2450.3005,1413.5512,1413.5512,0.0000,0.0000,0.0000,0.0000,0.0000,-11.1896,-11.1896,15.3503,15.3503,101.6987,101.6987,-102.3942,-102.3942,0.0000,-0.5849,13733.7725,0.0000,0.6601,0.6601,0.4481,0.4481,0.0000,0.0000
5.8000,accel,38.2161,0.0000,0.0000,53.3761,14.7813,0.0000,0.0000,1.0000,0.0000,0.0000,2,3039.0280,3705.3593,3705.3593,3161.5174,3161.5174,0.0421,0.0421,0.0277,0.0277,0.0000,0.0000,0.0000,0.0000,2390.4938,2390.4938,1471.9265,1471.9265,0.0000,0.0000,0.0000,0.0000,0.0000,-11.3593,-11.3593,15.4930,15.4930,100.6930,100.6930,-101.4848,-101.4848,0.0000,-0.5917,13733.7535,0.0000,0.6451,0.6451,0.4656,0.4656,0.0000,0.0000
5.9000,accel,39.7133,0.0000,0.0000,54.4112,15.0690,0.0000,0.0000,1.0000,0.0000,0.0000,2,3101.9461,3698.8046,3698.8046,3168.0680,3168.0680,0.0406,0.0406,0.0289,0.0289,0.0000,0.0000,0.0000,0.0000,2327.4472,2327.4472,1528.6607,1528.6607,0.0000,0.0000,0.0000,0.0000,0.0000,-11.5124,-11.5124,15.6084,15.6084,99.6015,99.6015,-100.4377,-100.4377,0.0000,-0.5977,13733.7452,0.0000,0.6292,0.6292,0.4825,0.4825,0.0000,0.0000
6.0000,accel,41.2393,0.0000,0.0000,55.4535,15.3586,0.0000,0.0000,1.0000,0.0000,0.0000,2,3165.2802,3691.0208,3691.0208,3175.8412,3175.8412,0.0391,0.0391,0.0300,0.0300,0.0000,0.0000,0.0000,0.0000,2260.3879,2260.3879,1582.8517,1582.8517,0.0000,0.0000,0.0000,0.0000,0.0000,-11.6621,-11.6621,15.7084,15.7084,97.9857,97.9857,-98.9309,-98.9309,0.0000,-0.6032,13733.7240,0.0000,0.6124,0.6124,0.4984,0.4984,0.0000,0.0000
6.1000,accel,42.7944,0.0000,0.0000,56.5028,15.6504,0.0000,0.0000,1.0000,0.0000,0.0000,2,3229.0419,3682.0115,3682.0115,3184.8373,3184.8373,0.0375,0.0375,0.0311,0.0311,0.0000,0.0000,0.0000,0.0000,2188.8886,2188.8886,1634.8822,1634.8822,0.0000,0.0000,0.0000,0.0000,0.0000,-11.8165,-11.8165,15.7990,15.7990,95.9256,95.9256,-97.0077,-97.0077,0.0000,-0.6086,13733.6975,0.0000,0.5945,0.5945,0.5133,0.5133,0.0000,0.0000
6.2000,accel,44.3788,0.0000,0.0000,57.5594,15.9442,0.0000,0.0000,1.0000,0.0000,0.0000,2,3293.2461,3671.7651,3671.7651,3195.0692,3195.0692,0.0359,0.0359,0.0321,0.0321,0.0000,0.0000,0.0000,0.0000,2112.4540,2112.4540,1685.1474,1685.1474,0.0000,0.0000,0.0000,0.0000,0.0000,-11.9789,-11.9789,15.8827,15.8827,93.4506,93.4506,-94.6824,-94.6824,0.0000,-0.6140,13733.6687,0.0000,0.5753,0.5753,0.5274,0.5274,0.0000,0.0000
6.3000,accel,45.9927,0.0000,0.0000,58.6233,16.2402,0.0000,0.0000,1.0000,0.0000,0.0000,2,3357.9103,3660.2533,3660.2533,3206.5660,3206.5660,0.0342,0.0342,0.0332,0.0332,0.0000,0.0000,0.0000,0.0000,2030.5079,2030.5079,1734.0381,1734.0381,0.0000,0.0000,0.0000,0.0000,0.0000,-12.1507,-12.1507,15.9606,15.9606,90.5647,90.5647,-91.9541,-91.9541,0.0000,-0.6195,13733.6386,0.0000,0.5547,0.5547,0.5408,0.5408,0.0000,0.0000
6.4000,accel,47.6363,0.0000,0.0000,59.6944,16.5382,0.0000,0.0000,1.0000,0.0000,0.0000,2,3423.0535,3647.4268,3647.4268,3219.3769,3219.3769,0.0325,0.0325,0.0341,0.0341,0.0000,0.0000,0.0000,0.0000,1942.3711,1942.3711,1781.9349,1781.9349,0.0000,0.0000,0.0000,0.0000,0.0000,-12.3330,-12.3330,16.0330,16.0330,87.2567,87.2567,-88.8107,-88.8107,0.0000,-0.6251,13733.6073,0.0000,0.5325,0.5325,0.5535,0.5535,0.0000,0.0000
6.5000,accel,49.3097,0.0000,0.0000,60.7729,16.8384,0.0000,0.0000,1.0000,0.0000,0.0000,2,3488.6957,3633.2110,3633.2110,3233.5764,3233.5764,0.0307,0.0307,0.0351,0.0351,0.0000,0.0000,0.0000,0.0000,1847.2306,1847.2306,1829.2095,1829.2095,0.0000,0.0000,0.0000,0.0000,0.0000,-12.5263,-12.5263,16.0998,16.0998,83.5033,83.5033,-85.2307,-85.2307,0.0000,-0.6308,13733.5747,0.0000,0.5084,0.5084,0.5657,0.5657,0.0000,0.0000
6.6000,accel,51.0133,0.0000,0.0000,61.8588,17.1407,0.0000,0.0000,1.0000,0.0000,0.0000,2,3554.8587,3617.4997,3617.4997,3249.2703,3249.2703,0.0288,0.0288,0.0361,0.0361,0.0000,0.0000,0.0000,0.0000,1744.0960,1744.0960,1876.2313,1876.2313,0.0000,0.0000,0.0000,0.0000,0.0000,-12.7314,-12.7314,16.1607,16.1607,79.2694,79.2694,-81.1819,-81.1819,0.0000,-0.6367,13733.5400,0.0000,0.4821,0.4821,0.5774,0.5774,0.0000,0.0000
6.7000,accel,52.7472,0.0000,0.0000,62.9520,17.4452,0.0000,0.0000,1.0000,0.0000,0.0000,2,3621.5656,3600.1471,3600.1471,3266.6041,3266.6041,0.0268,0.0268,0.0370,0.0370,0.0000,0.0000,0.0000,0.0000,1631.7399,1631.7399,1923.3787,1923.3787,0.0000,0.0000,0.0000,0.0000,0.0000,-12.9491,-12.9491,16.2153,16.2153,74.5059,74.5059,-76.6195,-76.6195,0.0000,-0.6427,13733.5025,0.0000,0.4532,0.4532,0.5888,0.5888,0.0000,0.0000
6.8000,accel,54.5117,0.0000,0.0000,64.0527,17.7519,0.0000,0.0000,1.0000,0.0000,0.0000,2,3688.8421,3580.9563,3580.9563,3285.7741,3285.7741,0.0247,0.0247,0.0380,0.0380,0.0000,0.0000,0.0000,0.0000,1508.6175,1508.6175,1971.0540,1971.0540,0.0000,0.0000,0.0000,0.0000,0.0000,-13.1808,-13.1808,16.2629,16.2629,69.1463,69.1463,-71.4827,-71.4827,0.0000,-0.6488,13733.4609,0.0000,0.4213,0.4213,0.5999,0.5999,0.0000,0.0000
6.9000,accel,56.3069,0.0000,0.0000,65.1609,18.0608,0.0000,0.0000,1.0000,0.0000,0.0000,2,3756.7171,3559.6651,3559.6651,3307.0419,3307.0419,0.0224,0.0224,0.0389,0.0389,0.0000,0.0000,0.0000,0.0000,1372.7660,1372.7660,2019.7021,2019.7021,0.0000,0.0000,0.0000,0.0000,0.0000,-13.4280,-13.4280,16.3027,16.3027,63.1020,63.1020,-65.6901,-65.6901,0.0000,-0.6552,13733.4140,0.0000,0.3856,0.3856,0.6107,0.6107,0.0000,0.0000
7.0000,brake,58.1330,0.0000,0.0000,66.2765,18.3719,0.0000,0.0000,0.0000,0.0000,0.0000,2,3825.2234,3535.9310,3535.9310,3330.7489,3330.7489,0.0199,0.0199,0.0399,0.0399,0.0000,0.0000,0.0000,0.0000,1221.7054,1221.7054,2069.8281,2069.8281,0.0000,0.0000,0.0000,0.0000,0.0000,-13.6929,-13.6929,16.3334,16.3334,56.2578,56.2578,-59.1358,-59.1358,0.0000,-0.6617,13733.3599,0.0000,0.3455,0.3455,0.6214,0.6214,0.0000,0.0000
7.1000,brake,59.9713,0.0000,0.0000,66.0075,18.3214,0.0000,0.0000,0.0000,0.3333,0.0000,2,3654.3907,4383.9472,4383.9472,2488.4740,2488.4740,0.0183,0.0183,-0.0023,-0.0023,0.0000,0.0000,0.0000,0.0000,1398.1423,1398.1423,-143.7155,-143.7155,0.0000,0.0000,0.0000,0.0000,0.0000,-2.3719,-2.3719,6.3614,6.3614,282.2537,282.2537,-228.5577,-228.5577,0.0000,-0.1925,13744.8424,0.0000,0.3189,0.3189,0.0578,0.0578,0.0000,0.0000
7.2000,brake,61.7883,0.0000,0.0000,64.8844,18.0324,0.0000,0.0000,0.0000,0.6667,0.0000,2,3543.8133,4574.8015,4574.8015,2295.7817,2295.7817,0.0016,0.0016,-0.0169,-0.0169,0.0000,0.0000,0.0000,0.0000,69.8633,69.8633,-747.6963,-747.6963,0.0000,0.0000,0.0000,0.0000,0.0000,8.9570,8.9570,-4.0031,-4.0031,245.3067,245.3067,-209.5803,-209.5803,0.0000,0.2856,13741.1664,0.0000,0.0153,0.0153,0.3257,0.3257,0.0000,0.0000
7.3000,brake,63.5639,0.0000,0.0000,63.1224,17.5571,0.0000,0.0000,0.0000,0.8000,0.0000,2,3377.6724,4631.1609,4631.1609,2237.6636,2237.6636,-0.0045,-0.0045,-0.0377,-0.0377,0.0000,0.0000,0.0000,0.0000,-463.8662,-463.8662,-1401.2947,-1401.2947,0.0000,0.0000,0.0000,0.0000,0.0000,18.1647,18.1647,-13.6360,-13.6360,175.7734,175.7734,-157.3792,-157.3792,0.0000,0.7008,13737.6488,0.0000,0.1002,0.1002,0.6262,0.6262,0.0000,0.0000
7.4000,brake,65.2885,0.0000,0.0000,61.2817,17.0438,0.0000,0.0000,0.0000,0.8000,0.0000,2,3283.6436,4657.3866,4657.3866,2210.5907,2210.5907,-0.0032,-0.0032,-0.0363,-0.0363,0.0000,0.0000,0.0000,0.0000,-353.3414,-353.3414,-1347.8661,-1347.8661,0.0000,0.0000,0.0000,0.0000,0.0000,22.8949,22.8949,-18.7018,-18.7018,138.9621,138.9621,-128.9299,-128.9299,0.0000,0.9167,13735.9545,0.0000,0.0759,0.0759,0.6097,0.6097,0.0000,0.0000
7.5000,brake,66.9620,0.0000,0.0000,59.4431,16.5312,0.0000,0.0000,0.0000,0.8000,0.0000,2,3189.0184,4681.2027,4681.2027,2186.3803,2186.3803,-0.0021,-0.0021,-0.0350,-0.0350,0.0000,0.0000,0.0000,0.0000,-254.3799,-254.3799,-1299.7291,-1299.7291,0.0000,0.0000,0.0000,0.0000,0.0000,25.0174,25.0174,-20.7663,-20.7663,127.2634,127.2634,-121.1007,-121.1007,0.0000,1.0089,13735.1660,0.0000,0.0543,0.0543,0.5945,0.5945,0.0000,0.0000
7.6000,brake,68.5844,0.0000,0.0000,57.6066,16.0195,0.0000,0.0000,0.0000,0.8000,0.0000,2,3094.2512,4703.7821,4703.7821,2163.6137,2163.6137,-0.0011,-0.0011,-0.0338,-0.0338,0.0000,0.0000,0.0000,0.0000,-168.1941,-168.1941,-1252.5090,-1252.5090,0.0000,0.0000,0.0000,0.0000,0.0000,26.0230,26.0230,-21.5657,-21.5657,126.2389,126.2389,-121.8952,-121.8952,0.0000,1.0487,13734.7916,0.0000,0.0358,0.0358,0.5789,0.5789,0.0000,0.0000
7.7000,brake,70.1557,0.0000,0.0000,55.7722,15.5084,0.0000,0.0000,0.0000,0.8000,0.0000,2,2999.4665,4724.8734,4724.8734,2142.4265,2142.4265,-0.0002,-0.0002,-0.0325,-0.0325,0.0000,0.0000,0.0000,0.0000,-93.2936,-93.2936,-1205.0867,-1205.0867,0.0000,0.0000,0.0000,0.0000,0.0000,26.5455,26.5455,-21.8352,-21.8352,129.4500,129.4500,-126.0236,-126.0236,0.0000,1.0662,13734.5998,0.0000,0.0197,0.0197,0.5625,0.5625,0.0000,0.0000
7.8000,brake,71.6760,0.0000,0.0000,53.9399,14.9980,0.0000,0.0000,0.0000,0.8000,0.0000,2,2904.7233,4744.5735,4744.5735,2122.6721,2122.6721,0.0005,0.0005,-0.0312,-0.0312,0.0000,0.0000,0.0000,0.0000,-28.2794,-28.2794,-1156.5907,-1156.5907,0.0000,0.0000,0.0000,0.0000,0.0000,26.8554,26.8554,-21.8851,-21.8851,134.2313,134.2313,-131.3114,-131.3114,0.0000,1.0741,13734.4913,0.0000,0.0060,0.0060,0.5449,0.5449,0.0000,0.0000
7.9000,brake,73.1453,0.0000,0.0000,52.1096,14.4883,0.0000,0.0000,0.0000,0.8000,0.0000,2,2810.0409,4763.1158,4763.1158,2104.0961,2104.0961,0.0011,0.0011,-0.0298,-0.0298,0.0000,0.0000,0.0000,0.0000,28.0455,28.0455,-1106.3458,-1106.3458,0.0000,0.0000,0.0000,0.0000,0.0000,27.0690,27.0690,-21.8461,-21.8461,139.5118,139.5118,-136.8979,-136.8979,0.0000,1.0779,13734.4239,0.0000,0.0059,0.0059,0.5258,0.5258,0.0000,0.0000
8.0000,brake,74.5638,0.0000,0.0000,50.2814,13.9792,0.0000,0.0000,0.0000,0.8000,0.0000,2,2715.4257,4780.7337,4780.7337,2086.4554,2086.4554,0.0016,0.0016,-0.0283,-0.0283,0.0000,0.0000,0.0000,0.0000,76.6537,76.6537,-1053.7335,-1053.7335,0.0000,0.0000,0.0000,0.0000,0.0000,27.2373,27.2373,-21.7726,-21.7726,144.8763,144.8763,-142.4625,-142.4625,0.0000,1.0800,13734.3781,0.0000,0.0160,0.0160,0.5050,0.5050,0.0000,0.0000
8.1000,brake,75.9315,0.0000,0.0000,48.4552,13.4708,0.0000,0.0000,0.0000,0.8000,0.0000,2,2620.8627,4797.6184,4797.6184,2069.5541,2069.5541,0.0021,0.0021,-0.0268,-0.0268,0.0000,0.0000,0.0000,0.0000,118.5280,118.5280,-998.3377,-998.3377,0.0000,0.0000,0.0000,0.0000,0.0000,27.3828,27.3828,-21.6872,-21.6872,150.1753,150.1753,-147.9014,-147.9014,0.0000,1.0813,13734.3449,0.0000,0.0247,0.0247,0.4824,0.4824,0.0000,0.0000
8.2000,brake,77.2484,0.0000,0.0000,46.6316,12.9628,0.0000,0.0000,0.0000,0.8000,0.0000,2,2526.1330,4813.3252,4813.3252,2053.8281,2053.8281,0.0027,0.0027,-0.0252,-0.0252,0.0000,0.0000,0.0000,0.0000,177.2654,177.2654,-942.3547,-942.3547,0.0000,0.0000,0.0000,0.0000,0.0000,27.5169,27.5169,-21.6011,-21.6011,155.1175,155.1175,-153.0098,-153.0098,0.0000,1.0824,13734.3065,0.0000,0.0368,0.0368,0.4588,0.4588,0.0000,0.0000
8.3000,brake,78.5144,0.0000,0.0000,44.6813,12.4751,0.0000,0.0000,0.0000,0.8000,0.0000,2,2387.4213,4243.0279,4243.0279,2619.9771,2619.9771,-0.0609,-0.0609,-0.0427,-0.0427,0.0000,0.0000,0.0000,0.0000,-3524.0322,-3524.0322,-1786.3181,-1786.3181,0.0000,0.0000,0.0000,0.0000,0.0000,26.6038,26.6038,-21.0679,-21.0679,-45.6224,-45.6224,6.9142,6.9142,0.0000,1.0505,13726.0101,0.0000,0.8305,0.8305,0.6818,0.6818,0.0000,0.0000
8.4000,brake,79.7309,0.0000,0.0000,42.8822,11.9724,0.0000,0.0000,0.0000,0.8000,0.0000,2,2379.9662,4846.5725,4846.5725,2020.8777,2020.8777,-0.1172,-0.1172,-0.0056,-0.0056,0.0000,0.0000,0.0000,0.0000,-4816.2158,-4816.2158,-245.0020,-245.0020,0.0000,0.0000,0.0000,0.0000,0.0000,26.9231,26.9231,-20.6399,-20.6399,174.3539,174.3539,-169.2900,-169.2900,0.0000,1.0481,13734.9004,0.0000,0.9937,0.9937,0.1212,0.1212,0.0000,0.0000
8.5000,brake,80.8969,0.0000,0.0000,41.0695,11.4676,0.0000,0.0000,0.0000,0.8000,0.0000,2,2288.0665,4851.6105,4851.6105,2015.5505,2015.5505,-0.1299,-0.1299,-0.0019,-0.0019,0.0000,0.0000,0.0000,0.0000,-4851.6105,-4851.6105,-103.9310,-103.9310,0.0000,0.0000,0.0000,0.0000,0.0000,27.1397,27.1397,-20.4814,-20.4814,174.2032,174.2032,-171.9440,-171.9440,0.0000,1.0494,13734.3220,0.0000,1.0000,1.0000,0.0516,0.0516,0.0000,0.0000
8.6000,brake,82.0123,0.0000,0.0000,39.2640,10.9634,0.0000,0.0000,0.0000,0.8000,0.0000,2,2199.8769,4847.6992,4847.6992,2019.3384,2019.3384,-0.1464,-0.1464,0.0037,0.0037,0.0000,0.0000,0.0000,0.0000,-4847.6992,-4847.6992,112.2476,112.2476,0.0000,0.0000,0.0000,0.0000,0.0000,27.1536,27.1536,-20.3998,-20.3998,172.4998,172.4998,-171.4448,-171.4448,0.0000,1.0479,13734.0750,0.0000,1.0000,1.0000,0.0556,0.0556,0.0000,0.0000
8.7000,brake,83.0772,0.0000,0.0000,37.4532,10.4586,0.0000,0.0000,0.0000,0.8000,0.0000,2,2106.6156,4844.1276,4844.1276,2022.9760,2022.9760,-0.1567,-0.1567,0.0075,0.0075,0.0000,0.0000,0.0000,0.0000,-4844.1276,-4844.1276,256.5923,256.5923,0.0000,0.0000,0.0000,0.0000,0.0000,27.0788,27.0788,-20.4389,-20.4389,171.8189,171.8189,-170.1264,-170.1264,0.0000,1.0471,13734.2071,0.0000,1.0000,1.0000,0.1268,0.1268,0.0000,0.0000
8.8000,brake,84.0916,0.0000,0.0000,35.6439,9.9542,0.0000,0.0000,0.0000,0.8000,0.0000,2,2012.9810,4843.4989,4843.4989,2023.7150,2023.7150,-0.1678,-0.1678,0.0114,0.0114,0.0000,0.0000,0.0000,0.0000,-4843.4989,-4843.4989,402.3797,402.3797,0.0000,0.0000,0.0000,0.0000,0.0000,27.0030,27.0030,-20.4885,-20.4885,172.3254,172.3254,-169.5609,-169.5609,0.0000,1.0466,13734.4278,0.0000,1.0000,1.0000,0.1988,0.1988,0.0000,0.0000
8.9000,brake,85.0555,0.0000,0.0000,33.8366,9.4503,0.0000,0.0000,0.0000,0.8000,0.0000,2,1919.5275,4843.4153,4843.4153,2023.9144,2023.9144,-0.1804,-0.1804,0.0158,0.0158,0.0000,0.0000,0.0000,0.0000,-4843.4153,-4843.4153,558.4640,558.4640,0.0000,0.0000,0.0000,0.0000,0.0000,26.9308,26.9308,-20.5417,-20.5417,173.0137,173.0137,-169.1241,-169.1241,0.0000,1.0461,13734.6593,0.0000,1.0000,1.0000,0.2759,0.2759,0.0000,0.0000
9.0000,brake,85.9691,0.0000,0.0000,32.0331,8.9465,0.0000,0.0000,0.0000,0.8000,0.0000,2,1831.4413,4858.9787,4858.9787,2008.5654,2008.5654,-0.1955,-0.1955,0.0234,0.0234,0.0000,0.0000,0.0000,0.0000,-4858.9787,-4858.9787,807.5654,807.5654,0.0000,0.0000,0.0000,0.0000,0.0000,26.9229,26.9229,-20.5676,-20.5676,179.3182,179.3182,-173.3241,-173.3241,0.0000,1.0465,13735.0882,0.0000,1.0000,1.0000,0.4021,0.4021,0.0000,0.0000
9.1000,brake,86.8322,0.0000,0.0000,30.1283,8.4281,0.0000,0.0000,0.0000,0.8000,0.0000,2,1654.7717,4919.1804,4919.1804,1949.2040,1949.2040,-0.0682,-0.0682,-0.0179,-0.0179,0.0000,0.0000,0.0000,0.0000,-4285.4282,-4285.4282,-665.1920,-665.1920,0.0000,0.0000,0.0000,0.0000,0.0000,27.4138,27.4138,-21.4093,-21.4093,198.4904,198.4904,-184.2721,-184.2721,0.0000,1.0759,13736.7687,0.0000,0.8712,0.8712,0.3413,0.3413,0.0000,0.0000
9.2000,brake,87.6451,0.0000,0.0000,28.3425,7.9368,0.0000,0.0000,0.0000,0.8000,0.0000,2,1385.4469,4407.6187,4407.6187,2455.0529,2455.0529,-0.0403,-0.0403,-0.1267,-0.1267,0.0000,0.0000,0.0000,0.0000,-2893.1740,-2893.1740,-2455.0529,-2455.0529,0.0000,0.0000,0.0000,0.0000,0.0000,26.7576,26.7576,-21.0382,-21.0382,0.4277,0.4277,-42.3949,-42.3949,0.0000,1.0533,13725.3432,0.0000,0.6564,0.6564,1.0000,1.0000,0.0000,0.0000
9.3000,brake,88.4083,0.0000,0.0000,26.7782,7.4055,0.0000,0.0000,0.0000,0.8000,0.0000,2,1382.5190,4915.7866,4915.7866,1952.5300,1952.5300,0.0848,0.0848,-0.0661,-0.0661,0.0000,0.0000,0.0000,0.0000,4452.6095,4452.6095,-1679.9356,-1679.9356,0.0000,0.0000,0.0000,0.0000,0.0000,28.0059,28.0059,-22.1993,-22.1993,191.2112,191.2112,-177.6792,-177.6792,0.0000,1.1064,13736.6332,0.0000,0.9058,0.9058,0.8604,0.8604,0.0000,0.0000
9.4000,brake,89.1211,0.0000,0.0000,24.7431,6.9443,0.0000,0.0000,0.0000,0.8000,0.0000,2,1072.7763,4288.1486,4288.1486,2574.1929,2574.1929,-0.0553,-0.0553,-0.2268,-0.2268,0.0000,0.0000,0.0000,0.0000,-3398.9485,-3398.9485,-2574.1929,-2574.1929,0.0000,0.0000,0.0000,0.0000,0.0000,26.6732,26.6732,-20.5358,-20.5358,-33.2262,-33.2262,-11.9436,-11.9436,0.0000,1.0403,13724.6830,0.0000,0.7926,0.7926,1.0000,1.0000,0.0000,0.0000
9.5000,brake,89.7841,0.0000,0.0000,22.9193,6.4478,0.0000,0.0000,0.0000,0.8000,0.0000,2,1148.6545,3962.3264,3962.3264,2903.4099,2903.4099,-0.2375,-0.2375,-0.1085,-0.1085,0.0000,0.0000,0.0000,0.0000,-3962.3264,-3962.3264,-2856.6676,-2856.6676,0.0000,0.0000,0.0000,0.0000,0.0000,26.4888,26.4888,-20.3593,-20.3593,-125.0009,-125.0009,113.2014,113.2014,0.0000,1.0324,13731.4726,0.0000,1.0000,1.0000,0.9839,0.9839,0.0000,0.0000
9.6000,brake,90.3963,0.0000,0.0000,21.2066,5.9682,0.0000,0.0000,0.0000,0.8000,0.0000,2,1097.9477,3207.6199,3207.6199,3666.5440,3666.5440,-0.4859,-0.4859,-0.0793,-0.0793,0.0000,0.0000,0.0000,0.0000,-3130.5886,-3130.5886,-3366.9339,-3366.9339,0.0000,0.0000,0.0000,0.0000,0.0000,25.7180,25.7180,-19.1354,-19.1354,-335.1255,-335.1255,406.2160,406.2160,0.0000,0.9884,13748.3279,0.0000,0.9760,0.9760,0.9183,0.9183,0.0000,0.0000
9.7000,brake,90.9587,0.0000,0.0000,19.4284,5.4751,0.0000,0.0000,0.0000,0.8000,0.0000,2,1000.0000,3212.2379,3212.2379,3661.8615,3661.8615,-0.6004,-0.6004,-0.0901,-0.0901,0.0000,0.0000,0.0000,0.0000,-3095.7783,-3095.7783,-3478.8178,-3478.8178,0.0000,0.0000,0.0000,0.0000,0.0000,25.3768,25.3768,-18.8827,-18.8827,-331.3690,-331.3690,401.8160,401.8160,0.0000,0.9753,13748.1988,0.0000,0.9637,0.9637,0.9500,0.9500,0.0000,0.0000
9.8000,brake,91.4717,0.0000,0.0000,17.6362,4.9794,0.0000,0.0000,0.0000,0.8000,0.0000,2,1000.0000,3258.6428,3258.6428,3614.3001,3614.3001,-0.6198,-0.6198,-0.1880,-0.1880,0.0000,0.0000,0.0000,0.0000,-3134.2467,-3134.2467,-3614.3001,-3614.3001,0.0000,0.0000,0.0000,0.0000,0.0000,25.5957,25.5957,-18.4852,-18.4852,-319.6741,-319.6741,378.8161,378.8161,0.0000,0.9714,13745.8859,0.0000,0.9618,0.9618,1.0000,1.0000,0.0000,0.0000
9.9000,brake,91.9344,0.0000,0.0000,15.8368,4.4794,0.0000,0.0000,0.0000,0.8000,0.0000,2,1000.0000,3232.4556,3232.4556,3640.5658,3640.5658,-0.6615,-0.6615,-0.2351,-0.2351,0.0000,0.0000,0.0000,0.0000,-3096.1648,-3096.1648,-3640.5658,-3640.5658,0.0000,0.0000,0.0000,0.0000,0.0000,25.7309,25.7309,-18.3592,-18.3592,-328.1222,-328.1222,388.0623,388.0623,0.0000,0.9716,13746.0429,0.0000,0.9578,0.9578,1.0000,1.0000,0.0000,0.0000
10.0000,brake,92.3469,0.0000,0.0000,14.0056,3.9706,0.0000,0.0000,0.0000,0.8000,0.0000,2,1000.0000,3218.7047,3218.7047,3654.4052,3654.4052,-0.6931,-0.6931,-0.1954,-0.1954,0.0000,0.0000,0.0000,0.0000,-3073.5818,-3073.5818,-3654.4052,-3654.4052,0.0000,0.0000,0.0000,0.0000,0.0000,26.1039,26.1039,-18.5536,-18.5536,-334.7153,-334.7153,395.5425,395.5425,0.0000,0.9841,13746.2197,0.0000,0.9549,0.9549,1.0000,1.0000,0.0000,0.0000
10.1000,brake,92.7098,0.0000,0.0000,12.2408,3.4798,0.0000,0.0000,0.0000,0.8000,0.0000,2,1000.0000,3217.1358,3217.1358,3655.8595,3655.8595,-0.7941,-0.7941,-0.3318,-0.3318,0.0000,0.0000,0.0000,0.0000,-3043.5412,-3043.5412,-3641.3342,-3641.3342,0.0000,0.0000,0.0000,0.0000,0.0000,25.8411,25.8411,-18.2405,-18.2405,-333.2863,-333.2863,392.9925,392.9925,0.0000,0.9714,13745.9906,0.0000,0.9460,0.9460,0.9960,0.9960,0.0000,0.0000
10.2000,brake,93.0207,0.0000,0.0000,10.2501,2.9290,0.0000,0.0000,0.0000,0.8000,0.0000,2,1000.0000,4894.4120,4894.4120,1973.0632,1973.0632,-0.2295,-0.2295,-0.2277,-0.2277,0.0000,0.0000,0.0000,0.0000,-4894.4120,-4894.4120,-1973.0632,-1973.0632,0.0000,0.0000,0.0000,0.0000,0.0000,27.2660,27.2660,-20.3964,-20.3964,190.0604,190.0604,-184.6907,-184.6907,0.0000,1.0503,13734.9505,0.0000,1.0000,1.0000,1.0000,1.0000,0.0000,0.0000
10.3000,brake,93.2847,0.0000,0.0000,8.7065,2.4958,0.0000,0.0000,0.0000,0.8000,0.0000,2,1000.0000,3307.1589,3307.1589,3564.4439,3564.4439,-0.8477,-0.8477,-0.0889,-0.0889,0.0000,0.0000,0.0000,0.0000,-3113.9122,-3113.9122,-3375.7377,-3375.7377,0.0000,0.0000,0.0000,0.0000,0.0000,25.3988,25.3988,-17.6419,-17.6419,-304.4057,-304.4057,350.4401,350.4401,0.0000,0.9485,13743.2057,0.0000,0.9416,0.9416,0.9471,0.9471,0.0000,0.0000
10.4000,brake,93.5050,0.0000,0.0000,7.1704,2.0716,0.0000,0.0000,0.0000,0.8000,0.0000,2,1000.0000,3147.5318,3147.5318,3725.3158,3725.3158,-0.7762,-0.7762,-0.1349,-0.1349,0.0000,0.0000,0.0000,0.0000,-2982.4810,-2982.4810,-3725.3158,-3725.3158,0.0000,0.0000,0.0000,0.0000,0.0000,24.1124,24.1124,-16.0753,-16.0753,-340.8252,-340.8252,399.1238,399.1238,0.0000,0.8856,13745.6952,0.0000,0.9476,0.9476,1.0000,1.0000,0.0000,0.0000
10.5000,brake,93.6882,0.0000,0.0000,6.1338,1.6763,0.0000,0.0000,0.0000,0.8000,0.0000,2,1000.0000,4633.1027,4633.1027,2230.5624,2230.5624,0.3399,0.3399,-0.0976,-0.0976,0.0000,0.0000,0.0000,0.0000,4470.2643,4470.2643,-2155.5782,-2155.5782,0.0000,0.0000,0.0000,0.0000,0.0000,23.9050,23.9050,-14.8124,-14.8124,119.1467,119.1467,-151.0049,-151.0049,0.0000,0.8532,13727.3302,0.0000,0.9649,0.9649,0.9664,0.9664,0.0000,0.0000
10.6000,brake,93.8462,0.0000,0.0000,5.1543,1.5119,0.0000,0.0000,0.0000,0.8000,0.0000,2,1000.0000,3222.9956,3222.9956,3645.1129,3645.1129,-0.4828,-0.4828,-0.1083,-0.1083,0.0000,0.0000,0.0000,0.0000,-3146.7361,-3146.7361,-3585.2059,-3585.2059,0.0000,0.0000,0.0000,0.0000,0.0000,18.0333,18.0333,-8.1455,-8.1455,-275.8422,-275.8422,287.7438,287.7438,0.0000,0.5769,13736.2171,0.0000,0.9763,0.9763,0.9836,0.9836,0.0000,0.0000
10.7000,brake,93.9889,0.0000,0.0000,4.8969,1.4410,0.0000,0.0000,0.0000,0.8000,0.0000,2,1000.0000,2650.9938,2650.9938,4219.7650,4219.7650,-0.4447,-0.4447,-0.3668,-0.3668,0.0000,0.0000,0.0000,0.0000,-2600.2896,-2600.2896,-4181.9277,-4181.9277,0.0000,0.0000,0.0000,0.0000,0.0000,12.7452,12.7452,-0.3557,-0.3557,-401.4990,-401.4990,439.7070,439.7070,0.0000,0.2887,13741.5176,0.0000,0.9809,0.9809,0.9910,0.9910,0.0000,0.0000
10.8000,brake,94.1264,0.0000,0.0000,4.7434,1.3987,0.0000,0.0000,0.0000,0.8000,0.0000,2,1000.0000,2638.2865,2638.2865,4230.3343,4230.3343,-0.4224,-0.4224,-0.3328,-0.3328,0.0000,0.0000,0.0000,0.0000,-2595.1736,-2595.1736,-4212.8800,-4212.8800,0.0000,0.0000,0.0000,0.0000,0.0000,9.8930,9.8930,3.8295,3.8295,-384.7564,-384.7564,402.0832,402.0832,0.0000,0.1336,13737.2416,0.0000,0.9837,0.9837,0.9959,0.9959,0.0000,0.0000
10.9000,brake,94.2603,0.0000,0.0000,4.6249,1.3660,0.0000,0.0000,0.0000,0.8000,0.0000,2,1000.0000,2623.1637,2623.1637,4244.4908,4244.4908,-0.4053,-0.4053,-0.3092,-0.3092,0.0000,0.0000,0.0000,0.0000,-2586.0461,-2586.0461,-4241.8044,-4241.8044,0.0000,0.0000,0.0000,0.0000,0.0000,8.4779,8.4779,5.9174,5.9174,-378.9699,-378.9699,386.8660,386.8660,0.0000,0.0564,13735.3090,0.0000,0.9859,0.9859,0.9994,0.9994,0.0000,0.0000
11.0000,brake,94.3912,0.0000,0.0000,4.5283,1.3392,0.0000,0.0000,0.0000,0.8000,0.0000,2,1000.0000,2607.6885,2607.6885,4259.5500,4259.5500,-0.3915,-0.3915,-0.2923,-0.2923,0.0000,0.0000,0.0000,0.0000,-2575.5348,-2575.5348,-4259.5500,-4259.5500,0.0000,0.0000,0.0000,0.0000,0.0000,7.7471,7.7471,7.0050,7.0050,-378.1712,-378.1712,382.0143,382.0143,0.0000,0.0164,13734.4770,0.0000,0.9877,0.9877,1.0000,1.0000,0.0000,0.0000
11.1000,brake,94.5198,0.0000,0.0000,4.4465,1.3166,0.0000,0.0000,0.0000,0.8000,0.0000,2,1000.0000,2596.6376,2596.6376,4270.3998,4270.3998,-0.3800,-0.3800,-0.2785,-0.2785,0.0000,0.0000,0.0000,0.0000,-2568.6649,-2568.6649,-4270.3998,-4270.3998,0.0000,0.0000,0.0000,0.0000,0.0000,7.3451,7.3451,7.6060,7.6060,-378.4575,-378.4575,380.3440,380.3440,0.0000,-0.0057,13734.0748,0.0000,0.9892,0.9892,1.0000,1.0000,0.0000,0.0000
11.2000,brake,94.6462,0.0000,0.0000,4.3752,1.2968,0.0000,0.0000,0.0000,0.8000,0.0000,2,1000.0000,2588.5795,2588.5795,4278.3564,4278.3564,-0.3700,-0.3700,-0.2669,-0.2669,0.0000,0.0000,0.0000,0.0000,-2564.2418,-2564.2418,-4278.3564,-4278.3564,0.0000,0.0000,0.0000,0.0000,0.0000,7.1105,7.1105,7.9602,7.9602,-379.0837,-379.0837,379.9843,379.9843,0.0000,-0.0187,13733.8717,0.0000,0.9906,0.9906,1.0000,1.0000,0.0000,0.0000
11.3000,brake,94.7708,0.0000,0.0000,4.3115,1.2791,0.0000,0.0000,0.0000,0.8000,0.0000,2,1000.0000,2582.4965,2582.4965,4284.3858,4284.3858,-0.3611,-0.3611,-0.2568,-0.2568,0.0000,0.0000,0.0000,0.0000,-2561.4039,-2561.4039,-4284.3858,-4284.3858,0.0000,0.0000,0.0000,0.0000,0.0000,6.9653,6.9653,8.1832,8.1832,-379.7843,-379.7843,380.1665,380.1665,0.0000,-0.0268,13733.7646,0.0000,0.9918,0.9918,1.0000,1.0000,0.0000,0.0000
11.4000,brake,94.8937,0.0000,0.0000,4.2532,1.2630,0.0000,0.0000,0.0000,0.8000,0.0000,2,1000.0000,2577.7841,2577.7841,4289.0684,4289.0684,-0.3531,-0.3531,-0.2478,-0.2478,0.0000,0.0000,0.0000,0.0000,-2559.6511,-2559.6511,-4289.0684,-4289.0684,0.0000,0.0000,0.0000,0.0000,0.0000,6.8706,6.8706,8.3322,8.3322,-380.4542,-380.4542,380.5496,380.5496,0.0000,-0.0322,13733.7051,0.0000,0.9930,0.9930,1.0000,1.0000,0.0000,0.0000
11.5000,brake,95.0151,0.0000,0.0000,4.1992,1.2480,0.0000,0.0000,0.0000,0.8000,0.0000,2,1000.0000,2574.0618,2574.0618,4292.7732,4292.7732,-0.3456,-0.3456,-0.2396,-0.2396,0.0000,0.0000,0.0000,0.0000,-2558.6765,-2558.6765,-4292.7732,-4292.7732,0.0000,0.0000,0.0000,0.0000,0.0000,6.8063,6.8063,8.4367,8.4367,-381.0585,-381.0585,380.9858,380.9858,0.0000,-0.0359,13733.6701,0.0000,0.9940,0.9940,1.0000,1.0000,0.0000,0.0000
11.6000,brake,95.1350,0.0000,0.0000,4.1482,1.2339,0.0000,0.0000,0.0000,0.8000,0.0000,2,1000.0000,2571.0788,2571.0788,4295.7453,4295.7453,-0.3387,-0.3387,-0.2321,-0.2321,0.0000,0.0000,0.0000,0.0000,-2558.2828,-2558.2828,-4295.7453,-4295.7453,0.0000,0.0000,0.0000,0.0000,0.0000,6.7615,6.7615,8.5128,8.5128,-381.5911,-381.5911,381.4143,381.4143,0.0000,-0.0386,13733.6483,0.0000,0.9950,0.9950,1.0000,1.0000,0.0000,0.0000
11.7000,brake,95.2535,0.0000,0.0000,4.0996,1.2204,0.0000,0.0000,0.0000,0.8000,0.0000,2,1000.0000,2568.6641,2568.6641,4298.1528,4298.1528,-0.3321,-0.3321,-0.2250,-0.2250,0.0000,0.0000,0.0000,0.0000,-2558.3397,-2558.3397,-4298.1528,-4298.1528,0.0000,0.0000,0.0000,0.0000,0.0000,6.7302,6.7302,8.5693,8.5693,-382.0571,-382.0571,381.8119,381.8119,0.0000,-0.0405,13733.6339,0.0000,0.9960,0.9960,1.0000,1.0000,0.0000,0.0000
11.8000,brake,95.3707,0.0000,0.0000,4.0526,1.2074,0.0000,0.0000,0.0000,0.8000,0.0000,2,1000.0000,2566.6979,2566.6979,4300.1141,4300.1141,-0.3258,-0.3258,-0.2183,-0.2183,0.0000,0.0000,0.0000,0.0000,-2558.7588,-2558.7588,-4300.1141,-4300.1141,0.0000,0.0000,0.0000,0.0000,0.0000,6.7085,6.7085,8.6118,8.6118,-382.4641,-382.4641,382.1721,382.1721,0.0000,-0.0419,13733.6239,0.0000,0.9969,0.9969,1.0000,1.0000,0.0000,0.0000
11.9000,brake,95.4867,0.0000,0.0000,4.0068,1.1947,0.0000,0.0000,0.0000,0.8000,0.0000,2,1000.0000,2565.0941,2565.0941,4301.7143,4301.7143,-0.3197,-0.3197,-0.2119,-0.2119,0.0000,0.0000,0.0000,0.0000,-2559.4794,-2559.4794,-4301.7143,-4301.7143,0.0000,0.0000,0.0000,0.0000,0.0000,6.6942,6.6942,8.6435,8.6435,-382.8204,-382.8204,382.4948,382.4948,0.0000,-0.0430,13733.6167,0.0000,0.9978,0.9978,1.0000,1.0000,0.0000,0.0000
12.0000,brake,95.6013,0.0000,0.0000,3.9617,1.1822,0.0000,0.0000,0.0000,0.8000,0.0000,2,1000.0000,2563.7901,2563.7901,4303.0156,4303.0156,-0.3137,-0.3137,-0.2057,-0.2057,0.0000,0.0000,0.0000,0.0000,-2560.4591,-2560.4591,-4303.0156,-4303.0156,0.0000,0.0000,0.0000,0.0000,0.0000,6.6858,6.6858,8.6668,8.6668,-383.1328,-383.1328,382.7825,382.7825,0.0000,-0.0437,13733.6114,0.0000,0.9987,0.9987,1.0000,1.0000,0.0000,0.0000
12.1000,brake,95.7148,0.0000,0.0000,3.9170,1.1698,0.0000,0.0000,0.0000,0.8000,0.0000,2,1000.0000,2562.7392,2562.7392,4304.0645,4304.0645,-0.3078,-0.3078,-0.1997,-0.1997,0.0000,0.0000,0.0000,0.0000,-2561.6683,-2561.6683,-4304.0645,-4304.0645,0.0000,0.0000,0.0000,0.0000,0.0000,6.6822,6.6822,8.6831,8.6831,-383.4074,-383.4074,383.0383,383.0383,0.0000,-0.0441,13733.6073,0.0000,0.9996,0.9996,1.0000,1.0000,0.0000,0.0000
12.2000,brake,95.8269,0.0000,0.0000,3.8726,1.1575,0.0000,0.0000,0.0000,0.8000,0.0000,2,1000.0000,2561.9406,2561.9406,4304.8611,4304.8611,-0.3020,-0.3020,-0.1940,-0.1940,0.0000,0.0000,0.0000,0.0000,-2561.9406,-2561.9406,-4304.8611,-4304.8611,0.0000,0.0000,0.0000,0.0000,0.0000,6.6816,6.6816,8.6944,8.6944,-383.6314,-383.6314,383.2444,383.2444,0.0000,-0.0444,13733.6034,0.0000,1.0000,1.0000,1.0000,1.0000,0.0000,0.0000
12.3000,brake,95.9379,0.0000,0.0000,3.8288,1.1453,0.0000,0.0000,0.0000,0.8000,0.0000,2,1000.0000,2561.3860,2561.3860,4305.4139,4305.4139,-0.2962,-0.2962,-0.1890,-0.1890,0.0000,0.0000,0.0000,0.0000,-2561.3860,-2561.3860,-4305.4139,-4305.4139,0.0000,0.0000,0.0000,0.0000,0.0000,6.6772,6.6772,8.7056,8.7056,-383.7586,-383.7586,383.3541,383.3541,0.0000,-0.0447,13733.5997,0.0000,1.0000,1.0000,1.0000,1.0000,0.0000,0.0000
12.4000,brake,96.0477,0.0000,0.0000,3.7856,1.1333,0.0000,0.0000,0.0000,0.8000,0.0000,2,1000.0000,2560.9721,2560.9721,4305.8265,4305.8265,-0.2906,-0.2906,-0.1842,-0.1842,0.0000,0.0000,0.0000,0.0000,-2560.9721,-2560.9721,-4305.8265,-4305.8265,0.0000,0.0000,0.0000,0.0000,0.0000,6.6717,6.6717,8.7154,8.7154,-383.8370,-383.8370,383.4205,383.4205,0.0000,-0.0450,13733.5972,0.0000,1.0000,1.0000,1.0000,1.0000,0.0000,0.0000
12.5000,brake,96.1562,0.0000,0.0000,3.7427,1.1214,0.0000,0.0000,0.0000,0.8000,0.0000,2,1000.0000,2560.6796,2560.6796,4306.1180,4306.1180,-0.2851,-0.2851,-0.1794,-0.1794,0.0000,0.0000,0.0000,0.0000,-2560.6796,-2560.6796,-4306.1180,-4306.1180,0.0000,0.0000,0.0000,0.0000,0.0000,6.6668,6.6668,8.7231,8.7231,-383.8855,-383.8855,383.4601,383.4601,0.0000,-0.0453,13733.5953,0.0000,1.0000,1.0000,1.0000,1.0000,0.0000,0.0000
12.6000,brake,96.2636,0.0000,0.0000,3.7001,1.1096,0.0000,0.0000,0.0000,0.8000,0.0000,2,1000.0000,2560.4933,2560.4933,4306.3037,4306.3037,-0.2797,-0.2797,-0.1747,-0.1747,0.0000,0.0000,0.0000,0.0000,-2560.4933,-2560.4933,-4306.3037,-4306.3037,0.0000,0.0000,0.0000,0.0000,0.0000,6.6632,6.6632,8.7285,8.7285,-383.9131,-383.9131,383.4808,383.4808,0.0000,-0.0455,13733.5939,0.0000,1.0000,1.0000,1.0000,1.0000,0.0000,0.0000
12.7000,brake,96.3698,0.0000,0.0000,3.6576,1.0978,0.0000,0.0000,0.0000,0.8000,0.0000,2,1000.0000,2560.4011,2560.4011,4306.3953,4306.3953,-0.2743,-0.2743,-0.1701,-0.1701,0.0000,0.0000,0.0000,0.0000,-2560.4011,-2560.4011,-4306.3953,-4306.3953,0.0000,0.0000,0.0000,0.0000,0.0000,6.6610,6.6610,8.7316,8.7316,-383.9242,-383.9242,383.4864,383.4864,0.0000,-0.0456,13733.5927,0.0000,1.0000,1.0000,1.0000,1.0000,0.0000,0.0000
12.8000,brake,96.4748,0.0000,0.0000,3.6151,1.0859,0.0000,0.0000,0.0000,0.8000,0.0000,2,1000.0000,2560.3933,2560.3933,4306.4026,4306.4026,-0.2689,-0.2689,-0.1656,-0.1656,0.0000,0.0000,0.0000,0.0000,-2560.3933,-2560.3933,-4306.4026,-4306.4026,0.0000,0.0000,0.0000,0.0000,0.0000,6.6603,6.6603,8.7326,8.7326,-383.9215,-383.9215,383.4792,383.4792,0.0000,-0.0457,13733.5918,0.0000,1.0000,1.0000,1.0000,1.0000,0.0000,0.0000
12.9000,brake,96.5786,0.0000,0.0000,3.5724,1.0741,0.0000,0.0000,0.0000,0.8000,0.0000,2,1000.0000,2560.4620,2560.4620,4306.3335,4306.3335,-0.2636,-0.2636,-0.1611,-0.1611,0.0000,0.0000,0.0000,0.0000,-2560.4620,-2560.4620,-4306.3335,-4306.3335,0.0000,0.0000,0.0000,0.0000,0.0000,6.6610,6.6610,8.7317,8.7317,-383.9067,-383.9067,383.4605,383.4605,0.0000,-0.0456,13733.5910,0.0000,1.0000,1.0000,1.0000,1.0000,0.0000,0.0000
13.0000,brake,96.6813,0.0000,0.0000,3.5295,1.0622,0.0000,0.0000,0.0000,0.8000,0.0000,2,1000.0000,2560.6004,2560.6004,4306.1948,4306.1948,-0.2582,-0.2582,-0.1566,-0.1566,0.0000,0.0000,0.0000,0.0000,-2560.6004,-2560.6004,-4306.1948,-4306.1948,0.0000,0.0000,0.0000,0.0000,0.0000,6.6629,6.6629,8.7290,8.7290,-383.8809,-383.8809,383.4315,383.4315,0.0000,-0.0455,13733.5904,0.0000,1.0000,1.0000,1.0000,1.0000,0.0000,0.0000
13.1000,brake,96.7827,0.0000,0.0000,3.4862,1.0501,0.0000,0.0000,0.0000,0.8000,0.0000,2,1000.0000,2560.8032,2560.8032,4305.9918,4305.9918,-0.2529,-0.2529,-0.1522,-0.1522,0.0000,0.0000,0.0000,0.0000,-2560.8032,-2560.8032,-4305.9918,-4305.9918,0.0000,0.0000,0.0000,0.0000,0.0000,6.6660,6.6660,8.7248,8.7248,-383.8449,-383.8449,383.3928,383.3928,0.0000,-0.0454,13733.5899,0.0000,1.0000,1.0000,1.0000,1.0000,0.0000,0.0000
13.2000,brake,96.8829,0.0000,0.0000,3.4425,1.0380,0.0000,0.0000,0.0000,0.8000,0.0000,2,1000.0000,2561.0655,2561.0655,4305.7293,4305.7293,-0.2475,-0.2475,-0.1477,-0.1477,0.0000,0.0000,0.0000,0.0000,-2561.0655,-2561.0655,-4305.7293,-4305.7293,0.0000,0.0000,0.0000,0.0000,0.0000,6.6702,6.6702,8.7191,8.7191,-383.7995,-383.7995,383.3451,383.3451,0.0000,-0.0452,13733.5894,0.0000,1.0000,1.0000,1.0000,1.0000,0.0000,0.0000
13.3000,brake,96.9820,0.0000,0.0000,3.3984,1.0257,0.0000,0.0000,0.0000,0.8000,0.0000,2,1000.0000,2561.3833,2561.3833,4305.4112,4305.4112,-0.2422,-0.2422,-0.1433,-0.1433,0.0000,0.0000,0.0000,0.0000,-2561.3833,-2561.3833,-4305.4112,-4305.4112,0.0000,0.0000,0.0000,0.0000,0.0000,6.6753,6.6753,8.7120,8.7120,-383.7454,-383.7454,383.2889,383.2889,0.0000,-0.0449,13733.5891,0.0000,1.0000,1.0000,1.0000,1.0000,0.0000,0.0000
13.4000,brake,97.0797,0.0000,0.0000,3.3536,1.0133,0.0000,0.0000,0.0000,0.8000,0.0000,2,1000.0000,2561.7533,2561.7533,4305.0411,4305.0411,-0.2368,-0.2368,-0.1389,-0.1389,0.0000,0.0000,0.0000,0.0000,-2561.7533,-2561.7533,-4305.0411,-4305.0411,0.0000,0.0000,0.0000,0.0000,0.0000,6.6813,6.6813,8.7036,8.7036,-383.6829,-383.6829,383.2247,383.2247,0.0000,-0.0446,13733.5887,0.0000,1.0000,1.0000,1.0000,1.0000,0.0000,0.0000
13.5000,brake,97.1763,0.0000,0.0000,3.3082,1.0007,0.0000,0.0000,0.0000,0.8000,0.0000,2,1000.0000,2562.1723,2562.1723,4304.6219,4304.6219,-0.2314,-0.2314,-0.1345,-0.1345,0.0000,0.0000,0.0000,0.0000,-2562.1723,-2562.1723,-4304.6219,-4304.6219,0.0000,0.0000,0.0000,0.0000,0.0000,6.6883,6.6883,8.6940,8.6940,-383.6127,-383.6127,383.1529,383.1529,0.0000,-0.0442,13733.5885,0.0000,1.0000,1.0000,1.0000,1.0000,0.0000,0.0000
13.6000,brake,97.2715,0.0000,0.0000,3.2620,0.9879,0.0000,0.0000,0.0000,0.8000,0.0000,2,1000.0000,2562.6378,2562.6378,4304.1563,4304.1563,-0.2259,-0.2259,-0.1300,-0.1300,0.0000,0.0000,0.0000,0.0000,-2562.6378,-2562.6378,-4304.1563,-4304.1563,0.0000,0.0000,0.0000,0.0000,0.0000,6.6960,6.6960,8.6833,8.6833,-383.5350,-383.5350,383.0739,383.0739,0.0000,-0.0438,13733.5883,0.0000,1.0000,1.0000,1.0000,1.0000,0.0000,0.0000
13.7000,brake,97.3655,0.0000,0.0000,3.2151,0.9748,0.0000,0.0000,0.0000,0.8000,0.0000,2,1000.0000,2563.1474,2563.1474,4303.6466,4303.6466,-0.2204,-0.2204,-0.1256,-0.1256,0.0000,0.0000,0.0000,0.0000,-2563.1474,-2563.1474,-4303.6466,-4303.6466,0.0000,0.0000,0.0000,0.0000,0.0000,6.7045,6.7045,8.6715,8.6715,-383.4503,-383.4503,382.9880,382.9880,0.0000,-0.0433,13733.5881,0.0000,1.0000,1.0000,1.0000,1.0000,0.0000,0.0000
13.8000,brake,97.4581,0.0000,0.0000,3.1682,0.9617,0.0000,0.0000,0.0000,0.8000,0.0000,2,1000.0000,2563.6954,2563.6954,4303.0985,4303.0985,-0.2149,-0.2149,-0.1211,-0.1211,0.0000,0.0000,0.0000,0.0000,-2563.6954,-2563.6954,-4291.4825,-4291.4825,0.0000,0.0000,0.0000,0.0000,0.0000,6.7102,6.7102,8.6613,8.6613,-383.3344,-383.3344,382.8703,382.8703,0.0000,-0.0430,13733.5878,0.0000,1.0000,1.0000,0.9973,0.9973,0.0000,0.0000
13.9000,brake,97.5494,0.0000,0.0000,3.1226,0.9488,0.0000,0.0000,0.0000,0.8000,0.0000,2,1000.0000,2564.2647,2564.2647,4302.5288,4302.5288,-0.2096,-0.2096,-0.1168,-0.1168,0.0000,0.0000,0.0000,0.0000,-2564.2647,-2564.2647,-4274.1237,-4274.1237,0.0000,0.0000,0.0000,0.0000,0.0000,6.7023,6.7023,8.6609,8.6609,-383.1153,-383.1153,382.6463,382.6463,0.0000,-0.0432,13733.5870,0.0000,1.0000,1.0000,0.9934,0.9934,0.0000,0.0000
14.0000,brake,97.6395,0.0000,0.0000,3.0786,0.9363,0.0000,0.0000,0.0000,0.8000,0.0000,2,1000.0000,2564.8430,2564.8430,4301.9499,4301.9499,-0.2045,-0.2045,-0.1127,-0.1127,0.0000,0.0000,0.0000,0.0000,-2564.8430,-2564.8430,-4254.9182,-4254.9182,0.0000,0.0000,0.0000,0.0000,0.0000,6.6858,6.6858,8.6668,8.6668,-382.8317,-382.8317,382.3561,382.3561,0.0000,-0.0437,13733.5859,0.0000,1.0000,1.0000,0.9891,0.9891,0.0000,0.0000
14.1000,brake,97.7284,0.0000,0.0000,3.0364,0.9244,0.0000,0.0000,0.0000,0.8000,0.0000,2,1000.0000,2565.4199,2565.4199,4301.3724,4301.3724,-0.1996,-0.1996,-0.1089,-0.1089,0.0000,0.0000,0.0000,0.0000,-2565.4199,-2565.4199,-4234.0143,-4234.0143,0.0000,0.0000,0.0000,0.0000,0.0000,6.6635,6.6635,8.6768,8.6768,-382.5081,-382.5081,382.0248,382.0248,0.0000,-0.0444,13733.5846,0.0000,1.0000,1.0000,0.9843,0.9843,0.0000,0.0000
14.2000,brake,97.8162,0.0000,0.0000,2.9963,0.9130,0.0000,0.0000,0.0000,0.8000,0.0000,2,1000.0000,2565.9869,2565.9869,4300.8047,4300.8047,-0.1950,-0.1950,-0.1052,-0.1052,0.0000,0.0000,0.0000,0.0000,-2565.9869,-2565.9869,-4211.6368,-4211.6368,0.0000,0.0000,0.0000,0.0000,0.0000,6.6370,6.6370,8.6901,8.6901,-382.1567,-382.1567,381.6650,381.6650,0.0000,-0.0452,13733.5831,0.0000,1.0000,1.0000,0.9793,0.9793,0.0000,0.0000
