time,phase,pos_x,pos_y,yaw_deg,speed_kph,vx_body,vy_body,yaw_rate_dps,throttle,brake,steer_deg,gear,rpm,fz_fl,fz_fr,fz_rl,fz_rr,sr_fl,sr_fr,sr_rl,sr_rr,sa_fl_deg,sa_fr_deg,sa_rl_deg,sa_rr_deg,fx_fl,fx_fr,fx_rl,fx_rr,fy_fl,fy_fr,fy_rl,fy_rr,lat_accel_g,susp_defl_fl_mm,susp_defl_fr_mm,susp_defl_rl_mm,susp_defl_rr_mm,susp_vel_fl,susp_vel_fr,susp_vel_rl,susp_vel_rr,roll_deg,pitch_deg,fz_total,understeer_deg,fc_util_fl,fc_util_fr,fc_util_rl,fc_util_rr,radius_m,yaw_rate_ref_dps
0.0000,accel,0.0000,0.0000,0.0000,0.0000,0.0000,0.0000,0.0000,0.0000,0.0000,0.0000,1,1000.0000,3776.8500,3776.8500,3090.1500,3090.1500,0.0000,0.0000,0.0000,0.0000,0.0000,0.0000,0.0000,0.0000,0.0000,0.0000,0.0000,0.0000,0.0000,0.0000,0.0000,0.0000,0.0000,0.0000,0.0000,0.0000,0.0000,0.0000,0.0000,0.0000,0.0000,0.0000,0.0000,13734.0000,0.0000,0.0000,0.0000,0.0000,0.0000,0.0000,0.0000
0.1000,accel,0.0000,0.0000,0.0000,0.0189,0.0039,0.0000,0.0000,0.0667,0.0000,0.0000,1,1000.0000,3719.9859,3719.9859,3147.1123,3147.1123,0.0008,0.0008,0.0027,0.0027,0.0000,0.0000,0.0000,0.0000,-1.0416,-1.0416,112.8544,112.8544,0.0000,0.0000,0.0000,0.0000,0.0000,-0.1181,-0.1181,0.1924,0.1924,-4.1916,-4.1916,5.1645,5.1645,0.0000,-0.0068,13734.1964,0.0000,0.0003,0.0003,0.0359,0.0359,0.0000,0.0000
0.2000,accel,0.0018,0.0000,0.0000,0.1124,0.0284,0.0000,0.0000,0.1333,0.0000,0.0000,1,1000.0000,3697.7662,3697.7662,3169.3250,3169.3250,0.0007,0.0007,0.0048,0.0048,0.0000,0.0000,0.0000,0.0000,-2.8329,-2.8329,243.5492,243.5492,0.0000,0.0000,0.0000,0.0000,0.0000,-0.6790,-0.6790,0.8527,0.8527,-6.5338,-6.5338,7.4472,7.4472,0.0000,-0.0338,13734.1823,0.0000,0.0008,0.0008,0.0768,0.0768,0.0000,0.0000
0.3000,accel,0.0072,0.0000,0.0000,0.2736,0.0708,0.0000,0.0000,0.2000,0.0000,0.0000,1,1000.0000,3681.7075,3681.7075,3185.2874,3185.2874,0.0007,0.0007,0.0081,0.0081,0.0000,0.0000,0.0000,0.0000,-4.6947,-4.6947,440.7257,440.7257,0.0000,0.0000,0.0000,0.0000,0.0000,-1.3894,-1.3894,1.6337,1.6337,-6.0479,-6.0479,6.0221,6.0221,0.0000,-0.0666,13733.9897,0.0000,0.0013,0.0013,0.1384,0.1384,0.0000,0.0000
0.4000,accel,0.0179,0.0000,0.0000,0.5293,0.1314,0.0000,0.0000,0.2667,0.0000,0.0000,1,1000.0000,3289.3321,3289.3321,3579.8694,3579.8694,-0.0027,-0.0027,0.0251,0.0251,0.0000,0.0000,0.0000,0.0000,-214.9057,-214.9057,1531.7813,1531.7813,0.0000,0.0000,0.0000,0.0000,0.0000,-0.9928,-0.9928,3.7285,3.7285,-120.9880,-120.9880,142.9065,142.9065,0.0000,-0.1040,13738.4029,0.0000,0.0653,0.0653,0.4279,0.4279,0.0000,0.0000
0.5000,accel,0.0353,0.0000,0.0000,0.6918,0.2327,0.0000,0.0000,0.3333,0.0000,0.0000,1,1000.0000,3185.3519,3185.3519,3682.8777,3682.8777,0.0054,0.0054,-0.2233,-0.2233,0.0000,0.0000,0.0000,0.0000,278.7973,278.7973,-3682.8777,-3682.8777,0.0000,0.0000,0.0000,0.0000,0.0000,-1.8347,-1.8347,6.4160,6.4160,-144.6832,-144.6832,157.2349,157.2349,0.0000,-0.1818,13736.4590,0.0000,0.0875,0.0875,1.0000,1.0000,0.0000,0.0000
0.6000,accel,0.0628,0.0000,0.0000,1.2334,0.2970,0.0000,0.0000,0.4000,0.0000,0.0000,1,1000.0000,3854.2209,3854.2209,3011.0218,3011.0218,0.1442,0.1442,0.0017,0.0017,0.0000,0.0000,0.0000,0.0000,3777.5200,3777.5200,53.6555,53.6555,0.0000,0.0000,0.0000,0.0000,0.0000,-1.2752,-1.2752,5.9329,5.9329,59.3966,59.3966,-76.1976,-76.1976,0.0000,-0.1588,13730.4854,0.0000,0.9801,0.9801,0.0178,0.0178,0.0000,0.0000
0.7000,accel,0.1011,0.0000,0.0000,1.6891,0.3896,0.0000,0.0000,0.4667,0.0000,0.0000,1,1000.0000,4558.7452,4558.7452,2312.8338,2312.8338,0.1470,0.1470,0.3964,0.3964,0.0000,0.0000,0.0000,0.0000,4472.0362,4472.0362,2213.4407,2213.4407,0.0000,0.0000,0.0000,0.0000,0.0000,0.0472,0.0472,6.8555,6.8555,327.9825,327.9825,-282.2693,-282.2693,0.0000,-0.1500,13743.1580,0.0000,0.9810,0.9810,0.9570,0.9570,0.0000,0.0000
0.8000,accel,0.1508,0.0000,0.0000,1.8363,0.5916,0.0000,0.0000,0.5333,0.0000,0.0000,1,1000.0000,2614.0908,2614.0908,4257.0389,4257.0389,-0.1479,-0.1479,-0.1181,-0.1181,0.0000,0.0000,0.0000,0.0000,-2614.0908,-2614.0908,-4234.0359,-4234.0359,0.0000,0.0000,0.0000,0.0000,0.0000,-3.1672,-3.1672,11.1273,11.1273,-298.3828,-298.3828,339.7864,339.7864,0.0000,-0.3150,13742.2594,0.0000,1.0000,1.0000,0.9946,0.9946,0.0000,0.0000
0.9000,accel,0.2152,0.0000,0.0000,2.6450,0.7169,0.0000,0.0000,0.6000,0.0000,0.0000,1,1000.0000,2589.9848,2589.9848,4281.4738,4281.4738,-0.3546,-0.3546,0.4538,0.4538,0.0000,0.0000,0.0000,0.0000,-2571.2102,-2571.2102,4066.4274,4066.4274,0.0000,0.0000,0.0000,0.0000,0.0000,-3.3173,-3.3173,11.2007,11.2007,-304.1976,-304.1976,348.8267,348.8267,0.0000,-0.3199,13742.9172,0.0000,0.9928,0.9928,0.9498,0.9498,0.0000,0.0000
1.0000,accel,0.2952,0.0000,0.0000,3.2334,0.8210,0.0000,0.0000,0.6667,0.0000,0.0000,1,1000.0000,4459.3116,4459.3116,2410.9822,2410.9822,0.4751,0.4751,0.5763,0.5763,0.0000,0.0000,0.0000,0.0000,4223.9923,4223.9923,2257.1146,2257.1146,0.0000,0.0000,0.0000,0.0000,0.0000,-1.7140,-1.7140,9.4358,9.4358,305.8208,305.8208,-272.6582,-272.6582,0.0000,-0.2457,13740.5876,0.0000,0.9472,0.9472,0.9362,0.9362,0.0000,0.0000
1.1000,accel,0.3934,0.0000,0.0000,3.9425,1.0177,0.0000,0.0000,0.7333,0.0000,0.0000,1,1000.0000,3700.2405,3700.2405,3161.8459,3161.8459,0.4212,0.4212,0.5305,0.5305,0.0000,0.0000,0.0000,0.0000,3529.3179,3529.3179,2975.3132,2975.3132,0.0000,0.0000,0.0000,0.0000,0.0000,-3.3684,-3.3684,10.5808,10.5808,18.7359,18.7359,-66.3038,-66.3038,0.0000,-0.3074,13724.1728,0.0000,0.9538,0.9538,0.9410,0.9410,0.0000,0.0000
1.2000,accel,0.5117,0.0000,0.0000,4.5005,1.2599,0.0000,0.0000,0.8000,0.0000,0.0000,1,1183.3510,3749.9625,3749.9625,3114.4811,3114.4811,-0.3340,-0.3340,0.5802,0.5802,0.0000,0.0000,0.0000,0.0000,-3733.8738,-3733.8738,2914.4889,2914.4889,0.0000,0.0000,0.0000,0.0000,0.0000,-6.2668,-6.2668,12.3012,12.3012,67.6088,67.6088,-92.1252,-92.1252,0.0000,-0.4092,13728.8872,0.0000,0.9957,0.9957,0.9358,0.9358,0.0000,0.0000
1.3000,accel,0.6522,0.0000,0.0000,5.1466,1.4493,0.0000,0.0000,0.8667,0.0000,0.0000,1,1600.1483,4948.6195,4948.6195,1928.3233,1928.3233,-0.0441,-0.0441,0.6644,0.6644,0.0000,0.0000,0.0000,0.0000,-3445.8156,-3445.8156,1788.6448,1788.6448,0.0000,0.0000,0.0000,0.0000,0.0000,-4.5482,-4.5482,12.3471,12.3471,529.8857,529.8857,-431.3558,-431.3558,0.0000,-0.3723,13753.8855,0.0000,0.6963,0.6963,0.9276,0.9276,0.0000,0.0000
1.4000,accel,0.8173,0.0000,0.0000,6.4356,1.7104,0.0000,0.0000,0.9333,0.0000,0.0000,1,1396.4788,3879.5678,3879.5678,2986.5147,2986.5147,0.4491,0.4491,0.5445,0.5445,0.0000,0.0000,0.0000,0.0000,3686.9118,3686.9118,2805.8312,2805.8312,0.0000,0.0000,0.0000,0.0000,0.0000,-6.9969,-6.9969,13.2046,13.2046,126.7526,126.7526,-135.1400,-135.1400,0.0000,-0.4452,13732.1652,0.0000,0.9503,0.9503,0.9395,0.9395,0.0000,0.0000
1.5000,accel,1.0118,0.0000,0.0000,7.3761,2.0571,0.0000,0.0000,1.0000,0.0000,0.0000,1,1724.2825,3687.3429,3687.3429,3177.3345,3177.3345,-0.3496,-0.3496,0.5685,0.5685,0.0000,0.0000,0.0000,0.0000,-3663.2261,-3663.2261,2977.1105,2977.1105,0.0000,0.0000,0.0000,0.0000,0.0000,-10.1601,-10.1601,16.4340,16.4340,81.4938,81.4938,-103.6872,-103.6872,0.0000,-0.5860,13729.3549,0.0000,0.9935,0.9935,0.9370,0.9370,0.0000,0.0000
1.6000,accel,1.2393,0.0000,0.0000,8.6085,2.4367,0.0000,0.0000,1.0000,0.0000,0.0000,1,1000.0000,2580.8914,2580.8914,4288.8752,4288.8752,-0.1738,-0.1738,-0.0148,-0.0148,0.0000,0.0000,0.0000,0.0000,-2580.8914,-2580.8914,-1236.8714,-1236.8714,0.0000,0.0000,0.0000,0.0000,0.0000,-13.1499,-13.1499,19.9346,19.9346,-236.5629,-236.5629,264.4484,264.4484,0.0000,-0.7291,13739.5333,0.0000,1.0000,1.0000,0.2884,0.2884,0.0000,0.0000
1.7000,accel,1.4997,0.0000,0.0000,9.9967,2.7625,0.0000,0.0000,1.0000,0.0000,0.0000,1,1918.9653,2746.4371,2746.4371,4120.8143,4120.8143,-0.4575,-0.4575,0.4856,0.4856,0.0000,0.0000,0.0000,0.0000,-2689.6370,-2689.6370,3898.3436,3898.3436,0.0000,0.0000,0.0000,0.0000,0.0000,-13.3956,-13.3956,20.5859,20.5859,-187.5092,-187.5092,190.7104,190.7104,0.0000,-0.7488,13734.5027,0.0000,0.9793,0.9793,0.9460,0.9460,0.0000,0.0000
1.8000,accel,1.7975,0.0000,0.0000,11.2297,3.1127,0.0000,0.0000,1.0000,0.0000,0.0000,1,1598.9090,3480.1260,3480.1260,3382.4621,3382.4621,-0.0538,-0.0538,0.3035,0.3035,0.0000,0.0000,0.0000,0.0000,-2719.4290,-2719.4290,3281.7320,3281.7320,0.0000,0.0000,0.0000,0.0000,0.0000,-13.4828,-13.4828,20.5507,20.5507,31.8341,31.8341,-74.4846,-74.4846,0.0000,-0.7500,13725.1763,0.0000,0.7814,0.7814,0.9702,0.9702,0.0000,0.0000
1.9000,accel,2.1317,0.0000,0.0000,12.6650,3.5095,0.0000,0.0000,1.0000,0.0000,0.0000,1,1348.1025,2842.6142,2842.6142,4023.6609,4023.6609,-0.4735,-0.4735,0.0743,0.0743,0.0000,0.0000,0.0000,0.0000,-2778.4298,-2778.4298,3496.4538,3496.4538,0.0000,0.0000,0.0000,0.0000,0.0000,-15.4013,-15.4013,21.8475,21.8475,-145.7040,-145.7040,139.2332,139.2332,0.0000,-0.8208,13732.5502,0.0000,0.9774,0.9774,0.8690,0.8690,0.0000,0.0000
2.0000,accel,2.5008,0.0000,0.0000,14.0525,3.8306,0.0000,0.0000,1.0000,0.0000,0.0000,1,1981.8146,3956.1840,3956.1840,2912.6671,2912.6671,0.0669,0.0669,0.3129,0.3129,0.0000,0.0000,0.0000,0.0000,3303.1775,3303.1775,2821.8630,2821.8630,0.0000,0.0000,0.0000,0.0000,0.0000,-13.9732,-13.9732,20.4935,20.4935,227.1618,227.1618,-208.3027,-208.3027,0.0000,-0.7595,13737.7022,0.0000,0.8349,0.8349,0.9688,0.9688,0.0000,0.0000
2.1000,accel,2.9093,0.0000,0.0000,15.4568,4.2371,0.0000,0.0000,1.0000,0.0000,0.0000,1,2209.5267,3481.3663,3481.3663,3382.8521,3382.8521,0.0247,0.0247,0.3193,0.3193,0.0000,0.0000,0.0000,0.0000,1469.2684,1469.2684,3274.1340,3274.1340,0.0000,0.0000,0.0000,0.0000,0.0000,-15.7107,-15.7107,21.5292,21.5292,54.6099,54.6099,-81.3621,-81.3621,0.0000,-0.8206,13728.4368,0.0000,0.4220,0.4220,0.9679,0.9679,0.0000,0.0000
2.2000,accel,3.3592,0.0000,0.0000,16.7108,4.6330,0.0000,0.0000,1.0000,0.0000,0.0000,1,2902.4517,2962.8834,2962.8834,3902.0413,3902.0413,-0.1514,-0.1514,0.4342,0.4342,0.0000,0.0000,0.0000,0.0000,-2962.8834,-2962.8834,3715.4003,3715.4003,0.0000,0.0000,0.0000,0.0000,0.0000,-15.2335,-15.2335,21.6272,21.6272,-112.5399,-112.5399,92.7887,92.7887,0.0000,-0.8123,13729.8493,0.0000,1.0000,1.0000,0.9522,0.9522,0.0000,0.0000
2.3000,accel,3.8525,0.0000,0.0000,18.4724,5.1223,0.0000,0.0000,1.0000,0.0000,0.0000,1,3615.0437,3068.1601,3068.1601,3795.3867,3795.3867,-0.0805,-0.0805,0.4979,0.4979,0.0000,0.0000,0.0000,0.0000,-2829.3364,-2829.3364,3585.1477,3585.1477,0.0000,0.0000,0.0000,0.0000,0.0000,-18.6132,-18.6132,24.1462,24.1462,-58.3202,-58.3202,24.9370,24.9370,0.0000,-0.9423,13727.0935,0.0000,0.9222,0.9222,0.9446,0.9446,0.0000,0.0000
2.4000,accel,4.3948,0.0000,0.0000,20.2276,5.6115,0.0000,0.0000,1.0000,0.0000,0.0000,1,5621.7011,3027.1457,3027.1457,3836.7938,3836.7938,-0.1021,-0.1021,0.6463,0.6463,0.0000,0.0000,0.0000,0.0000,-2949.6498,-2949.6498,3565.4194,3565.4194,0.0000,0.0000,0.0000,0.0000,0.0000,-20.0075,-20.0075,25.2436,25.2436,-60.0789,-60.0789,30.5258,30.5258,0.0000,-0.9972,13727.8789,0.0000,0.9744,0.9744,0.9293,0.9293,0.0000,0.0000
2.5000,accel,4.9856,0.0000,0.0000,22.0073,6.1015,0.0000,0.0000,1.0000,0.0000,0.0000,2,1997.6510,2855.8988,2855.8988,4009.8846,4009.8846,-0.1696,-0.1696,0.3894,0.3894,0.0000,0.0000,0.0000,0.0000,-2855.8988,-2855.8988,3841.3085,3841.3085,0.0000,0.0000,0.0000,0.0000,0.0000,-20.6893,-20.6893,25.9485,25.9485,-104.1370,-104.1370,92.7129,92.7129,0.0000,-1.0277,13731.5670,0.0000,1.0000,1.0000,0.9580,0.9580,0.0000,0.0000
2.6000,accel,5.6020,0.0000,0.0000,22.1836,6.1695,0.0000,0.0000,1.0000,0.0000,0.0000,2,1360.8106,3621.0705,3621.0705,3242.8204,3242.8204,-0.2328,-0.2328,0.0935,0.0935,0.0000,0.0000,0.0000,0.0000,-3621.0705,-3621.0705,3009.0363,3009.0363,0.0000,0.0000,0.0000,0.0000,0.0000,-8.7208,-8.7208,14.4179,14.4179,40.5924,40.5924,-70.5765,-70.5765,0.0000,-0.5099,13727.7817,0.0000,1.0000,1.0000,0.9279,0.9279,0.0000,0.0000
2.7000,accel,6.2195,0.0000,0.0000,22.2477,6.2487,0.0000,0.0000,1.0000,0.0000,0.0000,2,1187.8059,2612.3123,2612.3123,4261.6072,4261.6072,-0.2502,-0.2502,-0.0489,-0.0489,0.0000,0.0000,0.0000,0.0000,-2612.3123,-2612.3123,-3159.9717,-3159.9717,0.0000,0.0000,0.0000,0.0000,0.0000,-5.9558,-5.9558,10.5429,10.5429,-278.9725,-278.9725,347.4579,347.4579,0.0000,-0.3636,13747.8391,0.0000,1.0000,1.0000,0.7415,0.7415,0.0000,0.0000
2.8000,accel,6.8509,0.0000,0.0000,23.1311,6.3495,0.0000,0.0000,1.0000,0.0000,0.0000,2,1670.8213,4607.0229,4607.0229,2266.3396,2266.3396,0.0838,0.0838,0.2402,0.2402,0.0000,0.0000,0.0000,0.0000,4158.7495,4158.7495,2220.1441,2220.1441,0.0000,0.0000,0.0000,0.0000,0.0000,-3.1392,-3.1392,9.7105,9.7105,379.1576,379.1576,-315.9463,-315.9463,0.0000,-0.2832,13746.7250,0.0000,0.9027,0.9027,0.9796,0.9796,0.0000,0.0000
2.9000,accel,7.5010,0.0000,0.0000,23.6170,6.6140,0.0000,0.0000,1.0000,0.0000,0.0000,2,1289.7353,2574.9116,2574.9116,4296.8270,4296.8270,-0.2002,-0.2002,-0.0245,-0.0245,0.0000,0.0000,0.0000,0.0000,-2574.9116,-2574.9116,-1925.9731,-1925.9731,0.0000,0.0000,0.0000,0.0000,0.0000,-6.8425,-6.8425,13.6379,13.6379,-283.3242,-283.3242,330.5955,330.5955,0.0000,-0.4513,13743.4773,0.0000,1.0000,1.0000,0.4482,0.4482,0.0000,0.0000
3.0000,accel,8.1707,0.0000,0.0000,24.3903,6.7726,0.0000,0.0000,1.0000,0.0000,0.0000,2,1231.7547,3710.5986,3710.5986,3152.7675,3152.7675,0.0736,0.0736,-0.0900,-0.0900,0.0000,0.0000,0.0000,0.0000,3213.4025,3213.4025,-2994.7301,-2994.7301,0.0000,0.0000,0.0000,0.0000,0.0000,-5.8832,-5.8832,12.5649,12.5649,48.0279,48.0279,-83.0700,-83.0700,0.0000,-0.4065,13726.7323,0.0000,0.8660,0.8660,0.9499,0.9499,0.0000,0.0000
3.1000,accel,8.8591,0.0000,0.0000,25.1747,6.9442,0.0000,0.0000,1.0000,0.0000,0.0000,2,1496.8468,4101.4270,4101.4270,2766.5767,2766.5767,0.0246,0.0246,0.0725,0.0725,0.0000,0.0000,0.0000,0.0000,1725.1743,1725.1743,2383.2163,2383.2163,0.0000,0.0000,0.0000,0.0000,0.0000,-5.4379,-5.4379,11.9996,11.9996,199.9056,199.9056,-189.3726,-189.3726,0.0000,-0.3843,13736.0074,0.0000,0.4206,0.4206,0.8614,0.8614,0.0000,0.0000
3.2000,accel,9.5657,0.0000,0.0000,25.8355,7.0963,0.0000,0.0000,1.0000,0.0000,0.0000,2,1677.0507,3819.9011,3819.9011,3043.7594,3043.7594,0.1767,0.1767,0.1540,0.1540,0.0000,0.0000,0.0000,0.0000,3762.4834,3762.4834,2991.1023,2991.1023,0.0000,0.0000,0.0000,0.0000,0.0000,-3.8016,-3.8016,10.9987,10.9987,70.9324,70.9324,-103.0279,-103.0279,0.0000,-0.3262,13727.3212,0.0000,0.9850,0.9850,0.9827,0.9827,0.0000,0.0000
3.3000,accel,10.2923,0.0000,0.0000,26.4480,7.3425,0.0000,0.0000,1.0000,0.0000,0.0000,2,1383.2645,3794.2682,3794.2682,3070.6059,3070.6059,0.0537,0.0537,-0.0575,-0.0575,0.0000,0.0000,0.0000,0.0000,2847.1639,2847.1639,-2482.8594,-2482.8594,0.0000,0.0000,0.0000,0.0000,0.0000,-6.4241,-6.4241,12.6523,12.6523,86.9046,86.9046,-107.1693,-107.1693,0.0000,-0.4204,13729.7482,0.0000,0.7504,0.7504,0.8086,0.8086,0.0000,0.0000
3.4000,accel,11.0383,0.0000,0.0000,27.2206,7.5335,0.0000,0.0000,1.0000,0.0000,0.0000,2,1506.7650,3559.9802,3559.9802,3302.1947,3302.1947,0.0440,0.0440,0.0005,0.0005,0.0000,0.0000,0.0000,0.0000,2366.8327,2366.8327,-18.4681,-18.4681,0.0000,0.0000,0.0000,0.0000,0.0000,-6.2822,-6.2822,12.6390,12.6390,-5.8785,-5.8785,-40.9061,-40.9061,0.0000,-0.4170,13724.3499,0.0000,0.6648,0.6648,0.0056,0.0056,0.0000,0.0000
3.5000,accel,11.8031,0.0000,0.0000,27.7242,7.6921,0.0000,0.0000,1.0000,0.0000,0.0000,1,2355.3051,3918.1586,3918.1586,2948.4487,2948.4487,0.1054,0.1054,-0.1356,-0.1356,0.0000,0.0000,0.0000,0.0000,3720.3780,3720.3780,-2948.4487,-2948.4487,0.0000,0.0000,0.0000,0.0000,0.0000,-5.3034,-5.3034,10.7606,10.7606,125.2531,125.2531,-128.5587,-128.5587,0.0000,-0.3540,13733.2146,0.0000,0.9495,0.9495,1.0000,1.0000,0.0000,0.0000
3.6000,accel,12.5726,0.0000,0.0000,27.7105,7.6903,0.0000,0.0000,1.0000,0.0000,0.0000,1,2368.8228,3849.7078,3849.7078,3016.5295,3016.5295,0.1010,0.1010,-0.1305,-0.1305,0.0000,0.0000,0.0000,0.0000,3628.5332,3628.5332,-3016.5295,-3016.5295,0.0000,0.0000,0.0000,0.0000,0.0000,-1.7381,-1.7381,5.1968,5.1968,62.2196,62.2196,-69.3657,-69.3657,0.0000,-0.1528,13732.4746,0.0000,0.9425,0.9425,1.0000,1.0000,0.0000,0.0000
3.7000,accel,13.3445,0.0000,0.0000,28.2190,7.7861,0.0000,0.0000,1.0000,0.0000,0.0000,1,3302.3118,3451.5368,3451.5368,3414.5193,3414.5193,0.0177,0.0177,0.1646,0.1646,0.0000,0.0000,0.0000,0.0000,1062.9404,1062.9404,3360.8283,3360.8283,0.0000,0.0000,0.0000,0.0000,0.0000,-3.4633,-3.4633,6.6015,6.6015,-56.9972,-56.9972,48.0371,48.0371,0.0000,-0.2218,13732.1121,0.0000,0.3080,0.3080,0.9843,0.9843,0.0000,0.0000
3.8000,accel,14.1558,0.0000,0.0000,30.0970,8.2942,0.0000,0.0000,1.0000,0.0000,0.0000,1,4437.3591,3514.2543,3514.2543,3350.8925,3350.8925,0.0439,0.0439,0.3378,0.3378,0.0000,0.0000,0.0000,0.0000,2335.4121,2335.4121,3234.1442,3234.1442,0.0000,0.0000,0.0000,0.0000,0.0000,-13.7196,-13.7196,18.0483,18.0483,47.8533,47.8533,-65.6304,-65.6304,0.0000,-0.7001,13730.2936,0.0000,0.6646,0.6646,0.9652,0.9652,0.0000,0.0000
3.9000,accel,15.0174,0.0000,0.0000,31.8696,8.7905,0.0000,0.0000,1.0000,0.0000,0.0000,1,6096.4261,3522.6715,3522.6715,3343.3949,3343.3949,0.0372,0.0372,0.4891,0.4891,0.0000,0.0000,0.0000,0.0000,2080.6399,2080.6399,3161.5479,3161.5479,0.0000,0.0000,0.0000,0.0000,0.0000,-17.7457,-17.7457,22.5837,22.5837,91.4815,91.4815,-100.1679,-100.1679,0.0000,-0.8887,13732.1327,0.0000,0.5906,0.5906,0.9456,0.9456,0.0000,0.0000
4.0000,accel,15.9280,0.0000,0.0000,33.6302,9.2782,0.0000,0.0000,1.0000,0.0000,0.0000,1,6664.5891,3533.1668,3533.1668,3333.3240,3333.3240,0.0402,0.0402,0.5068,0.5068,0.0000,0.0000,0.0000,0.0000,2207.6093,2207.6093,3145.3758,3145.3758,0.0000,0.0000,0.0000,0.0000,0.0000,-19.2646,-19.2646,24.3080,24.3080,110.8692,110.8692,-115.3617,-115.3617,0.0000,-0.9602,13732.9817,0.0000,0.6248,0.6248,0.9436,0.9436,0.0000,0.0000
4.1000,accel,16.8874,0.0000,0.0000,35.3906,9.7653,0.0000,0.0000,1.0000,0.0000,0.0000,1,6782.3007,3541.1347,3541.1347,3325.5800,3325.5800,0.0446,0.0446,0.4899,0.4899,0.0000,0.0000,0.0000,0.0000,2375.2952,2375.2952,3144.4202,3144.4202,0.0000,0.0000,0.0000,0.0000,0.0000,-19.8829,-19.8829,25.0008,25.0008,120.2387,120.2387,-122.5227,-122.5227,0.0000,-0.9891,13733.4295,0.0000,0.6708,0.6708,0.9455,0.9455,0.0000,0.0000
4.2000,accel,17.8957,0.0000,0.0000,37.1533,10.2536,0.0000,0.0000,1.0000,0.0000,0.0000,1,6794.0992,3541.9028,3541.9028,3324.9071,3324.9071,0.0476,0.0476,0.4653,0.4653,0.0000,0.0000,0.0000,0.0000,2476.3970,2476.3970,3153.3097,3153.3097,0.0000,0.0000,0.0000,0.0000,0.0000,-20.1806,-20.1806,25.3026,25.3026,123.5233,123.5233,-124.8708,-124.8708,0.0000,-1.0023,13733.6199,0.0000,0.6992,0.6992,0.9484,0.9484,0.0000,0.0000
4.3000,accel,18.9530,0.0000,0.0000,38.9199,10.7439,0.0000,0.0000,1.0000,0.0000,0.0000,1,6779.0058,3537.1214,3537.1214,3329.7169,3329.7169,0.0484,0.0484,0.4385,0.4385,0.0000,0.0000,0.0000,0.0000,2499.6127,2499.6127,3168.6894,3168.6894,0.0000,0.0000,0.0000,0.0000,0.0000,-20.3775,-20.3775,25.4643,25.4643,123.5791,123.5791,-124.6516,-124.6516,0.0000,-1.0102,13733.6766,0.0000,0.7067,0.7067,0.9516,0.9516,0.0000,0.0000
4.4000,accel,20.0595,0.0000,0.0000,40.6921,11.2363,0.0000,0.0000,1.0000,0.0000,0.0000,1,6755.8186,3528.6538,3528.6538,3338.1801,3338.1801,0.0477,0.0477,0.4107,0.4107,0.0000,0.0000,0.0000,0.0000,2470.7175,2470.7175,3188.4594,3188.4594,0.0000,0.0000,0.0000,0.0000,0.0000,-20.5496,-20.5496,25.5765,25.5765,121.9131,121.9131,-123.0352,-123.0352,0.0000,-1.0165,13733.6678,0.0000,0.7002,0.7002,0.9551,0.9551,0.0000,0.0000
4.5000,accel,21.2153,0.0000,0.0000,42.4763,11.7313,0.0000,0.0000,1.0000,0.0000,0.0000,2,2931.0976,3510.2013,3510.2013,3356.5354,3356.5354,0.0463,0.0463,0.1999,0.1999,0.0000,0.0000,0.0000,0.0000,2414.3703,2414.3703,3303.4554,3303.4554,0.0000,0.0000,0.0000,0.0000,0.0000,-20.7443,-20.7443,25.6850,25.6850,116.4794,116.4794,-118.5653,-118.5653,0.0000,-1.0232,13733.4735,0.0000,0.6878,0.6878,0.9842,0.9842,0.0000,0.0000
4.6000,accel,22.3949,0.0000,0.0000,42.4771,11.7895,0.0000,0.0000,1.0000,0.0000,0.0000,2,2195.5029,3897.7524,3897.7524,2969.7162,2969.7162,0.0780,0.0780,-0.0685,-0.0685,0.0000,0.0000,0.0000,0.0000,3443.0599,3443.0599,-2591.5128,-2591.5128,0.0000,0.0000,0.0000,0.0000,0.0000,-8.4706,-8.4706,13.7202,13.7202,148.7626,148.7626,-143.6225,-143.6225,0.0000,-0.4890,13734.9373,0.0000,0.8833,0.8833,0.8726,0.8726,0.0000,0.0000
4.7000,accel,23.5748,0.0000,0.0000,42.7122,11.7920,0.0000,0.0000,1.0000,0.0000,0.0000,2,2575.1147,3784.6198,3784.6198,3081.1312,3081.1312,0.0775,0.0775,0.0846,0.0846,0.0000,0.0000,0.0000,0.0000,3335.9628,3335.9628,2788.7976,2788.7976,0.0000,0.0000,0.0000,0.0000,0.0000,-3.2121,-3.2121,6.8660,6.8660,50.9248,50.9248,-62.8311,-62.8311,0.0000,-0.2221,13731.5020,0.0000,0.8815,0.8815,0.9051,0.9051,0.0000,0.0000
4.8000,accel,24.7732,0.0000,0.0000,43.6038,12.0684,0.0000,0.0000,1.0000,0.0000,0.0000,2,2447.4870,3716.9459,3716.9459,3149.0460,3149.0460,0.0588,0.0588,0.0143,0.0143,0.0000,0.0000,0.0000,0.0000,2924.4761,2924.4761,784.5437,784.5437,0.0000,0.0000,0.0000,0.0000,0.0000,-7.4239,-7.4239,11.3540,11.3540,65.9738,65.9738,-75.4842,-75.4842,0.0000,-0.4138,13731.9838,0.0000,0.7868,0.7868,0.2491,0.2491,0.0000,0.0000
4.9000,accel,25.9972,0.0000,0.0000,44.5264,12.3260,0.0000,0.0000,1.0000,0.0000,0.0000,2,2498.0463,3722.5551,3722.5551,3144.0039,3144.0039,0.0558,0.0558,0.0136,0.0136,0.0000,0.0000,0.0000,0.0000,2853.0306,2853.0306,746.3574,746.3574,0.0000,0.0000,0.0000,0.0000,0.0000,-9.0063,-9.0063,12.9018,12.9018,84.0406,84.0406,-87.9801,-87.9801,0.0000,-0.4828,13733.1179,0.0000,0.7664,0.7664,0.2374,0.2374,0.0000,0.0000
5.0000,accel,27.2470,0.0000,0.0000,45.4632,12.5860,0.0000,0.0000,1.0000,0.0000,0.0000,2,2553.9441,3725.8119,3725.8119,3140.9916,3140.9916,0.0540,0.0540,0.0148,0.0148,0.0000,0.0000,0.0000,0.0000,2803.9021,2803.9021,814.1267,814.1267,0.0000,0.0000,0.0000,0.0000,0.0000,-9.7410,-9.7410,13.6555,13.6555,92.6906,92.6906,-94.2243,-94.2243,0.0000,-0.5156,13733.6070,0.0000,0.7526,0.7526,0.2592,0.2592,0.0000,0.0000
5.1000,accel,28.5231,0.0000,0.0000,46.4119,12.8490,0.0000,0.0000,1.0000,0.0000,0.0000,2,2611.8110,3727.1998,3727.1998,3139.6997,3139.6997,0.0524,0.0524,0.0165,0.0165,0.0000,0.0000,0.0000,0.0000,2760.1611,2760.1611,906.3265,906.3265,0.0000,0.0000,0.0000,0.0000,0.0000,-10.1203,-10.1203,14.0798,14.0798,97.0386,97.0386,-97.6242,-97.6242,0.0000,-0.5333,13733.7990,0.0000,0.7405,0.7405,0.2887,0.2887,0.0000,0.0000
5.2000,accel,29.8257,0.0000,0.0000,47.3720,13.1152,0.0000,0.0000,1.0000,0.0000,0.0000,2,2670.7073,3727.6604,3727.6604,3139.2740,3139.2740,0.0509,0.0509,0.0183,0.0183,0.0000,0.0000,0.0000,0.0000,2714.9207,2714.9207,1000.3854,1000.3854,0.0000,0.0000,0.0000,0.0000,0.0000,-10.3543,-10.3543,14.3674,14.3674,99.5635,99.5635,-99.8005,-99.8005,0.0000,-0.5448,13733.8688,0.0000,0.7283,0.7283,0.3187,0.3187,0.0000,0.0000
5.3000,accel,31.1551,0.0000,0.0000,48.3438,13.3846,0.0000,0.0000,1.0000,0.0000,0.0000,2,2730.5039,3727.1974,3727.1974,3139.7449,3139.7449,0.0494,0.0494,0.0201,0.0201,0.0000,0.0000,0.0000,0.0000,2667.2035,2667.2035,1093.0033,1093.0033,0.0000,0.0000,0.0000,0.0000,0.0000,-10.5319,-10.5319,14.5973,14.5973,101.1541,101.1541,-101.3077,-101.3077,0.0000,-0.5538,13733.8847,0.0000,0.7156,0.7156,0.3481,0.3481,0.0000,0.0000
5.4000,accel,32.5116,0.0000,0.0000,49.3272,13.6573,0.0000,0.0000,1.0000,0.0000,0.0000,2,2791.1499,3725.6314,3725.6314,3141.3059,3141.3059,0.0479,0.0479,0.0218,0.0218,0.0000,0.0000,0.0000,0.0000,2616.8800,2616.8800,1182.9326,1182.9326,0.0000,0.0000,0.0000,0.0000,0.0000,-10.6916,-10.6916,14.8019,14.8019,102.1241,102.1241,-102.3231,-102.3231,0.0000,-0.5618,13733.8746,0.0000,0.7024,0.7024,0.3766,0.3766,0.0000,0.0000
5.5000,accel,33.8957,0.0000,0.0000,50.3226,13.9334,0.0000,0.0000,1.0000,0.0000,0.0000,2,2852.5996,3722.7858,3722.7858,3144.1395,3144.1395,0.0464,0.0464,0.0235,0.0235,0.0000,0.0000,0.0000,0.0000,2563.8000,2563.8000,1269.2789,1269.2789,0.0000,0.0000,0.0000,0.0000,0.0000,-10.8506,-10.8506,14.9945,14.9945,102.5760,102.5760,-102.8891,-102.8891,0.0000,-0.5695,13733.8506,0.0000,0.6887,0.6887,0.4037,0.4037,0.0000,0.0000
5.6000,accel,35.3076,0.0000,0.0000,51.3301,14.2130,0.0000,0.0000,1.0000,0.0000,0.0000,2,2914.8189,3718.5320,3718.5320,3148.3776,3148.3776,0.0449,0.0449,0.0252,0.0252,0.0000,0.0000,0.0000,0.0000,2507.7333,2507.7333,1351.5470,1351.5470,0.0000,0.0000,0.0000,0.0000,0.0000,-11.0170,-11.0170,15.1802,15.1802,102.5387,102.5387,-103.0049,-103.0049,0.0000,-0.5773,13733.8191,0.0000,0.6744,0.6744,0.4293,0.4293,0.0000,0.0000
5.7000,accel,36.7476,0.0000,0.0000,52.3484,14.4958,0.0000,0.0000,1.0000,0.0000,0.0000,2,2976.6585,3712.1180,3712.1180,3154.7682,3154.7682,0.0435,0.0435,0.0265,0.0265,0.0000,0.0000,0.0000,0.0000,2450.3005,2450.3005,1413.5512,1413.5512,0.0000,0.0000,0.0000,0.0000,0.0000,-11.1896,-11.1896,15.3503,15.3503,101.6987,101.6987,-102.3942,-102.3942,0.0000,-0.5849,13733.7725,0.0000,0.6601,0.6601,0.4481,0.4481,0.0000,0.0000
5.8000,accel,38.2161,0.0000,0.0000,53.3761,14.7813,0.0000,0.0000,1.0000,0.0000,0.0000,2,3039.0280,3705.3593,3705.3593,3161.5174,3161.5174,0.0421,0.0421,0.0277,0.0277,0.0000,0.0000,0.0000,0.0000,2390.4938,2390.4938,1471.9265,1471.9265,0.0000,0.0000,0.0000,0.0000,0.0000,-11.3593,-11.3593,15.4930,15.4930,100.6930,100.6930,-101.4848,-101.4848,0.0000,-0.5917,13733.7535,0.0000,0.6451,0.6451,0.4656,0.4656,0.0000,0.0000
5.9000,accel,39.7133,0.0000,0.0000,54.4112,15.0690,0.0000,0.0000,1.0000,0.0000,0.0000,2,3101.9461,3698.8046,3698.8046,3168.0680,3168.0680,0.0406,0.0406,0.0289,0.0289,0.0000,0.0000,0.0000,0.0000,2327.4472,2327.4472,1528.6607,1528.6607,0.0000,0.0000,0.0000,0.0000,0.0000,-11.5124,-11.5124,15.6084,15.6084,99.6015,99.6015,-100.4377,-100.4377,0.0000,-0.5977,13733.7452,0.0000,0.6292,0.6292,0.4825,0.4825,0.0000,0.0000
6.0000,accel,41.2393,0.0000,0.0000,55.4535,15.3586,0.0000,0.0000,1.0000,0.0000,0.0000,2,3165.2802,3691.0208,3691.0208,3175.8412,3175.8412,0.0391,0.0391,0.0300,0.0300,0.0000,0.0000,0.0000,0.0000,2260.3879,2260.3879,1582.8517,1582.8517,0.0000,0.0000,0.0000,0.0000,0.0000,-11.6621,-11.6621,15.7084,15.7084,97.9857,97.9857,-98.9309,-98.9309,0.0000,-0.6032,13733.7240,0.0000,0.6124,0.6124,0.4984,0.4984,0.0000,0.0000
6.1000,accel,42.7944,0.0000,0.0000,56.5028,15.6504,0.0000,0.0000,1.0000,0.0000,0.0000,2,3229.0419,3682.0115,3682.0115,3184.8373,3184.8373,0.0375,0.0375,0.0311,0.0311,0.0000,0.0000,0.0000,0.0000,2188.8886,2188.8886,1634.8822,1634.8822,0.0000,0.0000,0.0000,0.0000,0.0000,-11.8165,-11.8165,15.7990,15.7990,95.9256,95.9256,-97.0077,-97.0077,0.0000,-0.6086,13733.6975,0.0000,0.5945,0.5945,0.5133,0.5133,0.0000,0.0000
6.2000,accel,44.3788,0.0000,0.0000,57.5594,15.9442,0.0000,0.0000,1.0000,0.0000,0.0000,2,3293.2461,3671.7651,3671.7651,3195.0692,3195.0692,0.0359,0.0359,0.0321,0.0321,0.0000,0.0000,0.0000,0.0000,2112.4540,2112.4540,1685.1474,1685.1474,0.0000,0.0000,0.0000,0.0000,0.0000,-11.9789,-11.9789,15.8827,15.8827,93.4506,93.4506,-94.6824,-94.6824,0.0000,-0.6140,13733.6687,0.0000,0.5753,0.5753,0.5274,0.5274,0.0000,0.0000
6.3000,accel,45.9927,0.0000,0.0000,58.6233,16.2402,0.0000,0.0000,1.0000,0.0000,0.0000,2,3357.9103,3660.2533,3660.2533,3206.5660,3206.5660,0.0342,0.0342,0.0332,0.0332,0.0000,0.0000,0.0000,0.0000,2030.5079,2030.5079,1734.0381,1734.0381,0.0000,0.0000,0.0000,0.0000,0.0000,-12.1507,-12.1507,15.9606,15.9606,90.5647,90.5647,-91.9541,-91.9541,0.0000,-0.6195,13733.6386,0.0000,0.5547,0.5547,0.5408,0.5408,0.0000,0.0000
6.4000,accel,47.6363,0.0000,0.0000,59.6944,16.5382,0.0000,0.0000,1.0000,0.0000,0.0000,2,3423.0535,3647.4268,3647.4268,3219.3769,3219.3769,0.0325,0.0325,0.0341,0.0341,0.0000,0.0000,0.0000,0.0000,1942.3711,1942.3711,1781.9349,1781.9349,0.0000,0.0000,0.0000,0.0000,0.0000,-12.3330,-12.3330,16.0330,16.0330,87.2567,87.2567,-88.8107,-88.8107,0.0000,-0.6251,13733.6073,0.0000,0.5325,0.5325,0.5535,0.5535,0.0000,0.0000
6.5000,accel,49.3097,0.0000,0.0000,60.7729,16.8384,0.0000,0.0000,1.0000,0.0000,0.0000,2,3488.6957,3633.2110,3633.2110,3233.5764,3233.5764,0.0307,0.0307,0.0351,0.0351,0.0000,0.0000,0.0000,0.0000,1847.2306,1847.2306,1829.2095,1829.2095,0.0000,0.0000,0.0000,0.0000,0.0000,-12.5263,-12.5263,16.0998,16.0998,83.5033,83.5033,-85.2307,-85.2307,0.0000,-0.6308,13733.5747,0.0000,0.5084,0.5084,0.5657,0.5657,0.0000,0.0000
6.6000,accel,51.0133,0.0000,0.0000,61.8588,17.1407,0.0000,0.0000,1.0000,0.0000,0.0000,2,3554.8587,3617.4997,3617.4997,3249.2703,3249.2703,0.0288,0.0288,0.0361,0.0361,0.0000,0.0000,0.0000,0.0000,1744.0960,1744.0960,1876.2313,1876.2313,0.0000,0.0000,0.0000,0.0000,0.0000,-12.7314,-12.7314,16.1607,16.1607,79.2694,79.2694,-81.1819,-81.1819,0.0000,-0.6367,13733.5400,0.0000,0.4821,0.4821,0.5774,0.5774,0.0000,0.0000
6.7000,accel,52.7472,0.0000,0.0000,62.9520,17.4452,0.0000,0.0000,1.0000,0.0000,0.0000,2,3621.5656,3600.1471,3600.1471,3266.6041,3266.6041,0.0268,0.0268,0.0370,0.0370,0.0000,0.0000,0.0000,0.0000,1631.7399,1631.7399,1923.3787,1923.3787,0.0000,0.0000,0.0000,0.0000,0.0000,-12.9491,-12.9491,16.2153,16.2153,74.5059,74.5059,-76.6195,-76.6195,0.0000,-0.6427,13733.5025,0.0000,0.4532,0.4532,0.5888,0.5888,0.0000,0.0000
6.8000,accel,54.5117,0.0000,0.0000,64.0527,17.7519,0.0000,0.0000,1.0000,0.0000,0.0000,2,3688.8421,3580.9563,3580.9563,3285.7741,3285.7741,0.0247,0.0247,0.0380,0.0380,0.0000,0.0000,0.0000,0.0000,1508.6175,1508.6175,1971.0540,1971.0540,0.0000,0.0000,0.0000,0.0000,0.0000,-13.1808,-13.1808,16.2629,16.2629,69.1463,69.1463,-71.4827,-71.4827,0.0000,-0.6488,13733.4609,0.0000,0.4213,0.4213,0.5999,0.5999,0.0000,0.0000
6.9000,accel,56.3069,0.0000,0.0000,65.1609,18.0608,0.0000,0.0000,1.0000,0.0000,0.0000,2,3756.7171,3559.6651,3559.6651,3307.0419,3307.0419,0.0224,0.0224,0.0389,0.0389,0.0000,0.0000,0.0000,0.0000,1372.7660,1372.7660,2019.7021,2019.7021,0.0000,0.0000,0.0000,0.0000,0.0000,-13.4280,-13.4280,16.3027,16.3027,63.1020,63.1020,-65.6901,-65.6901,0.0000,-0.6552,13733.4140,0.0000,0.3856,0.3856,0.6107,0.6107,0.0000,0.0000
7.0000,accel,58.1330,0.0000,0.0000,66.2765,18.3719,0.0000,0.0000,1.0000,0.0000,0.0000,2,3825.2234,3535.9310,3535.9310,3330.7489,3330.7489,0.0199,0.0199,0.0399,0.0399,0.0000,0.0000,0.0000,0.0000,1221.7054,1221.7054,2069.8281,2069.8281,0.0000,0.0000,0.0000,0.0000,0.0000,-13.6929,-13.6929,16.3334,16.3334,56.2578,56.2578,-59.1358,-59.1358,0.0000,-0.6617,13733.3599,0.0000,0.3455,0.3455,0.6214,0.6214,0.0000,0.0000
7.1000,accel,59.9903,0.0000,0.0000,67.3995,18.6853,0.0000,0.0000,1.0000,0.0000,0.0000,2,3894.3982,3509.3301,3509.3301,3357.3182,3357.3182,0.0172,0.0172,0.0408,0.0408,0.0000,0.0000,0.0000,0.0000,1052.4456,1052.4456,2121.9986,2121.9986,0.0000,0.0000,0.0000,0.0000,0.0000,-13.9784,-13.9784,16.3534,16.3534,48.4718,48.4718,-51.6875,-51.6875,0.0000,-0.6684,13733.2966,0.0000,0.2999,0.2999,0.6321,0.6321,0.0000,0.0000
7.2000,accel,61.8790,0.0000,0.0000,68.5299,19.0009,0.0000,0.0000,1.0000,0.0000,0.0000,2,3964.2779,3479.4212,3479.4212,3387.1905,3387.1905,0.0142,0.0142,0.0418,0.0418,0.0000,0.0000,0.0000,0.0000,861.9886,861.9886,2176.7677,2176.7677,0.0000,0.0000,0.0000,0.0000,0.0000,-14.2875,-14.2875,16.3608,16.3608,39.5994,39.5994,-43.2055,-43.2055,0.0000,-0.6754,13733.2234,0.0000,0.2477,0.2477,0.6426,0.6426,0.0000,0.0000
7.3000,accel,63.7994,0.0000,0.0000,69.6673,19.3188,0.0000,0.0000,1.0000,0.0000,0.0000,2,4034.3975,3446.4892,3446.4892,3420.0875,3420.0875,0.0109,0.0109,0.0427,0.0427,0.0000,0.0000,0.0000,0.0000,650.1035,650.1035,2230.2207,2230.2207,0.0000,0.0000,0.0000,0.0000,0.0000,-14.6188,-14.6188,16.3494,16.3494,29.7397,29.7397,-33.7252,-33.7252,0.0000,-0.6824,13733.1533,0.0000,0.1886,0.1886,0.6521,0.6521,0.0000,0.0000
7.4000,accel,65.7515,0.0000,0.0000,70.8096,19.6382,0.0000,0.0000,1.0000,0.0000,0.0000,2,4104.7570,3412.1926,3412.1926,3454.3617,3454.3617,0.0074,0.0074,0.0436,0.0436,0.0000,0.0000,0.0000,0.0000,426.6377,426.6377,2282.7826,2282.7826,0.0000,0.0000,0.0000,0.0000,0.0000,-14.9528,-14.9528,16.3036,16.3036,19.3610,19.3610,-23.6053,-23.6053,0.0000,-0.6888,13733.1086,0.0000,0.1250,0.1250,0.6608,0.6608,0.0000,0.0000
7.5000,accel,67.7355,0.0000,0.0000,71.9569,19.9588,0.0000,0.0000,1.0000,0.0000,0.0000,2,4175.2953,3379.3783,3379.3783,3487.1828,3487.1828,0.0042,0.0042,0.0444,0.0444,0.0000,0.0000,0.0000,0.0000,216.9869,216.9869,2332.6150,2332.6150,0.0000,0.0000,0.0000,0.0000,0.0000,-15.2830,-15.2830,16.2374,16.2374,9.5375,9.5375,-13.7550,-13.7550,0.0000,-0.6946,13733.1222,0.0000,0.0642,0.0642,0.6689,0.6689,0.0000,0.0000
7.6000,accel,69.7515,0.0000,0.0000,73.1101,20.2805,0.0000,0.0000,1.0000,0.0000,0.0000,2,4245.5987,3354.2924,3354.2924,3512.3349,3512.3349,0.0018,0.0018,0.0451,0.0451,0.0000,0.0000,0.0000,0.0000,63.5287,63.5287,2372.7681,2372.7681,0.0000,0.0000,0.0000,0.0000,0.0000,-15.5826,-15.5826,16.1722,16.1722,2.4990,2.4990,-6.1028,-6.1028,0.0000,-0.6998,13733.2546,0.0000,0.0189,0.0189,0.6756,0.6756,0.0000,0.0000
7.7000,accel,71.7998,0.0000,0.0000,74.2694,20.6032,0.0000,0.0000,1.0000,0.0000,0.0000,2,4315.4320,3340.3606,3340.3606,3526.3988,3526.3988,0.0006,0.0006,0.0456,0.0456,0.0000,0.0000,0.0000,0.0000,-13.7248,-13.7248,2399.5373,2399.5373,0.0000,0.0000,0.0000,0.0000,0.0000,-15.8181,-15.8181,16.1350,16.1350,-0.5136,-0.5136,-1.8188,-1.8188,0.0000,-0.7041,13733.5189,0.0000,0.0041,0.0041,0.6804,0.6804,0.0000,0.0000
7.8000,accel,73.8803,0.0000,0.0000,75.4343,20.9269,0.0000,0.0000,1.0000,0.0000,0.0000,2,4385.0196,3334.3569,3334.3569,3532.5196,3532.5196,0.0002,0.0002,0.0460,0.0460,0.0000,0.0000,0.0000,0.0000,-38.8246,-38.8246,2416.8264,2416.8264,0.0000,0.0000,0.0000,0.0000,0.0000,-15.9785,-15.9785,16.1412,16.1412,-1.0831,-1.0831,-0.1146,-0.1146,0.0000,-0.7078,13733.7530,0.0000,0.0116,0.0116,0.6842,0.6842,0.0000,0.0000
7.9000,accel,75.9933,0.0000,0.0000,76.6042,21.2518,0.0000,0.0000,1.0000,0.0000,0.0000,2,4454.7147,3331.4349,3331.4349,3535.5139,3535.5139,0.0001,0.0001,0.0463,0.0463,0.0000,0.0000,0.0000,0.0000,-44.1168,-44.1168,2430.4289,2430.4289,0.0000,0.0000,0.0000,0.0000,0.0000,-16.0989,-16.0989,16.1885,16.1885,-1.0581,-1.0581,0.5643,0.5643,0.0000,-0.7115,13733.8977,0.0000,0.0132,0.0132,0.6874,0.6874,0.0000,0.0000
8.0000,brake,78.1389,0.0000,0.0000,77.7785,21.5779,0.0000,0.0000,0.0000,0.0000,0.0000,2,4524.0237,3329.8042,3329.8042,3537.1684,3537.1684,0.0001,0.0001,0.0465,0.0465,0.0000,0.0000,0.0000,0.0000,-44.8887,-44.8887,2438.1851,2438.1851,0.0000,0.0000,0.0000,0.0000,0.0000,-16.1987,-16.1987,16.2564,16.2564,-0.8112,-0.8112,0.5477,0.5477,0.0000,-0.7152,13733.9452,0.0000,0.0135,0.0135,0.6893,0.6893,0.0000,0.0000
8.1000,brake,80.2985,0.0000,0.0000,77.5885,21.5661,0.0000,0.0000,0.0000,0.2000,0.0000,2,4280.2113,3823.4895,3823.4895,3044.3654,3044.3654,-0.0073,-0.0073,-0.0072,-0.0072,0.0000,0.0000,0.0000,0.0000,-583.3065,-583.3065,-459.8052,-459.8052,0.0000,0.0000,0.0000,0.0000,0.0000,-5.2671,-5.2671,7.5729,7.5729,87.0230,87.0230,-78.3848,-78.3848,0.0000,-0.2830,13735.7098,0.0000,0.1526,0.1526,0.1510,0.1510,0.0000,0.0000
8.2000,brake,82.4444,0.0000,0.0000,76.8833,21.3825,0.0000,0.0000,0.0000,0.4000,0.0000,2,4204.9275,3941.8926,3941.8926,2924.3854,2924.3854,-0.0151,-0.0151,-0.0163,-0.0163,0.0000,0.0000,0.0000,0.0000,-1160.6492,-1160.6492,-920.3211,-920.3211,0.0000,0.0000,0.0000,0.0000,0.0000,3.3691,3.3691,-0.5240,-0.5240,48.0218,48.0218,-54.8299,-54.8299,0.0000,0.0858,13732.5560,0.0000,0.2944,0.2944,0.3147,0.3147,0.0000,0.0000
8.3000,brake,84.5642,0.0000,0.0000,75.7694,21.0810,0.0000,0.0000,0.0000,0.5000,0.0000,2,4114.7860,4025.1673,4025.1673,2840.2305,2840.2305,-0.0199,-0.0199,-0.0236,-0.0236,0.0000,0.0000,0.0000,0.0000,-1509.7685,-1509.7685,-1234.8145,-1234.8145,0.0000,0.0000,0.0000,0.0000,0.0000,10.0089,10.0089,-7.3091,-7.3091,14.9339,14.9339,-30.4092,-30.4092,0.0000,0.3816,13730.7956,0.0000,0.3751,0.3751,0.4348,0.4348,0.0000,0.0000
8.4000,brake,86.6514,0.0000,0.0000,74.5766,20.7521,0.0000,0.0000,0.0000,0.5000,0.0000,2,4047.9764,3988.7919,3988.7919,2876.9463,2876.9463,-0.0226,-0.0226,-0.0242,-0.0242,0.0000,0.0000,0.0000,0.0000,-1672.0229,-1672.0229,-1278.7185,-1278.7185,0.0000,0.0000,0.0000,0.0000,0.0000,13.2006,13.2006,-11.1308,-11.1308,-22.5238,-22.5238,10.3304,10.3304,0.0000,0.5362,13731.4764,0.0000,0.4192,0.4192,0.4445,0.4445,0.0000,0.0000
8.5000,brake,88.7055,0.0000,0.0000,73.3827,20.4249,0.0000,0.0000,0.0000,0.5000,0.0000,2,3978.4873,3921.2552,3921.2552,2945.7090,2945.7090,-0.0280,-0.0280,-0.0256,-0.0256,0.0000,0.0000,0.0000,0.0000,-1961.7176,-1961.7176,-1371.4827,-1371.4827,0.0000,0.0000,0.0000,0.0000,0.0000,14.6748,14.6748,-12.5684,-12.5684,-52.3501,-52.3501,52.2117,52.2117,0.0000,0.6004,13733.9283,0.0000,0.5003,0.5003,0.4656,0.4656,0.0000,0.0000
8.6000,brake,90.7268,0.0000,0.0000,72.1925,20.0980,0.0000,0.0000,0.0000,0.5000,0.0000,2,3909.1613,3863.2992,3863.2992,3004.0869,3004.0869,-0.0328,-0.0328,-0.0270,-0.0270,0.0000,0.0000,0.0000,0.0000,-2185.9608,-2185.9608,-1461.2032,-1461.2032,0.0000,0.0000,0.0000,0.0000,0.0000,15.5006,15.5006,-12.8988,-12.8988,-74.8076,-74.8076,78.8667,78.8667,0.0000,0.6258,13734.7721,0.0000,0.5658,0.5658,0.4864,0.4864,0.0000,0.0000
8.7000,brake,92.7152,0.0000,0.0000,71.0061,19.7708,0.0000,0.0000,0.0000,0.5000,0.0000,2,3841.3780,3826.3560,3826.3560,3041.0584,3041.0584,-0.0361,-0.0361,-0.0281,-0.0281,0.0000,0.0000,0.0000,0.0000,-2324.8937,-2324.8937,-1525.3952,-1525.3952,0.0000,0.0000,0.0000,0.0000,0.0000,15.9961,15.9961,-12.8626,-12.8626,-88.9020,-88.9020,93.2938,93.2938,0.0000,0.6360,13734.8288,0.0000,0.6076,0.6076,0.5016,0.5016,0.0000,0.0000
8.8000,brake,94.6708,0.0000,0.0000,69.8221,19.4439,0.0000,0.0000,0.0000,0.5000,0.0000,2,3774.0239,3795.7727,3795.7727,3071.6076,3071.6076,-0.0390,-0.0390,-0.0291,-0.0291,0.0000,0.0000,0.0000,0.0000,-2436.8890,-2436.8890,-1583.8276,-1583.8276,0.0000,0.0000,0.0000,0.0000,0.0000,16.3052,16.3052,-12.7064,-12.7064,-99.8478,-99.8478,103.9513,103.9513,0.0000,0.6393,13734.7605,0.0000,0.6420,0.6420,0.5156,0.5156,0.0000,0.0000
8.9000,brake,96.5937,0.0000,0.0000,68.6401,19.1174,0.0000,0.0000,0.0000,0.5000,0.0000,2,3706.7831,3768.2515,3768.2515,3099.0901,3099.0901,-0.0418,-0.0418,-0.0301,-0.0301,0.0000,0.0000,0.0000,0.0000,-2533.0315,-2533.0315,-1641.6777,-1641.6777,0.0000,0.0000,0.0000,0.0000,0.0000,16.5210,16.5210,-12.5138,-12.5138,-109.2525,-109.2525,113.0180,113.0180,0.0000,0.6398,13734.6833,0.0000,0.6722,0.6722,0.5297,0.5297,0.0000,0.0000
9.0000,brake,98.4838,0.0000,0.0000,67.4602,18.7913,0.0000,0.0000,0.0000,0.5000,0.0000,2,3639.5534,3742.7440,3742.7440,3124.5647,3124.5647,-0.0444,-0.0444,-0.0312,-0.0312,0.0000,0.0000,0.0000,0.0000,-2617.1844,-2617.1844,-1700.5839,-1700.5839,0.0000,0.0000,0.0000,0.0000,0.0000,16.6895,16.6895,-12.3153,-12.3153,-117.7438,-117.7438,121.2224,121.2224,0.0000,0.6392,13734.6173,0.0000,0.6993,0.6993,0.5443,0.5443,0.0000,0.0000
9.1000,brake,100.3413,0.0000,0.0000,66.2820,18.4656,0.0000,0.0000,0.0000,0.5000,0.0000,2,3572.2653,3718.6338,3718.6338,3148.6488,3148.6488,-0.0470,-0.0470,-0.0323,-0.0323,0.0000,0.0000,0.0000,0.0000,-2691.5859,-2691.5859,-1761.6103,-1761.6103,0.0000,0.0000,0.0000,0.0000,0.0000,16.8326,16.8326,-12.1208,-12.1208,-125.6549,-125.6549,128.9117,128.9117,0.0000,0.6380,13734.5652,0.0000,0.7238,0.7238,0.5595,0.5595,0.0000,0.0000
9.2000,brake,102.1661,0.0000,0.0000,65.1057,18.1404,0.0000,0.0000,0.0000,0.5000,0.0000,2,3504.8638,3695.5045,3695.5045,3171.7581,3171.7581,-0.0495,-0.0495,-0.0335,-0.0335,0.0000,0.0000,0.0000,0.0000,-2757.7099,-2757.7099,-1825.5466,-1825.5466,0.0000,0.0000,0.0000,0.0000,0.0000,16.9614,16.9614,-11.9328,-11.9328,-133.1828,-133.1828,136.2750,136.2750,0.0000,0.6367,13734.5252,0.0000,0.7462,0.7462,0.5756,0.5756,0.0000,0.0000
9.3000,brake,103.9584,0.0000,0.0000,63.9310,17.8156,0.0000,0.0000,0.0000,0.5000,0.0000,2,3437.3042,3673.0563,3673.0563,3194.1911,3194.1911,-0.0520,-0.0520,-0.0349,-0.0349,0.0000,0.0000,0.0000,0.0000,-2816.6123,-2816.6123,-1892.9767,-1892.9767,0.0000,0.0000,0.0000,0.0000,0.0000,17.0814,17.0814,-11.7507,-11.7507,-140.4540,-140.4540,143.4274,143.4274,0.0000,0.6354,13734.4948,0.0000,0.7668,0.7668,0.5926,0.5926,0.0000,0.0000
9.4000,brake,105.7181,0.0000,0.0000,62.7581,17.4912,0.0000,0.0000,0.0000,0.5000,0.0000,2,3369.5531,3651.0728,3651.0728,3216.1630,3216.1630,-0.0544,-0.0544,-0.0364,-0.0364,0.0000,0.0000,0.0000,0.0000,-2869.1065,-2869.1065,-1964.2697,-1964.2697,0.0000,0.0000,0.0000,0.0000,0.0000,17.1960,17.1960,-11.5734,-11.5734,-147.5534,-147.5534,150.4430,150.4430,0.0000,0.6340,13734.4717,0.0000,0.7858,0.7858,0.6107,0.6107,0.0000,0.0000
9.5000,brake,107.4454,0.0000,0.0000,61.5867,17.1672,0.0000,0.0000,0.0000,0.5000,0.0000,2,3301.5911,3629.4089,3629.4089,3237.8180,3237.8180,-0.0568,-0.0568,-0.0380,-0.0380,0.0000,0.0000,0.0000,0.0000,-2915.8668,-2915.8668,-2039.5372,-2039.5372,0.0000,0.0000,0.0000,0.0000,0.0000,17.3070,17.3070,-11.3996,-11.3996,-154.5361,-154.5361,157.3671,157.3671,0.0000,0.6326,13734.4539,0.0000,0.8034,0.8034,0.6299,0.6299,0.0000,0.0000
9.6000,brake,109.1402,0.0000,0.0000,60.4169,16.8437,0.0000,0.0000,0.0000,0.5000,0.0000,2,3233.4167,3607.9868,3607.9868,3259.2329,3259.2329,-0.0592,-0.0592,-0.0397,-0.0397,0.0000,0.0000,0.0000,0.0000,-2957.4934,-2957.4934,-2118.5850,-2118.5850,0.0000,0.0000,0.0000,0.0000,0.0000,17.4157,17.4157,-11.2284,-11.2284,-161.4329,-161.4329,164.2214,164.2214,0.0000,0.6312,13734.4394,0.0000,0.8197,0.8197,0.6500,0.6500,0.0000,0.0000
9.7000,brake,110.8026,0.0000,0.0000,59.2487,16.5206,0.0000,0.0000,0.0000,0.5000,0.0000,2,3165.0485,3586.7937,3586.7937,3280.4197,3280.4197,-0.0616,-0.0616,-0.0417,-0.0417,0.0000,0.0000,0.0000,0.0000,-2994.5512,-2994.5512,-2200.8890,-2200.8890,0.0000,0.0000,0.0000,0.0000,0.0000,17.5226,17.5226,-11.0594,-11.0594,-168.2522,-168.2522,171.0056,171.0056,0.0000,0.6299,13734.4266,0.0000,0.8349,0.8349,0.6709,0.6709,0.0000,0.0000
9.8000,brake,112.4327,0.0000,0.0000,58.0821,16.1979,0.0000,0.0000,0.0000,0.5000,0.0000,2,3096.5534,3565.9182,3565.9182,3301.2883,3301.2883,-0.0640,-0.0640,-0.0437,-0.0437,0.0000,0.0000,0.0000,0.0000,-3027.6451,-3027.6451,-2285.2970,-2285.2970,0.0000,0.0000,0.0000,0.0000,0.0000,17.6282,17.6282,-10.8926,-10.8926,-174.9707,-174.9707,177.6849,177.6849,0.0000,0.6285,13734.4130,0.0000,0.8491,0.8491,0.6922,0.6922,0.0000,0.0000
9.9000,brake,114.0304,0.0000,0.0000,56.9169,15.8756,0.0000,0.0000,0.0000,0.5000,0.0000,2,3028.0103,3545.4863,3545.4863,3321.7123,3321.7123,-0.0664,-0.0664,-0.0459,-0.0459,0.0000,0.0000,0.0000,0.0000,-3057.3609,-3057.3609,-2370.5185,-2370.5185,0.0000,0.0000,0.0000,0.0000,0.0000,17.7322,17.7322,-10.7286,-10.7286,-181.5508,-181.5508,184.2149,184.2149,0.0000,0.6272,13734.3973,0.0000,0.8623,0.8623,0.7136,0.7136,0.0000,0.0000
10.0000,corner,115.5959,0.0000,0.0000,55.7533,15.5537,0.0000,0.0000,0.3500,0.0000,0.0000,2,2959.4735,3525.5840,3525.5840,3341.6058,3341.6058,-0.0689,-0.0689,-0.0482,-0.0482,0.0000,0.0000,0.0000,0.0000,-3084.1461,-3084.1461,-2455.5857,-2455.5857,0.0000,0.0000,0.0000,0.0000,0.0000,17.8340,17.8340,-10.5681,-10.5681,-187.9645,-187.9645,190.5678,190.5678,0.0000,0.6259,13734.3795,0.0000,0.8748,0.8748,0.7349,0.7349,0.0000,0.0000
10.1000,corner,117.1500,0.0001,0.0037,56.0794,15.5831,0.0020,0.1109,0.3500,0.0000,0.1000,2,3256.6997,3399.7998,3411.0231,3457.3814,3465.6749,-0.0546,-0.0549,0.0427,0.0441,-0.0777,-0.0777,-0.0006,-0.0006,-2676.8745,-2693.3948,2254.9339,2310.0141,50.9651,51.0837,0.2689,0.2695,0.0068,7.4182,7.5027,-1.5750,-1.4963,-149.5045,-146.9013,146.9462,149.4770,0.0030,0.1982,13733.8793,0.0771,0.7875,0.7898,0.6522,0.6665,8052.3217,0.0000
10.2000,corner,118.7135,0.0010,0.0314,56.4053,15.6841,0.0070,0.6970,0.3500,0.0000,0.2000,2,3245.6365,3180.5052,3204.9889,3667.0953,3685.1470,-0.0594,-0.0603,-0.0056,0.0705,-0.1517,-0.1517,0.0081,0.0081,-2611.5083,-2650.7844,-440.6694,3141.6072,102.2672,103.3495,2.5982,2.7284,0.0141,0.7179,1.4942,3.3667,3.8876,-164.3010,-162.8503,181.4149,183.4271,0.0240,-0.0556,13737.7364,0.1436,0.8217,0.8277,0.1202,0.8525,1289.2034,0.0000
10.3000,corner,120.2867,0.0036,0.1048,56.7504,15.7808,0.0081,1.2087,0.3500,0.0000,0.3000,2,3261.3639,3166.9099,3255.0032,3624.3106,3689.3308,-0.0564,-0.0595,-0.0086,0.0707,-0.2112,-0.2113,-0.0329,-0.0328,-2534.9939,-2675.4128,-638.3452,3148.8740,147.6686,152.0045,30.3651,31.2004,0.0244,-2.5500,-0.0108,5.3132,6.9888,-144.8432,-137.8103,144.8358,154.0880,0.0779,-0.1638,13735.5545,0.1784,0.8018,0.8233,0.1763,0.8536,748.0446,0.0000
10.4000,corner,121.8695,0.0089,0.2310,57.0977,15.8774,0.0067,1.7512,0.3500,0.0000,0.4000,2,3280.0218,3147.9603,3306.7129,3581.4120,3698.4191,-0.0537,-0.0593,-0.0099,0.0711,-0.2767,-0.2769,-0.0871,-0.0869,-2457.2451,-2713.2448,-717.3872,3163.1340,198.2718,208.2898,69.3344,72.0608,0.0373,-4.7408,0.1075,5.5403,8.8578,-134.6088,-123.8812,125.4060,139.0335,0.1509,-0.2097,13734.5043,0.1898,0.7831,0.8229,0.2012,0.8555,519.4881,0.0000
10.5000,corner,123.4620,0.0184,0.4129,57.4465,15.9741,0.0036,2.3069,0.3500,0.0000,0.5000,2,3299.9456,3123.0496,3356.2838,3541.4897,3713.2072,-0.0512,-0.0594,-0.0102,0.0713,-0.3464,-0.3468,-0.1485,-0.1480,-2374.7601,-2755.1997,-731.1311,3179.6774,251.4937,269.8667,113.5323,119.6953,0.0517,-6.5290,0.9597,4.9967,10.2362,-128.9533,-115.8050,114.8727,131.1646,0.2352,-0.2292,13734.0302,0.1984,0.7647,0.8248,0.2089,0.8569,396.7398,0.0000
10.6000,corner,125.0642,0.0335,0.6516,57.7960,16.0707,-0.0004,2.8694,0.3500,0.0000,0.6000,2,3320.5844,3094.4462,3404.6098,3503.2937,3731.4772,-0.0487,-0.0596,-0.0100,0.0715,-0.4190,-0.4197,-0.2138,-0.2130,-2288.3639,-2799.7922,-709.0295,3197.6178,305.9933,335.5667,160.0998,171.3980,0.0670,-8.1774,2.1503,4.1024,11.4256,-125.3513,-110.5019,108.5377,126.5792,0.3262,-0.2375,13733.8269,0.2060,0.7461,0.8282,0.2075,0.8582,320.8950,0.0000
10.7000,corner,126.6759,0.0558,0.9480,58.1457,16.1673,-0.0051,3.4370,0.3500,0.0000,0.7000,2,3341.5182,3063.9968,3452.9695,3465.3832,3751.3919,-0.0463,-0.0599,-0.0095,0.0716,-0.4939,-0.4949,-0.2817,-0.2803,-2197.6164,-2846.0632,-672.8115,3216.3470,360.9352,404.6931,207.6598,225.8868,0.0829,-9.7894,3.5042,3.0416,12.5486,-122.5368,-106.3557,103.9814,123.3147,0.4214,-0.2410,13733.7414,0.2134,0.7268,0.8325,0.2032,0.8595,269.5119,0.0000
10.8000,corner,128.2972,0.0870,1.3026,58.4953,16.2638,-0.0104,4.0092,0.3500,0.0000,0.8000,2,3362.5523,3032.7301,3502.1808,3426.8713,3771.9203,-0.0438,-0.0602,-0.0090,0.0717,-0.5707,-0.5720,-0.3514,-0.3493,-2101.8344,-2893.5801,-632.5911,3235.5545,415.8649,476.9292,255.5892,282.6262,0.0992,-11.4060,4.9446,1.8944,13.6554,-119.9230,-102.5842,100.0484,120.4579,0.5196,-0.2425,13733.7025,0.2210,0.7065,0.8374,0.1991,0.8611,232.4261,0.0000
10.9000,corner,129.9279,0.1289,1.7158,58.8446,16.3601,-0.0162,4.5857,0.3500,0.0000,0.9000,2,3383.6248,3001.0286,3552.5610,3387.4152,3792.6763,-0.0413,-0.0605,-0.0085,0.0718,-0.6493,-0.6510,-0.4228,-0.4199,-2000.3880,-2942.2148,-591.3871,3255.1146,470.5352,552.1735,303.6033,341.4251,0.1158,-13.0436,6.4382,0.6954,14.7665,-117.2830,-98.8581,96.2565,117.6493,0.6201,-0.2431,13733.6811,0.2289,0.6848,0.8427,0.1962,0.8630,204.4100,0.0000
11.0000,corner,131.5679,0.1831,2.1882,59.1933,16.4563,-0.0226,5.1663,0.3500,0.0000,1.0000,2,3404.7155,2969.0210,3604.2161,3346.8991,3813.5298,-0.0386,-0.0608,-0.0079,0.0719,-0.7297,-0.7318,-0.4957,-0.4918,-1892.6281,-2991.9319,-549.8506,3274.9606,524.7951,630.4266,351.5518,402.2323,0.1328,-14.7090,7.9702,-0.5409,15.8902,-114.5323,-95.0425,92.4122,114.7540,0.7229,-0.2434,13733.6660,0.2370,0.6615,0.8483,0.1950,0.8652,182.5061,0.0000
11.1000,corner,133.2171,0.2515,2.7202,59.5413,16.5523,-0.0295,5.7506,0.3500,0.0000,1.1000,2,3425.8110,2936.7823,3657.2036,3305.2605,3834.4064,-0.0359,-0.0611,-0.0074,0.0720,-0.8119,-0.8144,-0.5702,-0.5652,-1777.8033,-3042.7061,-508.1575,3295.0326,578.5334,711.7309,399.3314,465.0460,0.1502,-16.4049,9.5341,-1.8080,17.0295,-111.6304,-91.0739,88.4279,111.7113,0.8276,-0.2434,13733.6528,0.2455,0.6366,0.8544,0.1955,0.8678,164.9165,0.0000
11.2000,corner,134.8751,0.3360,3.3121,59.8884,16.6479,-0.0371,6.3385,0.3500,0.0000,1.2000,2,3446.8979,2904.3897,3711.5790,3262.4397,3855.2310,-0.0331,-0.0614,-0.0068,0.0722,-0.8959,-0.8988,-0.6462,-0.6400,-1655.0194,-3094.5044,-466.4379,3315.2622,631.6537,796.1432,446.8517,529.8778,0.1679,-18.1321,11.1265,-3.1034,18.1853,-108.5482,-86.9127,84.2542,108.4830,0.9342,-0.2434,13733.6395,0.2542,0.6099,0.8609,0.1980,0.8709,150.4861,0.0000
11.3000,corner,136.5417,0.4383,3.9645,60.2344,16.7432,-0.0451,6.9295,0.3500,0.0000,1.3000,2,3467.9614,2871.9334,3767.4055,3218.3695,3875.9166,-0.0301,-0.0617,-0.0062,0.0723,-0.9818,-0.9851,-0.7239,-0.7162,-1523.2227,-3147.2835,-424.8364,3335.5690,684.0643,883.7220,494.0238,596.7389,0.1859,-19.8909,12.7456,-4.4262,19.3574,-105.2585,-82.5268,79.8538,105.0368,1.0428,-0.2432,13733.6250,0.2634,0.5814,0.8677,0.2025,0.8743,138.4388,0.0000
11.4000,corner,138.2166,0.5605,4.6775,60.5790,16.8381,-0.0538,7.5234,0.3500,0.0000,1.4000,2,3488.9852,2839.5173,3824.7536,3172.9745,3896.3635,-0.0270,-0.0619,-0.0056,0.0725,-1.0695,-1.0732,-0.8031,-0.7938,-1381.2188,-3200.9876,-383.5149,3355.8594,735.6749,974.5222,540.7555,665.6347,0.2043,-21.6812,14.3897,-5.7759,20.5449,-101.7325,-77.8853,75.1928,101.3407,1.1532,-0.2431,13733.6090,0.2729,0.5511,0.8748,0.2089,0.8781,128.2342,0.0000
11.5000,corner,139.8993,0.7044,5.4516,60.9222,16.9325,-0.0631,8.1196,0.3500,0.0000,1.5000,2,3509.9518,2807.2515,3883.6933,3126.1794,3916.4668,-0.0238,-0.0622,-0.0050,0.0726,-1.1592,-1.1633,-0.8840,-0.8729,-1227.7949,-3255.5423,-342.6444,3376.0323,786.3955,1068.5927,586.9512,736.5629,0.2229,-23.5026,16.0574,-7.1524,21.7467,-97.9412,-72.9576,70.2399,97.3642,1.2653,-0.2428,13733.5909,0.2828,0.5194,0.8823,0.2174,0.8823,119.4839,0.0000
11.6000,corner,141.5893,0.8719,6.2835,61.2642,17.0265,-0.0750,8.6111,0.3500,0.0000,1.5000,2,3530.5670,2780.8879,3937.1662,3083.3840,3932.1467,-0.0205,-0.0622,-0.0045,0.0727,-1.1720,-1.1763,-0.9652,-0.9524,-1071.6482,-3301.6972,-307.8303,3391.1861,795.2453,1106.1186,632.8045,808.4400,0.2350,-25.3018,17.6944,-8.5128,22.9224,-92.6221,-69.3725,66.7261,91.8791,1.3757,-0.2426,13733.5849,0.2153,0.4799,0.8844,0.2282,0.8866,113.2900,0.0000
11.7000,corner,143.2861,1.0643,7.1521,61.6055,17.1205,-0.0893,8.8639,0.3500,0.0000,1.5000,2,3550.2611,2768.8441,3970.7969,3055.9744,3938.0120,-0.0179,-0.0618,-0.0041,0.0725,-1.2019,-1.2060,-1.0327,-1.0186,-947.7806,-3321.0616,-286.0379,3392.9297,806.9849,1138.4584,673.5259,869.9707,0.2459,-26.7713,19.0009,-9.6184,23.8609,-85.5670,-69.0959,66.8178,84.8394,1.4648,-0.2425,13733.6273,0.1784,0.4496,0.8841,0.2394,0.8895,110.6664,0.0000
11.8000,corner,144.9893,1.2827,8.0390,61.9460,17.2145,-0.1010,8.9880,0.3500,0.0000,1.5000,2,3569.4376,2764.1622,3992.4618,3037.9481,3939.1081,-0.0159,-0.0613,-0.0039,0.0722,-1.2328,-1.2365,-1.0787,-1.0638,-851.4388,-3325.0086,-270.4875,3387.6051,824.2229,1171.7276,702.3806,912.9272,0.2550,-27.8036,19.8874,-10.3934,24.4991,-79.5306,-69.2382,67.3577,78.8964,1.5264,-0.2426,13733.6802,0.1634,0.4287,0.8830,0.2478,0.8907,109.7377,0.0000
11.9000,corner,146.6984,1.5280,8.9356,62.2861,17.3084,-0.1097,9.0552,0.3500,0.0000,1.5000,2,3588.3876,2762.5386,4008.7155,3024.1640,3938.3026,-0.0142,-0.0606,-0.0037,0.0717,-1.2575,-1.2609,-1.1087,-1.0933,-769.3407,-3322.0586,-257.4939,3379.3098,838.9771,1198.5063,720.9419,940.9209,0.2616,-28.5057,20.4632,-10.9212,24.9142,-74.9795,-68.7069,67.1219,74.4234,1.5674,-0.2428,13733.7207,0.1581,0.4121,0.8810,0.2531,0.8907,109.5171,0.0000
12.0000,corner,148.4128,1.8010,9.8381,62.6260,17.4023,-0.1162,9.0991,0.3500,0.0000,1.5000,2,3607.2493,2762.0747,4022.7173,3012.1414,3936.8132,-0.0127,-0.0599,-0.0035,0.0713,-1.2768,-1.2799,-1.1292,-1.1135,-694.0152,-3316.1555,-245.4757,3369.8445,850.4351,1219.4630,733.0490,959.8476,0.2664,-29.0053,20.8508,-11.2981,25.1939,-71.5438,-67.4748,66.0819,71.0305,1.5959,-0.2430,13733.7467,0.1569,0.3974,0.8783,0.2566,0.8900,109.5800,0.0000
12.1000,corner,150.1320,2.1021,10.7450,62.9659,17.4962,-0.1216,9.1341,0.3500,0.0000,1.5000,2,3626.0845,2761.9546,4035.8095,3000.8386,3935.1602,-0.0112,-0.0592,-0.0033,0.0708,-1.2926,-1.2955,-1.1447,-1.1289,-622.3974,-3308.9739,-233.7638,3359.9757,859.5838,1236.7754,741.6655,973.9971,0.2701,-29.3940,21.1364,-11.5926,25.4003,-68.8017,-65.7746,64.5051,68.3049,1.6177,-0.2431,13733.7630,0.1573,0.3842,0.8753,0.2591,0.8890,109.7492,0.0000
12.2000,corner,151.8556,2.4318,11.6557,63.3057,17.5901,-0.1265,9.1661,0.3500,0.0000,1.5000,2,3644.9205,2761.8060,4048.4708,2989.9005,3933.5969,-0.0099,-0.0585,-0.0031,0.0703,-1.3067,-1.3094,-1.1579,-1.1419,-553.9628,-3301.1720,-222.0555,3350.0469,867.3998,1252.1399,748.5590,985.8565,0.2733,-29.7265,21.3712,-11.8449,25.5705,-66.4690,-63.8344,62.6531,65.9774,1.6359,-0.2433,13733.7743,0.1582,0.3727,0.8721,0.2611,0.8878,109.9533,0.0000
12.3000,corner,153.5830,2.7905,12.5700,63.6457,17.6841,-0.1311,9.1973,0.3500,0.0000,1.5000,2,3663.7705,2761.4250,4060.7980,2979.2773,3932.2842,-0.0086,-0.0579,-0.0029,0.0699,-1.3200,-1.3225,-1.1700,-1.1538,-489.4824,-3292.9845,-210.1843,3340.2410,874.5167,1266.5707,754.6612,996.7104,0.2762,-30.0321,21.5828,-12.0763,25.7248,-64.3950,-61.8234,60.7183,63.9097,1.6526,-0.2435,13733.7845,0.1593,0.3629,0.8688,0.2629,0.8865,110.1655,0.0000
12.4000,corner,155.3137,3.1784,13.4879,63.9857,17.7781,-0.1356,9.2286,0.3500,0.0000,1.5000,2,3682.6419,2760.6742,4072.7393,2969.0358,3931.3462,-0.0075,-0.0572,-0.0027,0.0694,-1.3329,-1.3352,-1.1817,-1.1654,-430.1969,-3284.4875,-198.0383,3330.6793,881.2828,1280.6001,760.4262,1007.1738,0.2791,-30.3251,21.7851,-12.2970,25.8736,-62.5164,-59.8568,58.8286,62.0462,1.6686,-0.2437,13733.7955,0.1605,0.3552,0.8656,0.2647,0.8851,110.3759,0.0000
12.5000,corner,157.0473,3.5960,14.4095,64.3258,17.8722,-0.1401,9.2602,0.3500,0.0000,1.5000,2,3701.5390,2759.4594,4084.2119,2959.2621,3930.8749,-0.0064,-0.0566,-0.0025,0.0689,-1.3457,-1.3478,-1.1932,-1.1767,-377.2263,-3275.7074,-185.5423,3321.4452,887.8713,1294.4847,766.0619,1017.5232,0.2818,-30.6121,21.9851,-12.5113,26.0224,-60.8137,-58.0075,57.0618,60.3701,1.6843,-0.2439,13733.8082,0.1617,0.3496,0.8624,0.2664,0.8837,110.5816,0.0000
12.6000,corner,158.7831,4.0433,15.3345,64.6660,17.9663,-0.1446,9.2921,0.3500,0.0000,1.5000,2,3720.4642,2757.7325,4095.1606,2950.0109,3930.9183,-0.0056,-0.0560,-0.0023,0.0685,-1.3585,-1.3604,-1.2047,-1.1881,-331.1816,-3266.6621,-172.6632,3312.5828,894.3623,1308.3396,771.6578,1027.8751,0.2846,-30.8956,22.1862,-12.7208,26.1737,-59.2818,-56.3153,55.4567,58.8746,1.7000,-0.2442,13733.8222,0.1631,0.3458,0.8593,0.2680,0.8823,110.7819,0.0000
12.7000,corner,160.5206,4.5209,16.2632,65.0062,18.0605,-0.1492,9.3244,0.3500,0.0000,1.5000,2,3739.4174,2755.4940,4105.5792,2941.2874,3931.4761,-0.0048,-0.0554,-0.0021,0.0680,-1.3713,-1.3731,-1.2161,-1.1993,-292.0277,-3257.3709,-159.4126,3304.0942,900.7913,1322.2140,777.2490,1038.2742,0.2873,-31.1768,22.3898,-12.9263,26.3286,-57.9133,-54.7928,54.0216,57.5481,1.7156,-0.2445,13733.8367,0.1645,0.3437,0.8563,0.2698,0.8809,110.9771,0.0000
12.8000,corner,162.2593,5.0289,17.1953,65.3465,18.1547,-0.1538,9.3569,0.3500,0.0000,1.5000,2,3758.3968,2752.7842,4115.5064,2933.0522,3932.5078,-0.0042,-0.0548,-0.0018,0.0676,-1.3843,-1.3858,-1.2275,-1.2106,-259.1886,-3247.8541,-145.8389,3295.9468,907.1742,1336.1284,782.8463,1048.7344,0.2901,-31.4559,22.5965,-13.1280,26.4876,-56.6940,-53.4330,52.7448,56.3714,1.7312,-0.2448,13733.8507,0.1660,0.3427,0.8533,0.2715,0.8795,111.1682,0.0000
12.9000,corner,163.9987,5.5675,18.1310,65.6869,18.2490,-0.1585,9.3896,0.3500,0.0000,1.5000,2,3777.3996,2749.6655,4125.0073,2925.2405,3933.9501,-0.0037,-0.0543,-0.0016,0.0671,-1.3972,-1.3987,-1.2390,-1.2219,-231.7885,-3238.1296,-132.0105,3288.0888,913.5182,1350.0914,788.4508,1059.2571,0.2928,-31.7332,22.8063,-13.3264,26.6503,-55.6042,-52.2175,51.6044,55.3211,1.7469,-0.2452,13733.8634,0.1675,0.3428,0.8505,0.2733,0.8781,111.3561,0.0000
13.0000,corner,165.7381,6.1372,19.0702,66.0273,18.3433,-0.1632,9.4224,0.3500,0.0000,1.5000,2,3796.4227,2746.2057,4134.1541,2917.7802,3935.7345,-0.0032,-0.0537,-0.0013,0.0667,-1.4103,-1.4115,-1.2504,-1.2332,-208.8860,-3228.2119,-118.0001,3280.4630,919.8272,1364.1066,794.0597,1069.8394,0.2955,-32.0090,23.0191,-13.5220,26.8164,-54.6228,-51.1241,50.5763,54.3737,1.7626,-0.2455,13733.8744,0.1691,0.3435,0.8477,0.2751,0.8767,111.5415,0.0000
13.1000,corner,167.4769,6.7380,20.0129,66.3677,18.4376,-0.1680,9.4553,0.3500,0.0000,1.5000,2,3815.4630,2742.4669,4143.0140,2910.6048,3937.7980,-0.0029,-0.0532,-0.0011,0.0662,-1.4234,-1.4245,-1.2619,-1.2446,-189.6230,-3218.1118,-103.8742,3273.0170,926.1034,1378.1758,799.6696,1080.4774,0.2982,-32.2835,23.2345,-13.7153,26.9854,-53.7301,-50.1310,49.6389,53.5088,1.7784,-0.2459,13733.8838,0.1707,0.3447,0.8450,0.2771,0.8753,111.7254,0.0000
13.2000,corner,169.2147,7.3703,20.9591,66.7082,18.5320,-0.1729,9.4882,0.3500,0.0000,1.5000,2,3834.5178,2738.5014,4151.6435,2903.6586,3940.0880,-0.0025,-0.0527,-0.0008,0.0658,-1.4366,-1.4375,-1.2734,-1.2559,-173.2833,-3207.8366,-89.6886,3265.7071,932.3479,1392.2998,805.2773,1091.1676,0.3010,-32.5570,23.4521,-13.9067,27.1569,-52.9093,-49.2196,48.7743,52.7101,1.7941,-0.2463,13733.8916,0.1724,0.3463,0.8423,0.2790,0.8739,111.9083,0.0000
13.3000,corner,170.9507,8.0343,21.9087,67.0488,18.6264,-0.1778,9.5210,0.3500,0.0000,1.5000,2,3853.5850,2734.3508,4160.0878,2896.8969,3942.5625,-0.0023,-0.0522,-0.0006,0.0653,-1.4499,-1.4505,-1.2849,-1.2673,-159.2960,-3197.3917,-75.4886,3258.4983,938.5617,1406.4790,810.8799,1101.9068,0.3037,-32.8298,23.6715,-14.0966,27.3304,-52.1468,-48.3746,47.9684,51.9645,1.8100,-0.2467,13733.8980,0.1741,0.3482,0.8397,0.2811,0.8725,112.0906,0.0000
13.4000,corner,172.6843,8.7301,22.8617,67.3894,18.7208,-0.1828,9.5537,0.3500,0.0000,1.5000,2,3872.6625,2730.0479,4168.3821,2890.2849,3945.1884,-0.0020,-0.0517,-0.0003,0.0649,-1.4631,-1.4637,-1.2964,-1.2787,-147.2143,-3186.7804,-61.3101,3251.3636,944.7450,1420.7134,816.4751,1112.6926,0.3064,-33.1020,23.8926,-14.2853,27.5057,-51.4318,-47.5837,47.2105,51.2624,1.8258,-0.2471,13733.9034,0.1759,0.3502,0.8370,0.2833,0.8711,112.2727,0.0000
13.5000,corner,174.4150,9.4581,23.8181,67.7300,18.8152,-0.1878,9.5864,0.3500,0.0000,1.5000,2,3891.7489,2725.6184,4176.5540,2883.7954,3947.9400,-0.0019,-0.0512,-0.0001,0.0645,-1.4765,-1.4768,-1.3079,-1.2901,-136.6900,-3176.0050,-47.1816,3244.2819,950.8982,1435.0028,822.0613,1123.5230,0.3091,-33.3739,24.1150,-14.4730,27.6824,-50.7557,-46.8374,46.4923,50.5960,1.8417,-0.2476,13733.9078,0.1777,0.3525,0.8345,0.2855,0.8696,112.4550,0.0000
13.6000,corner,176.1421,10.2183,24.7779,68.0707,18.9097,-0.1928,9.6189,0.3500,0.0000,1.5000,2,3910.8429,2721.0822,4184.6247,2877.4075,3950.7972,-0.0017,-0.0507,0.0002,0.0641,-1.4899,-1.4900,-1.3195,-1.3015,-127.4511,-3165.0669,-33.1272,3237.2373,957.0213,1449.3471,827.6369,1134.3963,0.3119,-33.6454,24.3386,-14.6600,27.8603,-50.1120,-46.1284,45.8074,49.9594,1.8576,-0.2480,13733.9116,0.1795,0.3548,0.8319,0.2879,0.8682,112.6375,0.0000
13.7000,corner,177.8649,11.0110,25.7411,68.4114,19.0041,-0.1979,9.6512,0.3500,0.0000,1.5000,2,3929.9433,2716.4551,4192.6109,2871.1046,3953.7442,-0.0015,-0.0502,0.0004,0.0636,-1.5033,-1.5033,-1.3311,-1.3129,-119.2833,-3153.9667,-19.1688,3230.2175,963.1141,1463.7458,833.2006,1145.3112,0.3146,-33.9168,24.5631,-14.8465,28.0394,-49.4956,-45.4507,45.1506,49.3482,1.8735,-0.2484,13733.9148,0.1813,0.3573,0.8293,0.2903,0.8668,112.8205,0.0000
13.8000,corner,179.5829,11.8362,26.7076,68.7521,19.0986,-0.2031,9.6835,0.3500,0.0000,1.5000,2,3949.0492,2711.7497,4200.5258,2864.8738,3956.7683,-0.0014,-0.0497,0.0007,0.0632,-1.5168,-1.5166,-1.3427,-1.3244,-112.0160,-3142.7047,-5.3212,3223.2129,969.1767,1478.1985,838.7515,1156.2665,0.3173,-34.1881,24.7886,-15.0325,28.2193,-48.9022,-44.7998,44.5181,48.7584,1.8894,-0.2489,13733.9176,0.1832,0.3598,0.8268,0.2928,0.8654,113.0040,0.0000
13.9000,corner,181.2953,12.6943,27.6774,69.0928,19.1931,-0.2083,9.7155,0.3500,0.0000,1.5000,2,3968.1596,2706.9765,4208.3799,2858.7046,3959.8591,-0.0013,-0.0492,0.0009,0.0628,-1.5303,-1.5299,-1.3543,-1.3359,-105.5124,-3131.2806,8.4034,3216.2158,975.2086,1492.7047,844.2887,1167.2612,0.3201,-34.4594,25.0149,-15.2181,28.4000,-48.3285,-44.1719,43.9064,48.1872,1.9054,-0.2493,13733.9200,0.1850,0.3624,0.8243,0.2954,0.8640,113.1883,0.0000
14.0000,corner,183.0015,13.5853,28.6505,69.4335,19.2875,-0.2136,9.7474,0.3500,0.0000,1.5000,2,3987.2737,2702.1441,4216.1818,2852.5883,3963.0080,-0.0012,-0.0488,0.0012,0.0624,-1.5439,-1.5433,-1.3659,-1.3474,-99.6613,-3119.6939,21.9950,3209.2200,981.2097,1507.2637,849.8113,1178.2942,0.3228,-34.7306,25.2418,-15.4034,28.5815,-47.7717,-43.5639,43.3130,47.6321,1.9214,-0.2498,13733.9221,0.1869,0.3650,0.8218,0.2980,0.8627,113.3733,0.0000
