time,phase,pos_x,pos_y,yaw_deg,speed_kph,vx_body,vy_body,yaw_rate_dps,throttle,brake,steer_deg,gear,rpm,fz_fl,fz_fr,fz_rl,fz_rr,sr_fl,sr_fr,sr_rl,sr_rr,sa_fl_deg,sa_fr_deg,sa_rl_deg,sa_rr_deg,fx_fl,fx_fr,fx_rl,fx_rr,fy_fl,fy_fr,fy_rl,fy_rr,lat_accel_g,susp_defl_fl_mm,susp_defl_fr_mm,susp_defl_rl_mm,susp_defl_rr_mm,susp_vel_fl,susp_vel_fr,susp_vel_rl,susp_vel_rr,roll_deg,pitch_deg,fz_total,understeer_deg,fc_util_fl,fc_util_fr,fc_util_rl,fc_util_rr,radius_m,yaw_rate_ref_dps
0.0000,accel,0.0000,0.0000,0.0000,0.0000,0.0000,0.0000,0.0000,0.0000,0.0000,0.0000,1,1000.0000,3776.8500,3776.8500,3090.1500,3090.1500,0.0000,0.0000,0.0000,0.0000,0.0000,0.0000,0.0000,0.0000,0.0000,0.0000,0.0000,0.0000,0.0000,0.0000,0.0000,0.0000,0.0000,0.0000,0.0000,0.0000,0.0000,0.0000,0.0000,0.0000,0.0000,0.0000,0.0000,13734.0000,0.0000,0.0000,0.0000,0.0000,0.0000,0.0000,0.0000
0.1000,accel,0.0000,0.0000,0.0000,0.0189,0.0039,0.0000,0.0000,0.0667,0.0000,0.0000,1,1000.0000,3719.9820,3719.9820,3147.1162,3147.1162,0.0008,0.0008,0.0027,0.0027,0.0000,0.0000,0.0000,0.0000,-1.0390,-1.0390,112.8766,112.8766,0.0000,0.0000,0.0000,0.0000,0.0000,-0.1182,-0.1182,0.1926,0.1926,-4.1920,-4.1920,5.1647,5.1647,0.0000,-0.0068,13734.1964,0.0000,0.0003,0.0003,0.0359,0.0359,0.0000,0.0000
0.2000,accel,0.0018,0.0000,0.0000,0.1124,0.0284,0.0000,0.0000,0.1333,0.0000,0.0000,1,1000.0000,3697.7663,3697.7663,3169.3248,3169.3248,0.0008,0.0008,0.0048,0.0048,0.0000,0.0000,0.0000,0.0000,-2.8283,-2.8283,243.5822,243.5822,0.0000,0.0000,0.0000,0.0000,0.0000,-0.6791,-0.6791,0.8528,0.8528,-6.5330,-6.5330,7.4459,7.4459,0.0000,-0.0338,13734.1822,0.0000,0.0008,0.0008,0.0769,0.0769,0.0000,0.0000
0.3000,accel,0.0072,0.0000,0.0000,0.2748,0.0707,0.0000,0.0000,0.2000,0.0000,0.0000,1,1000.0000,3684.7043,3684.7043,3182.2575,3182.2575,0.0007,0.0007,0.0087,0.0087,0.0000,0.0000,0.0000,0.0000,-4.3055,-4.3055,478.3486,478.3486,0.0000,0.0000,0.0000,0.0000,0.0000,-1.3850,-1.3850,1.6275,1.6275,-5.2234,-5.2234,4.8724,4.8724,0.0000,-0.0664,13733.9236,0.0000,0.0012,0.0012,0.1503,0.1503,0.0000,0.0000
0.4000,accel,0.0179,0.0000,0.0000,0.5306,0.1312,0.0000,0.0000,0.2667,0.0000,0.0000,1,1000.0000,3278.2739,3278.2739,3591.1177,3591.1177,-0.0025,-0.0025,0.0258,0.0258,0.0000,0.0000,0.0000,0.0000,-204.1610,-204.1610,1565.0407,1565.0407,0.0000,0.0000,0.0000,0.0000,0.0000,-1.0208,-1.0208,3.6962,3.6962,-123.9473,-123.9473,147.7287,147.7287,0.0000,-0.1039,13738.7832,0.0000,0.0623,0.0623,0.4358,0.4358,0.0000,0.0000
0.5000,accel,0.0353,0.0000,0.0000,0.6907,0.2317,0.0000,0.0000,0.3333,0.0000,0.0000,1,1000.0000,3259.0582,3259.0582,3608.4737,3608.4737,0.0055,0.0055,-0.2027,-0.2027,0.0000,0.0000,0.0000,0.0000,291.4023,291.4023,-3640.9909,-3640.9909,0.0000,0.0000,0.0000,0.0000,0.0000,-1.8868,-1.8868,6.2707,6.2707,-123.2522,-123.2522,128.9264,128.9264,0.0000,-0.1798,13735.0638,0.0000,0.0894,0.0894,1.0090,1.0090,0.0000,0.0000
0.6000,accel,0.0628,0.0000,0.0000,1.2293,0.3008,0.0000,0.0000,0.4000,0.0000,0.0000,1,1000.0000,3809.2668,3809.2668,3055.4634,3055.4634,0.0843,0.0843,0.0010,0.0010,0.0000,0.0000,0.0000,0.0000,3408.3640,3408.3640,11.9693,11.9693,0.0000,0.0000,0.0000,0.0000,0.0000,-1.3710,-1.3710,6.0324,6.0324,42.3724,42.3724,-64.2108,-64.2108,0.0000,-0.1631,13729.4604,0.0000,0.8948,0.8948,0.0039,0.0039,0.0000,0.0000
0.7000,accel,0.1006,0.0000,0.0000,1.6848,0.4535,0.0000,0.0000,0.4667,0.0000,0.0000,1,1000.0000,2579.2996,2579.2996,4293.6214,4293.6214,-0.6208,-0.6208,0.0824,0.0824,0.0000,0.0000,0.0000,0.0000,-2551.4480,-2551.4480,3770.5324,3770.5324,0.0000,0.0000,0.0000,0.0000,0.0000,-2.8279,-2.8279,9.6054,9.6054,-310.7466,-310.7466,369.6387,369.6387,0.0000,-0.2740,13745.8420,0.0000,0.9892,0.9892,0.8782,0.8782,0.0000,0.0000
0.8000,accel,0.1504,0.0000,0.0000,2.0935,0.5065,0.0000,0.0000,0.5333,0.0000,0.0000,1,1000.0000,4808.4747,4808.4747,2065.1683,2065.1683,0.0915,0.0915,0.7143,0.7143,0.0000,0.0000,0.0000,0.0000,4291.3421,4291.3421,2007.1624,2007.1624,0.0000,0.0000,0.0000,0.0000,0.0000,0.2320,0.2320,7.8182,7.8182,426.0258,426.0258,-359.9074,-359.9074,0.0000,-0.1672,13747.2859,0.0000,0.8925,0.8925,0.9719,0.9719,0.0000,0.0000
0.9000,accel,0.2145,0.0000,0.0000,2.5438,0.7042,0.0000,0.0000,0.6000,0.0000,0.0000,1,1000.0000,3597.1320,3597.1320,3264.0953,3264.0953,0.3006,0.3006,-0.1202,-0.1202,0.0000,0.0000,0.0000,0.0000,3475.1266,3475.1266,-3268.9154,-3268.9154,0.0000,0.0000,0.0000,0.0000,0.0000,-2.8679,-2.8679,10.4733,10.4733,-19.6519,-19.6519,-36.3221,-36.3221,0.0000,-0.2940,13722.4544,0.0000,0.9661,0.9661,1.0015,1.0015,0.0000,0.0000
1.0000,accel,0.2945,0.0000,0.0000,2.9927,0.9136,0.0000,0.0000,0.6667,0.0000,0.0000,1,1000.0000,2578.0598,2578.0598,4293.8857,4293.8857,-0.2711,-0.2711,-0.1459,-0.1459,0.0000,0.0000,0.0000,0.0000,-2665.4375,-2665.4375,-4245.1321,-4245.1321,0.0000,0.0000,0.0000,0.0000,0.0000,-5.8721,-5.8721,12.7132,12.7132,-289.3565,-289.3565,338.6660,338.6660,0.0000,-0.4096,13743.8910,0.0000,1.0339,1.0339,0.9886,0.9886,0.0000,0.0000
1.1000,accel,0.3929,0.0000,0.0000,3.8949,1.0819,0.0000,0.0000,0.7333,0.0000,0.0000,1,1000.0000,2919.2784,2919.2784,3948.0755,3948.0755,-0.1904,-0.1904,0.0568,0.0568,0.0000,0.0000,0.0000,0.0000,-3010.1150,-3010.1150,3009.1388,3009.1388,0.0000,0.0000,0.0000,0.0000,0.0000,-5.8483,-5.8483,13.1221,13.1221,-192.0357,-192.0357,196.2533,196.2533,0.0000,-0.4180,13734.7077,0.0000,1.0311,1.0311,0.7622,0.7622,0.0000,0.0000
1.2000,accel,0.5119,0.0000,0.0000,4.7937,1.2521,0.0000,0.0000,0.8000,0.0000,0.0000,1,1000.0000,3536.1271,3536.1271,3325.5780,3325.5780,0.2683,0.2683,0.3039,0.3039,0.0000,0.0000,0.0000,0.0000,3439.3071,3439.3071,3236.8662,3236.8662,0.0000,0.0000,0.0000,0.0000,0.0000,-5.4282,-5.4282,12.4041,12.4041,-18.7934,-18.7934,-32.5471,-32.5471,0.0000,-0.3930,13723.4102,0.0000,0.9726,0.9726,0.9733,0.9733,0.0000,0.0000
1.3000,accel,0.6530,0.0000,0.0000,5.4139,1.5112,0.0000,0.0000,0.8667,0.0000,0.0000,1,1212.0501,3728.1080,3728.1080,3136.0776,3136.0776,-0.5218,-0.5218,0.5229,0.5229,0.0000,0.0000,0.0000,0.0000,-3594.2867,-3594.2867,2980.9520,2980.9520,0.0000,0.0000,0.0000,0.0000,0.0000,-7.6114,-7.6114,14.1712,14.1712,72.3132,72.3132,-99.3123,-99.3123,0.0000,-0.4800,13728.3712,0.0000,0.9641,0.9641,0.9505,0.9505,0.0000,0.0000
1.4000,accel,0.8192,0.0000,0.0000,6.5119,1.7759,0.0000,0.0000,0.9333,0.0000,0.0000,1,1000.0000,3496.1608,3496.1608,3365.3497,3365.3497,0.0639,0.0639,-0.0006,-0.0006,0.0000,0.0000,0.0000,0.0000,2855.7552,2855.7552,-88.9236,-88.9236,0.0000,0.0000,0.0000,0.0000,0.0000,-8.7438,-8.7438,15.9760,15.9760,-6.5300,-6.5300,-46.6975,-46.6975,0.0000,-0.5447,13723.0209,0.0000,0.8168,0.8168,0.0264,0.0264,0.0000,0.0000
1.5000,accel,1.0127,0.0000,0.0000,7.5052,2.1054,0.0000,0.0000,1.0000,0.0000,0.0000,1,1000.0000,3474.7249,3474.7249,3387.2280,3387.2280,0.0282,0.0282,-0.3344,-0.3344,0.0000,0.0000,0.0000,0.0000,1642.6374,1642.6374,-3376.9997,-3376.9997,0.0000,0.0000,0.0000,0.0000,0.0000,-11.7250,-11.7250,18.8515,18.8515,12.0959,12.0959,-60.9858,-60.9858,0.0000,-0.6738,13723.9057,0.0000,0.4727,0.4727,0.9970,0.9970,0.0000,0.0000
1.6000,accel,1.2390,0.0000,0.0000,8.4547,2.4255,0.0000,0.0000,1.0000,0.0000,0.0000,1,1000.0000,2723.1132,2723.1132,4145.3126,4145.3126,-0.4220,-0.4220,-0.0783,-0.0783,0.0000,0.0000,0.0000,0.0000,-2740.5970,-2740.5970,-3721.0153,-3721.0153,0.0000,0.0000,0.0000,0.0000,0.0000,-13.0147,-13.0147,19.4802,19.4802,-196.8944,-196.8944,211.5671,211.5671,0.0000,-0.7161,13736.8516,0.0000,1.0064,1.0064,0.8976,0.8976,0.0000,0.0000
1.7000,accel,1.4992,0.0000,0.0000,10.0304,2.7686,0.0000,0.0000,1.0000,0.0000,0.0000,1,1475.6158,2599.5464,2599.5464,4269.3649,4269.3649,-0.6830,-0.6830,0.3250,0.3250,0.0000,0.0000,0.0000,0.0000,-2553.7517,-2553.7517,4038.2068,4038.2068,0.0000,0.0000,0.0000,0.0000,0.0000,-13.7134,-13.7134,20.9262,20.9262,-227.2083,-227.2083,246.7284,246.7284,0.0000,-0.7633,13737.8224,0.0000,0.9824,0.9824,0.9459,0.9459,0.0000,0.0000
1.8000,accel,1.7920,0.0000,0.0000,11.1130,3.0087,0.0000,0.0000,1.0000,0.0000,0.0000,1,2468.5278,3707.5507,3707.5507,3156.9024,3156.9024,0.2602,0.2602,0.5671,0.5671,0.0000,0.0000,0.0000,0.0000,3593.1658,3593.1658,2983.7705,2983.7705,0.0000,0.0000,0.0000,0.0000,0.0000,-10.3360,-10.3360,17.2937,17.2937,91.3364,91.3364,-115.6655,-115.6655,0.0000,-0.6089,13728.9062,0.0000,0.9691,0.9691,0.9452,0.9452,0.0000,0.0000
1.9000,accel,2.1259,0.0000,0.0000,12.8351,3.5195,0.0000,0.0000,1.0000,0.0000,0.0000,1,1535.7555,3512.1744,3512.1744,3352.6057,3352.6057,0.0090,0.0090,0.1832,0.1832,0.0000,0.0000,0.0000,0.0000,538.0314,538.0314,3310.2456,3310.2456,0.0000,0.0000,0.0000,0.0000,0.0000,-16.6754,-16.6754,22.6203,22.6203,76.5801,76.5801,-97.7976,-97.7976,0.0000,-0.8660,13729.5602,0.0000,0.1532,0.1532,0.9874,0.9874,0.0000,0.0000
2.0000,accel,2.5003,0.0000,0.0000,14.2358,3.8780,0.0000,0.0000,1.0000,0.0000,0.0000,1,1841.0746,3709.0035,3709.0035,3158.2519,3158.2519,0.0824,0.0824,0.2509,0.2509,0.0000,0.0000,0.0000,0.0000,3306.4925,3306.4925,3115.3963,3115.3963,0.0000,0.0000,0.0000,0.0000,0.0000,-15.5595,-15.5595,20.9083,20.9083,144.1528,144.1528,-141.0984,-141.0984,0.0000,-0.8036,13734.5109,0.0000,0.8915,0.8915,0.9864,0.9864,0.0000,0.0000
2.1000,accel,2.9116,0.0000,0.0000,15.4028,4.2411,0.0000,0.0000,1.0000,0.0000,0.0000,1,2567.9274,3527.7074,3527.7074,3336.1157,3336.1157,0.0001,0.0001,0.4143,0.4143,0.0000,0.0000,0.0000,0.0000,-45.3164,-45.3164,3194.2890,3194.2890,0.0000,0.0000,0.0000,0.0000,0.0000,-14.3315,-14.3315,20.8578,20.8578,59.3539,59.3539,-89.9199,-89.9199,0.0000,-0.7755,13727.6462,0.0000,0.0128,0.0128,0.9575,0.9575,0.0000,0.0000
2.2000,accel,3.3668,0.0000,0.0000,17.2512,4.7362,0.0000,0.0000,1.0000,0.0000,0.0000,1,1950.7034,3496.1304,3496.1304,3369.1542,3369.1542,0.0233,0.0233,0.1387,0.1387,0.0000,0.0000,0.0000,0.0000,1393.6797,1393.6797,3301.4905,3301.4905,0.0000,0.0000,0.0000,0.0000,0.0000,-18.2114,-18.2114,23.8443,23.8443,85.5221,85.5221,-101.8123,-101.8123,0.0000,-0.9268,13730.5692,0.0000,0.3986,0.3986,0.9799,0.9799,0.0000,0.0000
2.3000,accel,3.8659,0.0000,0.0000,18.6932,5.1159,0.0000,0.0000,1.0000,0.0000,0.0000,1,2334.9170,3687.1839,3687.1839,3180.3004,3180.3004,0.0828,0.0828,0.2231,0.2231,0.0000,0.0000,0.0000,0.0000,3293.9557,3293.9557,3146.9381,3146.9381,0.0000,0.0000,0.0000,0.0000,0.0000,-16.4507,-16.4507,21.5052,21.5052,144.3366,144.3366,-139.0630,-139.0630,0.0000,-0.8364,13734.9685,0.0000,0.8934,0.8934,0.9895,0.9895,0.0000,0.0000
2.4000,accel,4.4070,0.0000,0.0000,20.1856,5.5621,0.0000,0.0000,1.0000,0.0000,0.0000,1,1998.6905,3537.6997,3537.6997,3328.4671,3328.4671,0.0686,0.0686,0.0139,0.0139,0.0000,0.0000,0.0000,0.0000,2974.2598,2974.2598,813.3050,813.3050,0.0000,0.0000,0.0000,0.0000,0.0000,-17.5083,-17.5083,22.3574,22.3574,95.1185,95.1185,-102.8166,-102.8166,0.0000,-0.8785,13732.3335,0.0000,0.8407,0.8407,0.2443,0.2443,0.0000,0.0000
2.5000,accel,4.9907,0.0000,0.0000,21.7895,5.9915,0.0000,0.0000,1.0000,0.0000,0.0000,1,2225.3036,3612.9021,3612.9021,3254.1652,3254.1652,0.0621,0.0621,0.0459,0.0459,0.0000,0.0000,0.0000,0.0000,2904.2936,2904.2936,2236.9083,2236.9083,0.0000,0.0000,0.0000,0.0000,0.0000,-17.6915,-17.6915,22.6130,22.6130,127.0321,127.0321,-125.8712,-125.8712,0.0000,-0.8882,13734.1345,0.0000,0.8039,0.8039,0.6874,0.6874,0.0000,0.0000
2.6000,accel,5.6187,0.0000,0.0000,23.4078,6.4336,0.0000,0.0000,1.0000,0.0000,0.0000,1,2450.9244,3608.9271,3608.9271,3258.0775,3258.0775,0.0666,0.0666,0.0699,0.0699,0.0000,0.0000,0.0000,0.0000,2990.9510,2990.9510,2782.3247,2782.3247,0.0000,0.0000,0.0000,0.0000,0.0000,-17.9223,-17.9223,22.9545,22.9545,127.7503,127.7503,-127.1931,-127.1931,0.0000,-0.9008,13734.0093,0.0000,0.8288,0.8288,0.8540,0.8540,0.0000,0.0000
2.7000,accel,6.2924,0.0000,0.0000,25.0923,6.8960,0.0000,0.0000,1.0000,0.0000,0.0000,1,2678.6780,3610.2665,3610.2665,3256.8456,3256.8456,0.0837,0.0837,0.0878,0.0878,0.0000,0.0000,0.0000,0.0000,3241.2971,3241.2971,2993.4462,2993.4462,0.0000,0.0000,0.0000,0.0000,0.0000,-18.5214,-18.5214,23.6695,23.6695,134.2770,134.2770,-132.6521,-132.6521,0.0000,-0.9298,13734.2242,0.0000,0.8978,0.8978,0.9191,0.9191,0.0000,0.0000
2.8000,accel,7.0141,0.0000,0.0000,26.8577,7.3836,0.0000,0.0000,1.0000,0.0000,0.0000,1,2989.6526,3586.8824,3586.8824,3280.1510,3280.1510,0.0884,0.0884,0.1249,0.1249,0.0000,0.0000,0.0000,0.0000,3270.5746,3270.5746,3197.4824,3197.4824,0.0000,0.0000,0.0000,0.0000,0.0000,-19.4049,-19.4049,24.6363,24.6363,133.7583,133.7583,-132.8988,-132.8988,0.0000,-0.9705,13734.0667,0.0000,0.9118,0.9118,0.9748,0.9748,0.0000,0.0000
2.9000,accel,7.7860,0.0000,0.0000,28.6842,7.8918,0.0000,0.0000,1.0000,0.0000,0.0000,1,3623.5005,3571.2198,3571.2198,3295.8429,3295.8429,0.0786,0.0786,0.2283,0.2283,0.0000,0.0000,0.0000,0.0000,3149.8966,3149.8966,3247.3209,3247.3209,0.0000,0.0000,0.0000,0.0000,0.0000,-20.2961,-20.2961,25.5931,25.5931,136.4050,136.4050,-135.2497,-135.2497,0.0000,-1.0113,13734.1256,0.0000,0.8820,0.8820,0.9853,0.9853,0.0000,0.0000
3.0000,accel,8.6082,0.0000,0.0000,30.4684,8.3901,0.0000,0.0000,1.0000,0.0000,0.0000,1,5419.8278,3591.9956,3591.9956,3275.2901,3275.2901,0.0708,0.0708,0.4515,0.4515,0.0000,0.0000,0.0000,0.0000,3053.2949,3053.2949,3126.6043,3126.6043,0.0000,0.0000,0.0000,0.0000,0.0000,-20.3612,-20.3612,25.7179,25.7179,145.3659,145.3659,-142.0139,-142.0139,0.0000,-1.0154,13734.5713,0.0000,0.8500,0.8500,0.9546,0.9546,0.0000,0.0000
3.1000,accel,9.4792,0.0000,0.0000,32.2094,8.8753,0.0000,0.0000,1.0000,0.0000,0.0000,2,3258.9026,3592.8446,3592.8446,3274.3393,3274.3393,0.0638,0.0638,0.4556,0.4556,0.0000,0.0000,0.0000,0.0000,2924.0418,2924.0418,3124.1875,3124.1875,0.0000,0.0000,0.0000,0.0000,0.0000,-20.0814,-20.0814,25.4752,25.4752,142.9080,142.9080,-140.5518,-140.5518,0.0000,-1.0039,13734.3679,0.0000,0.8139,0.8139,0.9541,0.9541,0.0000,0.0000
3.2000,accel,10.3815,0.0000,0.0000,32.5072,9.0222,0.0000,0.0000,1.0000,0.0000,0.0000,2,1618.1314,3863.5175,3863.5175,3003.6766,3003.6766,0.1049,0.1049,-0.1028,-0.1028,0.0000,0.0000,0.0000,0.0000,3622.2843,3622.2843,-2969.2396,-2969.2396,0.0000,0.0000,0.0000,0.0000,0.0000,-9.8577,-9.8577,15.4761,15.4761,148.9397,148.9397,-146.4614,-146.4614,0.0000,-0.5583,13734.3881,0.0000,0.9376,0.9376,0.9885,0.9885,0.0000,0.0000
3.3000,accel,11.2843,0.0000,0.0000,32.6420,9.0196,0.0000,0.0000,1.0000,0.0000,0.0000,2,1817.3607,3854.9262,3854.9262,3011.4921,3011.4921,0.1046,0.1046,0.0078,0.0078,0.0000,0.0000,0.0000,0.0000,3612.8589,3612.8589,405.8265,405.8265,0.0000,0.0000,0.0000,0.0000,0.0000,-3.5105,-3.5105,7.5122,7.5122,82.0319,82.0319,-87.3438,-87.3438,0.0000,-0.2429,13732.8365,0.0000,0.9372,0.9372,0.1348,0.1348,0.0000,0.0000
3.4000,accel,12.2015,0.0000,0.0000,33.4770,9.2316,0.0000,0.0000,1.0000,0.0000,0.0000,2,2042.7492,4225.1960,4225.1960,2645.2562,2645.2562,0.0553,0.0553,0.0966,0.0966,0.0000,0.0000,0.0000,0.0000,3156.1357,3156.1357,2538.0479,2538.0479,0.0000,0.0000,0.0000,0.0000,0.0000,-5.2330,-5.2330,10.4408,10.4408,247.3648,247.3648,-212.9009,-212.9009,0.0000,-0.3454,13740.9043,0.0000,0.7470,0.7470,0.9595,0.9595,0.0000,0.0000
3.5000,accel,13.1408,0.0000,0.0000,34.1990,9.4714,0.0000,0.0000,1.0000,0.0000,0.0000,2,1866.5106,3799.5291,3799.5291,3066.2262,3066.2262,0.0738,0.0738,-0.0142,-0.0142,0.0000,0.0000,0.0000,0.0000,3260.9522,3260.9522,-863.0354,-863.0354,0.0000,0.0000,0.0000,0.0000,0.0000,-7.0428,-7.0428,12.4371,12.4371,95.1958,95.1958,-106.8829,-106.8829,0.0000,-0.4293,13731.5107,0.0000,0.8583,0.8583,0.2815,0.2815,0.0000,0.0000
3.6000,accel,14.1030,0.0000,0.0000,35.0603,9.6942,0.0000,0.0000,1.0000,0.0000,0.0000,2,1974.3179,3948.2059,3948.2059,2919.4449,2919.4449,0.0509,0.0509,0.0184,0.0184,0.0000,0.0000,0.0000,0.0000,2834.3934,2834.3934,952.2268,952.2268,0.0000,0.0000,0.0000,0.0000,0.0000,-7.4023,-7.4023,12.7867,12.7867,158.2618,158.2618,-151.3177,-151.3177,0.0000,-0.4449,13735.3015,0.0000,0.7179,0.7179,0.3262,0.3262,0.0000,0.0000
3.7000,accel,15.0876,0.0000,0.0000,35.8304,9.9248,0.0000,0.0000,1.0000,0.0000,0.0000,2,1965.3298,3807.1533,3807.1533,3059.3539,3059.3539,0.0593,0.0593,-0.0094,-0.0094,0.0000,0.0000,0.0000,0.0000,2976.9631,2976.9631,-595.1175,-595.1175,0.0000,0.0000,0.0000,0.0000,0.0000,-8.0477,-8.0477,12.9680,12.9680,108.2944,108.2944,-112.6390,-112.6390,0.0000,-0.4631,13733.0143,0.0000,0.7819,0.7819,0.1945,0.1945,0.0000,0.0000
3.8000,accel,16.0951,0.0000,0.0000,36.6894,10.1500,0.0000,0.0000,1.0000,0.0000,0.0000,2,2043.0632,3721.9041,3721.9041,3144.2768,3144.2768,0.0704,0.0704,0.0068,0.0068,0.0000,0.0000,0.0000,0.0000,3145.3042,3145.3042,362.5355,362.5355,0.0000,0.0000,0.0000,0.0000,0.0000,-8.4668,-8.4668,12.6375,12.6375,78.3859,78.3859,-86.0146,-86.0146,0.0000,-0.4651,13732.3617,0.0000,0.8451,0.8451,0.1153,0.1153,0.0000,0.0000
3.9000,accel,17.1258,0.0000,0.0000,37.5620,10.3785,0.0000,0.0000,1.0000,0.0000,0.0000,2,2133.4859,3734.2811,3734.2811,3132.2937,3132.2937,0.0737,0.0737,0.0275,0.0275,0.0000,0.0000,0.0000,0.0000,3208.3689,3208.3689,1465.1840,1465.1840,0.0000,0.0000,0.0000,0.0000,0.0000,-8.5977,-8.5977,12.4964,12.4964,84.6458,84.6458,-88.4302,-88.4302,0.0000,-0.4648,13733.1494,0.0000,0.8592,0.8592,0.4678,0.4678,0.0000,0.0000
4.0000,accel,18.1800,0.0000,0.0000,38.3735,10.6233,0.0000,0.0000,1.0000,0.0000,0.0000,2,2129.9705,3830.3562,3830.3562,3037.3054,3037.3054,0.0566,0.0566,0.0029,0.0029,0.0000,0.0000,0.0000,0.0000,2924.1272,2924.1272,125.9843,125.9843,0.0000,0.0000,0.0000,0.0000,0.0000,-8.9656,-8.9656,13.0930,13.0930,126.7548,126.7548,-119.8314,-119.8314,0.0000,-0.4861,13735.3233,0.0000,0.7634,0.7634,0.0415,0.0415,0.0000,0.0000
4.1000,accel,19.2580,0.0000,0.0000,39.2259,10.8630,0.0000,0.0000,1.0000,0.0000,0.0000,2,2168.6177,3780.0280,3780.0280,3087.2328,3087.2328,0.0585,0.0585,-0.0014,-0.0014,0.0000,0.0000,0.0000,0.0000,2938.5042,2938.5042,-128.1275,-128.1275,0.0000,0.0000,0.0000,0.0000,0.0000,-9.2241,-9.2241,13.1876,13.1876,109.2083,109.2083,-106.2420,-106.2420,0.0000,-0.4939,13734.5216,0.0000,0.7774,0.7774,0.0415,0.0415,0.0000,0.0000
4.2000,accel,20.3601,0.0000,0.0000,40.1000,11.1046,0.0000,0.0000,1.0000,0.0000,0.0000,2,2220.8667,3764.5590,3764.5590,3102.5559,3102.5559,0.0587,0.0587,0.0004,0.0004,0.0000,0.0000,0.0000,0.0000,2931.9081,2931.9081,-21.1369,-21.1369,0.0000,0.0000,0.0000,0.0000,0.0000,-9.3537,-9.3537,13.3166,13.3166,104.3169,104.3169,-102.7854,-102.7854,0.0000,-0.4996,13734.2297,0.0000,0.7788,0.7788,0.0068,0.0068,0.0000,0.0000
4.3000,accel,21.4866,0.0000,0.0000,40.9863,11.3490,0.0000,0.0000,1.0000,0.0000,0.0000,2,2275.7420,3754.3399,3754.3399,3112.7139,3112.7139,0.0586,0.0586,0.0031,0.0031,0.0000,0.0000,0.0000,0.0000,2924.1626,2924.1626,135.6781,135.6781,0.0000,0.0000,0.0000,0.0000,0.0000,-9.4934,-9.4934,13.4307,13.4307,101.6261,101.6261,-100.6980,-100.6980,0.0000,-0.5052,13734.1074,0.0000,0.7789,0.7789,0.0436,0.0436,0.0000,0.0000
4.4000,accel,22.6378,0.0000,0.0000,41.8842,11.5963,0.0000,0.0000,1.0000,0.0000,0.0000,2,2332.7581,3744.0910,3744.0910,3122.9060,3122.9060,0.0587,0.0587,0.0062,0.0062,0.0000,0.0000,0.0000,0.0000,2919.1723,2919.1723,324.8507,324.8507,0.0000,0.0000,0.0000,0.0000,0.0000,-9.6313,-9.6313,13.5359,13.5359,98.9051,98.9051,-98.5376,-98.5376,0.0000,-0.5105,13733.9940,0.0000,0.7797,0.7797,0.1040,0.1040,0.0000,0.0000
4.5000,accel,23.8140,0.0000,0.0000,42.7932,11.8465,0.0000,0.0000,1.0000,0.0000,0.0000,2,2391.2840,3737.2139,3737.2139,3129.7503,3129.7503,0.0586,0.0586,0.0096,0.0096,0.0000,0.0000,0.0000,0.0000,2910.3762,2910.3762,524.8878,524.8878,0.0000,0.0000,0.0000,0.0000,0.0000,-9.7593,-9.7593,13.6492,13.6492,97.4345,97.4345,-97.3912,-97.3912,0.0000,-0.5158,13733.9284,0.0000,0.7788,0.7788,0.1677,0.1677,0.0000,0.0000
4.6000,accel,25.0155,0.0000,0.0000,43.7115,12.1001,0.0000,0.0000,1.0000,0.0000,0.0000,2,2448.9189,3735.5055,3735.5055,3131.4560,3131.4560,0.0577,0.0577,0.0122,0.0122,0.0000,0.0000,0.0000,0.0000,2887.5481,2887.5481,674.8477,674.8477,0.0000,0.0000,0.0000,0.0000,0.0000,-9.8800,-9.8800,13.7940,13.7940,97.9578,97.9578,-97.9383,-97.9383,0.0000,-0.5217,13733.9231,0.0000,0.7730,0.7730,0.2155,0.2155,0.0000,0.0000
4.7000,accel,26.2426,0.0000,0.0000,44.6394,12.3570,0.0000,0.0000,1.0000,0.0000,0.0000,2,2505.6643,3736.8585,3736.8585,3130.1125,3130.1125,0.0563,0.0563,0.0141,0.0141,0.0000,0.0000,0.0000,0.0000,2852.0320,2852.0320,779.7873,779.7873,0.0000,0.0000,0.0000,0.0000,0.0000,-9.9973,-9.9973,13.9664,13.9664,99.6726,99.6726,-99.5535,-99.5535,0.0000,-0.5281,13733.9422,0.0000,0.7632,0.7632,0.2491,0.2491,0.0000,0.0000
4.8000,accel,27.4956,0.0000,0.0000,45.5781,12.6171,0.0000,0.0000,1.0000,0.0000,0.0000,2,2563.0077,3738.6509,3738.6509,3128.3250,3128.3250,0.0548,0.0548,0.0159,0.0159,0.0000,0.0000,0.0000,0.0000,2811.7047,2811.7047,877.0552,877.0552,0.0000,0.0000,0.0000,0.0000,0.0000,-10.1126,-10.1126,14.1492,14.1492,101.5426,101.5426,-101.3697,-101.3697,0.0000,-0.5347,13733.9517,0.0000,0.7521,0.7521,0.2804,0.2804,0.0000,0.0000
4.9000,accel,28.7748,0.0000,0.0000,46.5281,12.8804,0.0000,0.0000,1.0000,0.0000,0.0000,2,2621.2965,3740.0485,3740.0485,3126.9258,3126.9258,0.0532,0.0532,0.0177,0.0177,0.0000,0.0000,0.0000,0.0000,2768.8626,2768.8626,974.2879,974.2879,0.0000,0.0000,0.0000,0.0000,0.0000,-10.2293,-10.2293,14.3360,14.3360,103.2681,103.2681,-103.1041,-103.1041,0.0000,-0.5413,13733.9485,0.0000,0.7403,0.7403,0.3116,0.3116,0.0000,0.0000
5.0000,accel,30.0806,0.0000,0.0000,47.4895,13.1469,0.0000,0.0000,1.0000,0.0000,0.0000,2,2680.5093,3740.7292,3740.7292,3126.2384,3126.2384,0.0517,0.0517,0.0195,0.0195,0.0000,0.0000,0.0000,0.0000,2723.6559,2723.6559,1070.4882,1070.4882,0.0000,0.0000,0.0000,0.0000,0.0000,-10.3507,-10.3507,14.5247,14.5247,104.7543,104.7543,-104.6486,-104.6486,0.0000,-0.5482,13733.9352,0.0000,0.7281,0.7281,0.3424,0.3424,0.0000,0.0000
5.1000,accel,31.4132,0.0000,0.0000,48.4625,13.4166,0.0000,0.0000,1.0000,0.0000,0.0000,2,2740.5870,3740.3981,3740.3981,3126.5586,3126.5586,0.0501,0.0501,0.0213,0.0213,0.0000,0.0000,0.0000,0.0000,2676.0316,2676.0316,1164.1172,1164.1172,0.0000,0.0000,0.0000,0.0000,0.0000,-10.4797,-10.4797,14.7138,14.7138,105.9122,105.9122,-105.9077,-105.9077,0.0000,-0.5552,13733.9134,0.0000,0.7154,0.7154,0.3723,0.3723,0.0000,0.0000
5.2000,accel,32.7731,0.0000,0.0000,49.4473,13.6897,0.0000,0.0000,1.0000,0.0000,0.0000,2,2801.4658,3738.7939,3738.7939,3128.1482,3128.1482,0.0486,0.0486,0.0231,0.0231,0.0000,0.0000,0.0000,0.0000,2625.8821,2625.8821,1253.8728,1253.8728,0.0000,0.0000,0.0000,0.0000,0.0000,-10.6189,-10.6189,14.9019,14.9019,106.6626,106.6626,-106.7967,-106.7967,0.0000,-0.5624,13733.8842,0.0000,0.7023,0.7023,0.4008,0.4008,0.0000,0.0000
5.3000,accel,34.1604,0.0000,0.0000,50.4439,13.9662,0.0000,0.0000,1.0000,0.0000,0.0000,2,2863.0930,3735.7275,3735.7275,3131.1971,3131.1971,0.0471,0.0471,0.0248,0.0248,0.0000,0.0000,0.0000,0.0000,2573.0276,2573.0276,1338.9292,1338.9292,0.0000,0.0000,0.0000,0.0000,0.0000,-10.7704,-10.7704,15.0877,15.0877,106.9506,106.9506,-107.2527,-107.2527,0.0000,-0.5698,13733.8493,0.0000,0.6888,0.6888,0.4276,0.4276,0.0000,0.0000
5.4000,accel,35.5757,0.0000,0.0000,51.4528,14.2461,0.0000,0.0000,1.0000,0.0000,0.0000,2,2925.4378,3731.0974,3731.0974,3135.8080,3135.8080,0.0456,0.0456,0.0265,0.0265,0.0000,0.0000,0.0000,0.0000,2517.2078,2517.2078,1419.0124,1419.0124,0.0000,0.0000,0.0000,0.0000,0.0000,-10.9355,-10.9355,15.2702,15.2702,106.7497,106.7497,-107.2395,-107.2395,0.0000,-0.5775,13733.8107,0.0000,0.6747,0.6747,0.4525,0.4525,0.0000,0.0000
5.5000,accel,37.0191,0.0000,0.0000,52.4723,14.5294,0.0000,0.0000,1.0000,0.0000,0.0000,2,2987.2398,3724.0683,3724.0683,3142.8106,3142.8106,0.0441,0.0441,0.0277,0.0277,0.0000,0.0000,0.0000,0.0000,2459.9617,2459.9617,1476.9203,1476.9203,0.0000,0.0000,0.0000,0.0000,0.0000,-11.1096,-11.1096,15.4370,15.4370,105.6794,105.6794,-106.4302,-106.4302,0.0000,-0.5850,13733.7578,0.0000,0.6606,0.6606,0.4699,0.4699,0.0000,0.0000
5.6000,accel,38.4910,0.0000,0.0000,53.5009,14.8152,0.0000,0.0000,1.0000,0.0000,0.0000,2,3049.6557,3717.1948,3717.1948,3149.6769,3149.6769,0.0426,0.0426,0.0288,0.0288,0.0000,0.0000,0.0000,0.0000,2400.3131,2400.3131,1532.6989,1532.6989,0.0000,0.0000,0.0000,0.0000,0.0000,-11.2791,-11.2791,15.5745,15.5745,104.6253,104.6253,-105.4501,-105.4501,0.0000,-0.5918,13733.7434,0.0000,0.6457,0.6457,0.4866,0.4866,0.0000,0.0000
5.7000,accel,39.9916,0.0000,0.0000,54.5369,15.1031,0.0000,0.0000,1.0000,0.0000,0.0000,2,3112.5670,3710.0938,3710.0938,3156.7717,3156.7717,0.0411,0.0411,0.0300,0.0300,0.0000,0.0000,0.0000,0.0000,2337.2153,2337.2153,1586.5048,1586.5048,0.0000,0.0000,0.0000,0.0000,0.0000,-11.4333,-11.4333,15.6856,15.6856,103.3262,103.3262,-104.2169,-104.2169,0.0000,-0.5976,13733.7309,0.0000,0.6300,0.6300,0.5026,0.5026,0.0000,0.0000
5.8000,accel,41.5211,0.0000,0.0000,55.5799,15.3930,0.0000,0.0000,1.0000,0.0000,0.0000,2,3175.8780,3701.7465,3701.7465,3165.1074,3165.1074,0.0396,0.0396,0.0311,0.0311,0.0000,0.0000,0.0000,0.0000,2270.0856,2270.0856,1637.6761,1637.6761,0.0000,0.0000,0.0000,0.0000,0.0000,-11.5862,-11.5862,15.7824,15.7824,101.5165,101.5165,-102.5266,-102.5266,0.0000,-0.6031,13733.7077,0.0000,0.6132,0.6132,0.5174,0.5174,0.0000,0.0000
5.9000,accel,43.0797,0.0000,0.0000,56.6301,15.6850,0.0000,0.0000,1.0000,0.0000,0.0000,2,3239.6052,3692.1681,3692.1681,3174.6721,3174.6721,0.0380,0.0380,0.0321,0.0321,0.0000,0.0000,0.0000,0.0000,2198.5008,2198.5008,1686.6636,1686.6636,0.0000,0.0000,0.0000,0.0000,0.0000,-11.7446,-11.7446,15.8702,15.8702,99.2693,99.2693,-100.4210,-100.4210,0.0000,-0.6085,13733.6804,0.0000,0.5954,0.5954,0.5313,0.5313,0.0000,0.0000
6.0000,accel,44.6676,0.0000,0.0000,57.6875,15.9791,0.0000,0.0000,1.0000,0.0000,0.0000,2,3303.7675,3681.3551,3681.3551,3185.4705,3185.4705,0.0363,0.0363,0.0331,0.0331,0.0000,0.0000,0.0000,0.0000,2121.9737,2121.9737,1733.8999,1733.8999,0.0000,0.0000,0.0000,0.0000,0.0000,-11.9114,-11.9114,15.9513,15.9513,96.6117,96.6117,-97.9151,-97.9151,0.0000,-0.6140,13733.6513,0.0000,0.5764,0.5764,0.5443,0.5443,0.0000,0.0000
6.1000,accel,46.2850,0.0000,0.0000,58.7522,16.2753,0.0000,0.0000,1.0000,0.0000,0.0000,2,3368.3845,3669.2837,3669.2837,3197.5270,3197.5270,0.0346,0.0346,0.0341,0.0341,0.0000,0.0000,0.0000,0.0000,2039.9391,2039.9391,1779.7913,1779.7913,0.0000,0.0000,0.0000,0.0000,0.0000,-12.0878,-12.0878,16.0267,16.0267,93.5472,93.5472,-95.0084,-95.0084,0.0000,-0.6196,13733.6213,0.0000,0.5560,0.5560,0.5566,0.5566,0.0000,0.0000
6.2000,accel,47.9322,0.0000,0.0000,59.8243,16.5737,0.0000,0.0000,1.0000,0.0000,0.0000,2,3433.4765,3655.9067,3655.9067,3210.8884,3210.8884,0.0329,0.0329,0.0350,0.0350,0.0000,0.0000,0.0000,0.0000,1951.7313,1951.7313,1824.7177,1824.7177,0.0000,0.0000,0.0000,0.0000,0.0000,-12.2746,-12.2746,16.0965,16.0965,90.0643,90.0643,-91.6896,-91.6896,0.0000,-0.6252,13733.5903,0.0000,0.5339,0.5339,0.5683,0.5683,0.0000,0.0000
6.3000,accel,49.6092,0.0000,0.0000,60.9037,16.8741,0.0000,0.0000,1.0000,0.0000,0.0000,2,3499.0643,3641.1503,3641.1503,3225.6287,3225.6287,0.0311,0.0311,0.0359,0.0359,0.0000,0.0000,0.0000,0.0000,1856.5530,1856.5530,1869.0388,1869.0388,0.0000,0.0000,0.0000,0.0000,0.0000,-12.4723,-12.4723,16.1607,16.1607,86.1394,86.1394,-87.9371,-87.9371,0.0000,-0.6310,13733.5580,0.0000,0.5099,0.5099,0.5794,0.5794,0.0000,0.0000
6.4000,accel,51.3164,0.0000,0.0000,61.9905,17.1767,0.0000,0.0000,1.0000,0.0000,0.0000,2,3565.1692,3624.9077,3624.9077,3241.8541,3241.8541,0.0291,0.0291,0.0368,0.0368,0.0000,0.0000,0.0000,0.0000,1753.4325,1753.4325,1913.1036,1913.1036,0.0000,0.0000,0.0000,0.0000,0.0000,-12.6818,-12.6818,16.2192,16.2192,81.7370,81.7370,-83.7187,-83.7187,0.0000,-0.6369,13733.5237,0.0000,0.4837,0.4837,0.5901,0.5901,0.0000,0.0000
6.5000,accel,53.0540,0.0000,0.0000,63.0847,17.4815,0.0000,0.0000,1.0000,0.0000,0.0000,2,3631.8139,3607.0322,3607.0322,3259.7111,3259.7111,0.0271,0.0271,0.0377,0.0377,0.0000,0.0000,0.0000,0.0000,1641.1648,1641.1648,1957.2628,1957.2628,0.0000,0.0000,0.0000,0.0000,0.0000,-12.9039,-12.9039,16.2713,16.2713,76.8075,76.8075,-78.9893,-78.9893,0.0000,-0.6429,13733.4865,0.0000,0.4550,0.4550,0.6004,0.6004,0.0000,0.0000
6.6000,accel,54.8221,0.0000,0.0000,64.1863,17.7885,0.0000,0.0000,1.0000,0.0000,0.0000,2,3699.0228,3587.3255,3587.3255,3279.3972,3279.3972,0.0249,0.0249,0.0386,0.0386,0.0000,0.0000,0.0000,0.0000,1518.2334,1518.2334,2001.8838,2001.8838,0.0000,0.0000,0.0000,0.0000,0.0000,-13.1398,-13.1398,16.3166,16.3166,71.2841,71.2841,-73.6876,-73.6876,0.0000,-0.6491,13733.4453,0.0000,0.4232,0.4232,0.6104,0.6104,0.0000,0.0000
6.7000,accel,56.6210,0.0000,0.0000,65.2954,18.0977,0.0000,0.0000,1.0000,0.0000,0.0000,2,3766.8230,3565.5242,3565.5242,3301.1751,3301.1751,0.0226,0.0226,0.0395,0.0395,0.0000,0.0000,0.0000,0.0000,1382.7112,1382.7112,2047.3687,2047.3687,0.0000,0.0000,0.0000,0.0000,0.0000,-13.3912,-13.3912,16.3539,16.3539,65.0778,65.0778,-67.7322,-67.7322,0.0000,-0.6555,13733.3987,0.0000,0.3878,0.3878,0.6202,0.6202,0.0000,0.0000
6.8000,accel,58.4509,0.0000,0.0000,66.4120,18.4091,0.0000,0.0000,1.0000,0.0000,0.0000,2,3835.2450,3541.2846,3541.2846,3325.3878,3325.3878,0.0201,0.0201,0.0404,0.0404,0.0000,0.0000,0.0000,0.0000,1232.1626,1232.1626,2094.1706,2094.1706,0.0000,0.0000,0.0000,0.0000,0.0000,-13.6603,-13.6603,16.3822,16.3822,58.0728,58.0728,-61.0164,-61.0164,0.0000,-0.6620,13733.3448,0.0000,0.3479,0.3479,0.6298,0.6298,0.0000,0.0000
6.9000,accel,60.3120,0.0000,0.0000,67.5360,18.7228,0.0000,0.0000,1.0000,0.0000,0.0000,2,3904.3232,3514.1805,3514.1805,3352.4604,3352.4604,0.0174,0.0174,0.0413,0.0413,0.0000,0.0000,0.0000,0.0000,1063.6425,1063.6425,2142.7968,2142.7968,0.0000,0.0000,0.0000,0.0000,0.0000,-13.9498,-13.9498,16.3998,16.3998,50.1265,50.1265,-53.4074,-53.4074,0.0000,-0.6688,13733.2818,0.0000,0.3027,0.3027,0.6392,0.6392,0.0000,0.0000
7.0000,accel,62.2045,0.0000,0.0000,68.6675,19.0388,0.0000,0.0000,1.0000,0.0000,0.0000,2,3974.0919,3483.7636,3483.7636,3382.8408,3382.8408,0.0144,0.0144,0.0423,0.0423,0.0000,0.0000,0.0000,0.0000,874.1575,874.1575,2193.7483,2193.7483,0.0000,0.0000,0.0000,0.0000,0.0000,-14.2630,-14.2630,16.4049,16.4049,41.0917,41.0917,-44.7632,-44.7632,0.0000,-0.6758,13733.2087,0.0000,0.2509,0.2509,0.6485,0.6485,0.0000,0.0000
7.1000,accel,64.1286,0.0000,0.0000,69.8056,19.3569,0.0000,0.0000,1.0000,0.0000,0.0000,2,4043.9788,3450.4733,3450.4733,3416.0973,3416.0973,0.0111,0.0111,0.0431,0.0431,0.0000,0.0000,0.0000,0.0000,663.5466,663.5466,2242.3078,2242.3078,0.0000,0.0000,0.0000,0.0000,0.0000,-14.5963,-14.5963,16.3890,16.3890,31.1084,31.1084,-35.1477,-35.1477,0.0000,-0.6828,13733.1411,0.0000,0.1923,0.1923,0.6564,0.6564,0.0000,0.0000
7.2000,accel,66.0845,0.0000,0.0000,70.9484,19.6765,0.0000,0.0000,1.0000,0.0000,0.0000,2,4114.1698,3415.5321,3415.5321,3451.0143,3451.0143,0.0076,0.0076,0.0439,0.0439,0.0000,0.0000,0.0000,0.0000,440.4265,440.4265,2290.7560,2290.7560,0.0000,0.0000,0.0000,0.0000,0.0000,-14.9328,-14.9328,16.3387,16.3387,20.4966,20.4966,-24.8124,-24.8124,0.0000,-0.6891,13733.0928,0.0000,0.1289,0.1289,0.6638,0.6638,0.0000,0.0000
7.3000,accel,68.0724,0.0000,0.0000,72.0963,19.9973,0.0000,0.0000,1.0000,0.0000,0.0000,2,4184.5803,3381.7956,3381.7956,3484.7548,3484.7548,0.0044,0.0044,0.0447,0.0447,0.0000,0.0000,0.0000,0.0000,228.8830,228.8830,2337.1064,2337.1064,0.0000,0.0000,0.0000,0.0000,0.0000,-15.2679,-15.2679,16.2685,16.2685,10.3532,10.3532,-14.6708,-14.6708,0.0000,-0.6950,13733.1009,0.0000,0.0677,0.0677,0.6707,0.6707,0.0000,0.0000
7.4000,accel,70.0923,0.0000,0.0000,73.2499,20.3192,0.0000,0.0000,1.0000,0.0000,0.0000,2,4254.8426,3355.5651,3355.5651,3511.0488,3511.0488,0.0019,0.0019,0.0453,0.0453,0.0000,0.0000,0.0000,0.0000,71.0246,71.0246,2375.1696,2375.1696,0.0000,0.0000,0.0000,0.0000,0.0000,-15.5746,-15.5746,16.1986,16.1986,2.9277,2.9277,-6.6590,-6.6590,0.0000,-0.7002,13733.2279,0.0000,0.0212,0.0212,0.6765,0.6765,0.0000,0.0000
7.5000,accel,72.1445,0.0000,0.0000,74.4097,20.6421,0.0000,0.0000,1.0000,0.0000,0.0000,2,4324.7234,3340.6865,3340.6865,3526.0570,3526.0570,0.0006,0.0006,0.0458,0.0458,0.0000,0.0000,0.0000,0.0000,-10.6534,-10.6534,2401.2420,2401.2420,0.0000,0.0000,0.0000,0.0000,0.0000,-15.8182,-15.8182,16.1561,16.1561,-0.4193,-0.4193,-2.0675,-2.0675,0.0000,-0.7046,13733.4871,0.0000,0.0032,0.0032,0.6810,0.6810,0.0000,0.0000
7.6000,accel,74.2289,0.0000,0.0000,75.5752,20.9660,0.0000,0.0000,1.0000,0.0000,0.0000,2,4394.4004,3334.2296,3334.2296,3532.6388,3532.6388,0.0002,0.0002,0.0462,0.0462,0.0000,0.0000,0.0000,0.0000,-38.0488,-38.0488,2418.4619,2418.4619,0.0000,0.0000,0.0000,0.0000,0.0000,-15.9844,-15.9844,16.1578,16.1578,-1.0772,-1.0772,-0.1992,-0.1992,0.0000,-0.7083,13733.7367,0.0000,0.0114,0.0114,0.6846,0.6846,0.0000,0.0000
7.7000,accel,76.3458,0.0000,0.0000,76.7458,21.2911,0.0000,0.0000,1.0000,0.0000,0.0000,2,4464.1944,3331.1767,3331.1767,3535.7677,3535.7677,0.0001,0.0001,0.0466,0.0466,0.0000,0.0000,0.0000,0.0000,-44.0118,-44.0118,2432.0978,2432.0978,0.0000,0.0000,0.0000,0.0000,0.0000,-16.1075,-16.1075,16.2018,16.2018,-1.0699,-1.0699,0.5327,0.5327,0.0000,-0.7120,13733.8887,0.0000,0.0132,0.0132,0.6879,0.6879,0.0000,0.0000
7.8000,accel,78.4953,0.0000,0.0000,77.9202,21.6173,0.0000,0.0000,1.0000,0.0000,0.0000,2,4533.2449,3329.9583,3329.9583,3537.0094,3537.0094,0.0001,0.0001,0.0467,0.0467,0.0000,0.0000,0.0000,0.0000,-44.8513,-44.8513,2437.3717,2437.3717,0.0000,0.0000,0.0000,0.0000,0.0000,-16.2055,-16.2055,16.2641,16.2641,-0.7184,-0.7184,0.4065,0.4065,0.0000,-0.7155,13733.9353,0.0000,0.0135,0.0135,0.6891,0.6891,0.0000,0.0000
7.9000,accel,80.6774,0.0000,0.0000,79.0914,21.9428,0.0000,0.0000,1.0000,0.0000,0.0000,2,4600.7061,3330.9976,3330.9976,3535.9792,3535.9792,0.0001,0.0001,0.0465,0.0465,0.0000,0.0000,0.0000,0.0000,-44.7374,-44.7374,2431.3765,2431.3765,0.0000,0.0000,0.0000,0.0000,0.0000,-16.2434,-16.2434,16.2740,16.2740,-0.1506,-0.1506,-0.0742,-0.0742,0.0000,-0.7166,13733.9536,0.0000,0.0134,0.0134,0.6876,0.6876,0.0000,0.0000
8.0000,brake,82.8919,0.0000,0.0000,80.2578,22.2669,0.0000,0.0000,0.0000,0.0000,0.0000,2,4667.8716,3332.0187,3332.0187,3534.9738,3534.9738,0.0001,0.0001,0.0464,0.0464,0.0000,0.0000,0.0000,0.0000,-44.5607,-44.5607,2425.3921,2425.3921,0.0000,0.0000,0.0000,0.0000,0.0000,-16.2403,-16.2403,16.2567,16.2567,0.1668,0.1668,-0.2382,-0.2382,0.0000,-0.7161,13733.9851,0.0000,0.0134,0.0134,0.6861,0.6861,0.0000,0.0000
8.1000,brake,85.1205,0.0000,0.0000,80.0696,22.2537,0.0000,0.0000,0.0000,0.2000,0.0000,2,4418.9387,3846.4667,3846.4667,3021.6658,3021.6658,-0.0057,-0.0057,-0.0067,-0.0067,0.0000,0.0000,0.0000,0.0000,-468.7574,-468.7574,-432.5972,-432.5972,0.0000,0.0000,0.0000,0.0000,0.0000,-5.2552,-5.2552,7.5529,7.5529,96.0944,96.0944,-84.7279,-84.7279,0.0000,-0.2823,13736.2651,0.0000,0.1219,0.1219,0.1432,0.1432,0.0000,0.0000
8.2000,brake,87.3351,0.0000,0.0000,79.3654,22.0678,0.0000,0.0000,0.0000,0.4000,0.0000,2,4345.5481,4002.4083,4002.4083,2864.5503,2864.5503,-0.0110,-0.0110,-0.0150,-0.0150,0.0000,0.0000,0.0000,0.0000,-871.8030,-871.8030,-849.9361,-849.9361,0.0000,0.0000,0.0000,0.0000,0.0000,3.4593,3.4593,-0.5918,-0.5918,71.3261,71.3261,-71.4415,-71.4415,0.0000,0.0893,13733.9172,0.0000,0.2178,0.2178,0.2967,0.2967,0.0000,0.0000
8.3000,brake,89.5236,0.0000,0.0000,78.2503,21.7644,0.0000,0.0000,0.0000,0.5000,0.0000,2,4257.4915,4110.4911,4110.4911,2755.8583,2755.8583,-0.0142,-0.0142,-0.0215,-0.0215,0.0000,0.0000,0.0000,0.0000,-1125.4626,-1125.4626,-1128.5546,-1128.5546,0.0000,0.0000,0.0000,0.0000,0.0000,10.1464,10.1464,-7.4084,-7.4084,47.6885,47.6885,-53.8064,-53.8064,0.0000,0.3869,13732.6987,0.0000,0.2738,0.2738,0.4095,0.4095,0.0000,0.0000
8.4000,brake,91.6793,0.0000,0.0000,77.0583,21.4329,0.0000,0.0000,0.0000,0.5000,0.0000,2,4193.1928,4111.7153,4111.7153,2754.3306,2754.3306,-0.0140,-0.0140,-0.0213,-0.0213,0.0000,0.0000,0.0000,0.0000,-1108.0880,-1108.0880,-1122.3238,-1122.3238,0.0000,0.0000,0.0000,0.0000,0.0000,13.2443,13.2443,-11.3090,-11.3090,17.1996,17.1996,-26.3815,-26.3815,0.0000,0.5411,13732.0919,0.0000,0.2695,0.2695,0.4075,0.4075,0.0000,0.0000
8.5000,brake,93.8019,0.0000,0.0000,75.8678,21.1021,0.0000,0.0000,0.0000,0.5000,0.0000,2,4128.6660,4111.5951,4111.5951,2754.6933,2754.6933,-0.0139,-0.0139,-0.0213,-0.0213,0.0000,0.0000,0.0000,0.0000,-1103.8815,-1103.8815,-1120.4111,-1120.4111,0.0000,0.0000,0.0000,0.0000,0.0000,14.3814,14.3814,-13.2159,-13.2159,5.7802,5.7802,-12.6569,-12.6569,0.0000,0.6082,13732.5768,0.0000,0.2685,0.2685,0.4067,0.4067,0.0000,0.0000
8.6000,brake,95.8915,0.0000,0.0000,74.6791,20.7719,0.0000,0.0000,0.0000,0.5000,0.0000,2,4064.1046,4110.8380,4110.8380,2755.7083,2755.7083,-0.0139,-0.0139,-0.0213,-0.0213,0.0000,0.0000,0.0000,0.0000,-1105.6274,-1105.6274,-1120.2703,-1120.2703,0.0000,0.0000,0.0000,0.0000,0.0000,14.7969,14.7969,-14.1471,-14.1471,1.3218,1.3218,-5.7152,-5.7152,0.0000,0.6378,13733.0927,0.0000,0.2690,0.2690,0.4065,0.4065,0.0000,0.0000
8.7000,brake,97.9481,0.0000,0.0000,73.4920,20.4423,0.0000,0.0000,0.0000,0.5000,0.0000,2,3999.4978,4108.6000,4108.6000,2758.1344,2758.1344,-0.0141,-0.0141,-0.0213,-0.0213,0.0000,0.0000,0.0000,0.0000,-1115.9909,-1115.9909,-1122.3922,-1122.3922,0.0000,0.0000,0.0000,0.0000,0.0000,14.9493,14.9493,-14.5994,-14.5994,-0.7835,-0.7835,-1.7914,-1.7914,0.0000,0.6512,13733.4689,0.0000,0.2716,0.2716,0.4069,0.4069,0.0000,0.0000
8.8000,brake,99.9717,0.0000,0.0000,72.3059,20.1133,0.0000,0.0000,0.0000,0.5000,0.0000,2,3934.5711,4100.6910,4100.6910,2766.2248,2766.2248,-0.0147,-0.0147,-0.0215,-0.0215,0.0000,0.0000,0.0000,0.0000,-1155.9590,-1155.9590,-1131.8459,-1131.8459,0.0000,0.0000,0.0000,0.0000,0.0000,15.0189,15.0189,-14.8001,-14.8001,-3.5404,-3.5404,2.7346,2.7346,0.0000,0.6571,13733.8315,0.0000,0.2819,0.2819,0.4092,0.4092,0.0000,0.0000
8.9000,brake,101.9624,0.0000,0.0000,71.1175,19.7860,0.0000,0.0000,0.0000,0.5000,0.0000,2,3867.7416,4064.6403,4064.6403,2802.6240,2802.6240,-0.0175,-0.0175,-0.0222,-0.0222,0.0000,0.0000,0.0000,0.0000,-1343.3082,-1343.3082,-1177.5201,-1177.5201,0.0000,0.0000,0.0000,0.0000,0.0000,15.0772,15.0772,-14.7594,-14.7594,-14.2568,-14.2568,16.8878,16.8878,0.0000,0.6575,13734.5287,0.0000,0.3305,0.3305,0.4201,0.4201,0.0000,0.0000
9.0000,brake,103.9203,0.0000,0.0000,69.9166,19.4642,0.0000,0.0000,0.0000,0.5000,0.0000,2,3791.3667,3899.5118,3899.5118,2968.9390,2968.9390,-0.0314,-0.0314,-0.0256,-0.0256,0.0000,0.0000,0.0000,0.0000,-2111.5024,-2111.5024,-1401.5618,-1401.5618,0.0000,0.0000,0.0000,0.0000,0.0000,15.2556,15.2556,-14.1268,-14.1268,-62.7108,-62.7108,77.0874,77.0874,0.0000,0.6475,13736.9017,0.0000,0.5415,0.5415,0.4721,0.4721,0.0000,0.0000
9.1000,brake,105.8456,0.0000,0.0000,68.7291,19.1405,0.0000,0.0000,0.0000,0.5000,0.0000,2,3715.4144,3793.1443,3793.1443,3075.1313,3075.1313,-0.0396,-0.0396,-0.0290,-0.0290,0.0000,0.0000,0.0000,0.0000,-2437.7131,-2437.7131,-1599.4099,-1599.4099,0.0000,0.0000,0.0000,0.0000,0.0000,15.9016,15.9016,-13.2230,-13.2230,-97.7159,-97.7159,110.5269,110.5269,0.0000,0.6418,13736.5511,0.0000,0.6427,0.6427,0.5201,0.5201,0.0000,0.0000
9.2000,brake,107.7381,0.0000,0.0000,67.5487,18.8145,0.0000,0.0000,0.0000,0.5000,0.0000,2,3647.7480,3764.6586,3764.6586,3103.0692,3103.0692,-0.0424,-0.0424,-0.0302,-0.0302,0.0000,0.0000,0.0000,0.0000,-2532.2288,-2532.2288,-1663.3663,-1663.3663,0.0000,0.0000,0.0000,0.0000,0.0000,16.3570,16.3570,-12.7160,-12.7160,-109.1074,-109.1074,116.6316,116.6316,0.0000,0.6407,13735.4556,0.0000,0.6726,0.6726,0.5360,0.5360,0.0000,0.0000
9.3000,brake,109.5979,0.0000,0.0000,66.3701,18.4888,0.0000,0.0000,0.0000,0.5000,0.0000,2,3580.0318,3737.8039,3737.8039,3129.6779,3129.6779,-0.0451,-0.0451,-0.0314,-0.0314,0.0000,0.0000,0.0000,0.0000,-2616.3896,-2616.3896,-1729.5598,-1729.5598,0.0000,0.0000,0.0000,0.0000,0.0000,16.6300,16.6300,-12.3784,-12.3784,-118.7300,-118.7300,123.8989,123.8989,0.0000,0.6393,13734.9638,0.0000,0.7000,0.7000,0.5526,0.5526,0.0000,0.0000
9.4000,brake,111.4252,0.0000,0.0000,65.1934,18.1637,0.0000,0.0000,0.0000,0.5000,0.0000,2,3512.1735,3712.2192,3712.2192,3155.1474,3155.1474,-0.0477,-0.0477,-0.0328,-0.0328,0.0000,0.0000,0.0000,0.0000,-2690.5931,-2690.5931,-1799.0346,-1799.0346,0.0000,0.0000,0.0000,0.0000,0.0000,16.8213,16.8213,-12.1186,-12.1186,-127.4066,-127.4066,131.4886,131.4886,0.0000,0.6377,13734.7333,0.0000,0.7248,0.7248,0.5702,0.5702,0.0000,0.0000
9.5000,brake,113.2198,0.0000,0.0000,64.0184,17.8389,0.0000,0.0000,0.0000,0.5000,0.0000,2,3444.1184,3687.4792,3687.4792,3179.8307,3179.8307,-0.0502,-0.0502,-0.0342,-0.0342,0.0000,0.0000,0.0000,0.0000,-2756.3258,-2756.3258,-1872.4728,-1872.4728,0.0000,0.0000,0.0000,0.0000,0.0000,16.9748,16.9748,-11.8957,-11.8957,-135.5717,-135.5717,139.1333,139.1333,0.0000,0.6362,13734.6196,0.0000,0.7475,0.7475,0.5889,0.5889,0.0000,0.0000
9.6000,brake,114.9819,0.0000,0.0000,62.8451,17.5146,0.0000,0.0000,0.0000,0.5000,0.0000,2,3375.8295,3663.3022,3663.3022,3203.9776,3203.9776,-0.0528,-0.0528,-0.0358,-0.0358,0.0000,0.0000,0.0000,0.0000,-2814.6928,-2814.6928,-1950.2360,-1950.2360,0.0000,0.0000,0.0000,0.0000,0.0000,17.1101,17.1101,-11.6912,-11.6912,-143.4458,-143.4458,146.7467,146.7467,0.0000,0.6347,13734.5596,0.0000,0.7683,0.7683,0.6087,0.6087,0.0000,0.0000
9.7000,brake,116.7116,0.0000,0.0000,61.6734,17.1907,0.0000,0.0000,0.0000,0.5000,0.0000,2,3307.2916,3639.5191,3639.5191,3227.7433,3227.7433,-0.0552,-0.0552,-0.0376,-0.0376,0.0000,0.0000,0.0000,0.0000,-2866.5879,-2866.5879,-2032.3094,-2032.3094,0.0000,0.0000,0.0000,0.0000,0.0000,17.2362,17.2362,-11.4963,-11.4963,-151.1417,-151.1417,154.3038,154.3038,0.0000,0.6332,13734.5247,0.0000,0.7876,0.7876,0.6296,0.6296,0.0000,0.0000
9.8000,brake,118.4088,0.0000,0.0000,60.5034,16.8672,0.0000,0.0000,0.0000,0.5000,0.0000,2,3238.5150,3616.0594,3616.0594,3251.1914,3251.1914,-0.0577,-0.0577,-0.0396,-0.0396,0.0000,0.0000,0.0000,0.0000,-2912.7902,-2912.7902,-2118.2541,-2118.2541,0.0000,0.0000,0.0000,0.0000,0.0000,17.3573,17.3573,-11.3069,-11.3069,-158.7097,-158.7097,161.7892,161.7892,0.0000,0.6317,13734.5015,0.0000,0.8055,0.8055,0.6515,0.6515,0.0000,0.0000
9.9000,brake,120.0736,0.0000,0.0000,59.3349,16.5441,0.0000,0.0000,0.0000,0.5000,0.0000,2,3169.5375,3592.9405,3592.9405,3274.3010,3274.3010,-0.0601,-0.0601,-0.0417,-0.0417,0.0000,0.0000,0.0000,0.0000,-2954.0162,-2954.0162,-2207.2112,-2207.2112,0.0000,0.0000,0.0000,0.0000,0.0000,17.4754,17.4754,-11.1213,-11.1213,-166.1584,-166.1584,169.1774,169.1774,0.0000,0.6302,13734.4829,0.0000,0.8222,0.8222,0.6741,0.6741,0.0000,0.0000
10.0000,corner,121.7060,0.0000,0.0000,58.1680,16.2215,0.0000,0.0000,0.3500,0.0000,0.0000,2,3100.4540,3570.3015,3570.3015,3296.9305,3296.9305,-0.0626,-0.0626,-0.0439,-0.0439,0.0000,0.0000,0.0000,0.0000,-2991.0013,-2991.0013,-2297.6099,-2297.6099,0.0000,0.0000,0.0000,0.0000,0.0000,17.5911,17.5911,-10.9394,-10.9394,-173.4533,-173.4533,176.4099,176.4099,0.0000,0.6287,13734.4640,0.0000,0.8377,0.8377,0.6969,0.6969,0.0000,0.0000
10.1000,corner,123.3270,0.0001,0.0037,58.4918,16.2541,0.0020,0.1135,0.3500,0.0000,0.1000,2,3372.8185,3382.7021,3391.2559,3476.8962,3483.8831,-0.0486,-0.0488,0.0360,0.0372,-0.0782,-0.0782,-0.0007,-0.0007,-2500.2963,-2512.4487,1999.8433,2057.3447,51.5613,51.6491,0.3294,0.3300,0.0070,7.1857,7.2754,-1.6040,-1.5215,-153.2056,-150.4488,154.6821,157.3728,0.0032,0.1938,13734.7374,0.0775,0.7393,0.7410,0.5752,0.5905,8206.4094,0.0000
10.2000,corner,124.9577,0.0010,0.0327,58.8183,16.3543,0.0066,0.7198,0.3500,0.0000,0.2000,2,3373.8689,3235.6458,3218.4020,3640.2055,3642.7075,-0.0514,-0.0510,-0.0087,0.0677,-0.1546,-0.1546,0.0062,0.0062,-2479.8071,-2457.7457,-646.1761,3036.9359,104.5115,104.7576,4.3008,4.4302,0.0147,0.5963,1.4636,3.3743,3.9377,-153.8049,-152.6719,167.2994,169.2336,0.0264,-0.0579,13736.9607,0.1484,0.7671,0.7643,0.1775,0.8337,1301.8406,0.0000
10.3000,corner,126.5980,0.0037,0.1074,59.1688,16.4524,0.0073,1.2391,0.3500,0.0000,0.3000,2,3388.8838,3254.4521,3213.2986,3625.5280,3641.9074,-0.0506,-0.0495,-0.0111,0.0670,-0.2176,-0.2177,-0.0342,-0.0342,-2472.6353,-2413.7892,-804.0255,3023.7097,154.7344,154.5181,32.4923,32.9154,0.0255,-2.7653,-0.0569,5.2673,7.0475,-137.2353,-130.4549,135.5603,144.7533,0.0830,-0.1668,13735.1860,0.1835,0.7613,0.7527,0.2219,0.8303,760.7511,0.0000
10.4000,corner,128.2481,0.0092,0.2356,59.5212,16.5503,0.0050,1.7998,0.3500,0.0000,0.4000,2,3407.5551,3284.6023,3197.3286,3616.1616,3636.2852,-0.0504,-0.0477,-0.0115,0.0665,-0.2871,-0.2873,-0.0893,-0.0891,-2486.7756,-2352.0827,-828.0141,3010.6870,211.6938,209.3094,73.1946,74.0274,0.0390,-5.0305,0.1126,5.4515,8.9605,-129.6073,-119.0614,119.8243,133.5220,0.1599,-0.2130,13734.3777,0.1979,0.7598,0.7385,0.2299,0.8282,526.8844,0.0000
10.5000,corner,129.9080,0.0189,0.4208,59.8743,16.6482,0.0008,2.3826,0.3500,0.0000,0.5000,2,3426.6244,3319.3543,3170.4821,3613.5965,3630.6216,-0.0505,-0.0457,-0.0115,0.0659,-0.3619,-0.3623,-0.1527,-0.1522,-2514.1790,-2275.3797,-825.2205,2994.3817,274.4684,267.5090,121.1005,122.2247,0.0542,-6.8973,1.0558,4.8718,10.4148,-126.2840,-113.5296,112.5198,128.7891,0.2494,-0.2328,13734.0545,0.2097,0.7619,0.7226,0.2308,0.8254,400.3473,0.0000
10.6000,corner,131.5776,0.0346,0.6645,60.2275,16.7461,-0.0047,2.9773,0.3500,0.0000,0.6000,2,3445.6812,3358.2164,3138.1458,3613.8447,3623.7145,-0.0508,-0.0436,-0.0114,0.0652,-0.4407,-0.4413,-0.2206,-0.2198,-2549.2179,-2187.0110,-819.0833,2975.9186,341.9172,327.5814,173.1337,174.2383,0.0705,-8.6294,2.3620,3.9434,11.6993,-124.4379,-110.4683,108.6971,126.3878,0.3465,-0.2414,13733.9213,0.2208,0.7659,0.7047,0.2317,0.8226,322.2631,0.0000
10.7000,corner,133.2569,0.0578,0.9676,60.5806,16.8439,-0.0111,3.5796,0.3500,0.0000,0.7000,2,3464.6771,3399.9850,3102.9344,3615.2336,3615.7102,-0.0512,-0.0413,-0.0113,0.0645,-0.5222,-0.5231,-0.2914,-0.2900,-2588.6698,-2089.4249,-813.3927,2956.0825,413.1293,388.4197,227.6930,228.3700,0.0875,-10.3287,3.8458,2.8493,12.9280,-123.0630,-108.4307,106.2969,124.7952,0.4483,-0.2453,13733.8631,0.2320,0.7710,0.6849,0.2336,0.8200,269.6074,0.0000
10.8000,corner,134.9459,0.0903,1.3305,60.9333,16.9416,-0.0182,4.1878,0.3500,0.0000,0.8000,2,3483.6158,3443.8538,3066.1465,3616.9925,3606.8416,-0.0516,-0.0388,-0.0112,0.0638,-0.6061,-0.6071,-0.3641,-0.3620,-2630.8263,-1983.7462,-808.4107,2935.3126,487.6005,449.3982,284.0325,283.8325,0.1049,-12.0347,5.4242,1.6694,14.1462,-121.7818,-106.7779,104.4359,123.4299,0.5533,-0.2471,13733.8343,0.2435,0.7769,0.6634,0.2369,0.8176,231.7878,0.0000
10.9000,corner,136.6444,0.1340,1.7537,61.2856,17.0392,-0.0259,4.8014,0.3500,0.0000,0.9000,2,3502.4979,3489.4269,3028.4403,3618.7304,3597.2188,-0.0521,-0.0363,-0.0111,0.0631,-0.6919,-0.6933,-0.4386,-0.4357,-2674.8390,-1870.1064,-804.0207,2913.8175,565.1111,510.1835,341.8294,340.2830,0.1228,-13.7633,7.0606,0.4378,15.3716,-120.4362,-105.2166,102.7218,122.0516,0.6609,-0.2480,13733.8164,0.2554,0.7835,0.6401,0.2414,0.8155,203.3320,0.0000
11.0000,corner,138.3523,0.1908,2.2378,61.6371,17.1365,-0.0343,5.4200,0.3500,0.0000,1.0000,2,3521.3172,3536.5621,2990.1673,3620.2236,3586.8488,-0.0525,-0.0336,-0.0111,0.0624,-0.7798,-0.7813,-0.5147,-0.5108,-2720.3091,-1747.9691,-800.1677,2891.6730,645.5972,570.5826,400.9490,397.5708,0.1411,-15.5210,8.7383,-0.8308,16.6109,-118.9455,-103.6040,100.9699,120.5457,0.7707,-0.2486,13733.8018,0.2678,0.7906,0.6149,0.2472,0.8138,181.1521,0.0000
11.1000,corner,140.0694,0.2625,2.7832,61.9878,17.2335,-0.0433,6.0436,0.3500,0.0000,1.1000,2,3540.0624,3585.2580,2951.5438,3621.3143,3575.6711,-0.0530,-0.0308,-0.0110,0.0617,-0.8695,-0.8714,-0.5924,-0.5874,-2767.0572,-1616.3102,-796.8704,2868.8804,729.0696,630.4616,461.3316,455.6199,0.1597,-17.3105,10.4499,-2.1304,17.8663,-117.2546,-101.8601,99.0819,118.8420,0.8827,-0.2490,13733.7871,0.2806,0.7981,0.5878,0.2543,0.8124,163.3802,0.0000
11.2000,corner,141.7954,0.3512,3.3902,62.3374,17.3302,-0.0529,6.6721,0.3500,0.0000,1.2000,2,3558.7193,3635.5940,2912.7385,3621.8610,3563.5771,-0.0534,-0.0278,-0.0110,0.0610,-0.9613,-0.9635,-0.6716,-0.6654,-2815.0044,-1473.6903,-794.1966,2845.3967,815.5715,689.7085,522.9432,514.3778,0.1786,-19.1330,12.1915,-3.4590,19.1378,-115.3135,-99.9288,96.9920,116.8831,0.9966,-0.2492,13733.7706,0.2939,0.8061,0.5586,0.2625,0.8114,148.8221,0.0000
11.3000,corner,143.5300,0.4587,4.0592,62.6856,17.4265,-0.0631,7.3052,0.3500,0.0000,1.3000,2,3577.2712,3687.7010,2873.9147,3621.7143,3550.4212,-0.0539,-0.0247,-0.0109,0.0604,-1.0552,-1.0576,-0.7524,-0.7448,-2864.1131,-1318.2922,-792.2477,2821.1483,905.1584,748.2183,585.7548,573.7956,0.1980,-20.9891,13.9607,-4.8159,20.4247,-113.0681,-97.7593,94.6433,114.6104,1.1125,-0.2494,13733.7512,0.3078,0.8145,0.5274,0.2720,0.8109,136.6789,0.0000
11.4000,corner,145.2728,0.5873,4.7907,63.0324,17.5223,-0.0740,7.9429,0.3500,0.0000,1.4000,2,3595.6994,3741.7386,2835.2413,3620.7143,3536.0341,-0.0543,-0.0213,-0.0109,0.0597,-1.1511,-1.1538,-0.8349,-0.8256,-2914.3552,-1148.0656,-791.1448,2796.0431,997.8883,805.8881,649.7338,633.8210,0.2176,-22.8789,15.7559,-6.2011,21.7254,-110.4600,-95.3012,91.9806,111.9632,1.2302,-0.2495,13733.7283,0.3222,0.8233,0.4947,0.2827,0.8108,126.3963,0.0000
11.5000,corner,147.0234,0.7388,5.5849,63.3773,17.6174,-0.0856,8.5850,0.3500,0.0000,1.5000,2,3613.9847,3797.8421,2796.8615,3618.7272,3520.2712,-0.0548,-0.0176,-0.0109,0.0591,-1.2492,-1.2521,-0.9189,-0.9079,-2965.6851,-961.3475,-790.9916,2769.9986,1093.8144,862.6130,714.8433,694.3971,0.2376,-24.8026,17.5751,-7.6149,23.0382,-107.4386,-92.5123,88.9617,108.8923,1.3498,-0.2496,13733.7020,0.3372,0.8323,0.4618,0.2946,0.8112,117.5784,0.0000
11.6000,corner,148.7812,0.9153,6.4383,63.7208,17.7122,-0.0999,9.1220,0.3500,0.0000,1.5000,2,3631.9284,3859.8805,2753.5953,3620.4675,3499.7433,-0.0553,-0.0136,-0.0110,0.0584,-1.2702,-1.2731,-1.0032,-0.9905,-3023.9621,-753.4473,-796.6871,2739.4400,1136.9181,873.6853,781.0684,754.4467,0.2510,-26.7037,19.3610,-9.0122,24.3201,-102.6698,-91.0955,87.3945,104.0989,1.4675,-0.2496,13733.6866,0.2748,0.8370,0.4190,0.3082,0.8119,111.2505,0.0000
11.7000,corner,150.5458,1.1182,7.3299,64.0636,17.8067,-0.1163,9.4151,0.3500,0.0000,1.5000,2,3649.4358,3923.3247,2708.6656,3628.3657,3473.3263,-0.0558,-0.0094,-0.0112,0.0576,-1.3065,-1.3091,-1.0736,-1.0596,-3084.4680,-530.3958,-809.4358,2702.2996,1180.1169,881.5679,840.5859,804.7053,0.2630,-28.2599,20.7975,-10.1524,25.3406,-95.3131,-92.3069,88.5642,96.7189,1.5627,-0.2496,13733.6824,0.2412,0.8418,0.3798,0.3216,0.8118,108.3633,0.0000
11.8000,corner,152.3165,1.3487,8.2409,64.4055,17.9010,-0.1299,9.5682,0.3500,0.0000,1.5000,2,3667.0838,3972.8713,2675.7758,3634.3685,3450.6830,-0.0561,-0.0059,-0.0113,0.0569,-1.3425,-1.3446,-1.1224,-1.1077,-3125.8157,-346.1653,-818.3764,2668.9416,1223.8008,893.6349,883.9771,839.5630,0.2731,-29.3636,21.7786,-10.9581,26.0307,-88.6257,-93.3591,89.6623,90.1199,1.6289,-0.2497,13733.6985,0.2285,0.8449,0.3582,0.3315,0.8108,107.1933,0.0000
11.9000,corner,154.0928,1.6078,9.1620,64.7467,17.9953,-0.1400,9.6530,0.3500,0.0000,1.5000,2,3685.0747,4006.0316,2653.7646,3638.3518,3435.6011,-0.0560,-0.0037,-0.0113,0.0562,-1.3709,-1.3726,-1.1548,-1.1395,-3146.9496,-228.8574,-819.7841,2642.7341,1258.2767,904.5430,912.9238,862.3706,0.2803,-30.1179,22.4176,-11.5012,26.4832,-84.0248,-93.9512,90.4571,85.7920,1.6730,-0.2499,13733.7491,0.2246,0.8460,0.3516,0.3372,0.8091,106.8119,0.0000
12.0000,corner,155.8741,1.8964,10.0891,65.0872,18.0896,-0.1476,9.7061,0.3500,0.0000,1.5000,2,3703.3672,4026.9016,2638.8047,3641.1941,3426.9092,-0.0557,-0.0025,-0.0112,0.0556,-1.3928,-1.3942,-1.1769,-1.1614,-3153.8147,-167.3155,-814.7710,2622.4313,1284.0821,913.6279,932.3717,877.8198,0.2855,-30.6459,22.8510,-11.8726,26.7990,-81.3371,-94.2753,91.0376,83.4278,1.7035,-0.2504,13733.8096,0.2243,0.8456,0.3520,0.3401,0.8070,106.7838,0.0000
12.1000,corner,157.6599,2.2148,11.0206,65.4276,18.1840,-0.1538,9.7459,0.3500,0.0000,1.5000,2,3721.8507,4040.5811,2628.2425,3643.0762,3421.9556,-0.0553,-0.0019,-0.0111,0.0551,-1.4103,-1.4115,-1.1935,-1.1778,-3152.1157,-136.8638,-805.8670,2605.6615,1304.1090,921.4135,946.3964,889.2673,0.2895,-31.0415,23.1753,-12.1446,27.0442,-79.8397,-94.3723,91.3303,82.1752,1.7264,-0.2508,13733.8554,0.2252,0.8442,0.3544,0.3412,0.8046,106.9028,0.0000
12.2000,corner,159.4497,2.5636,11.9558,65.7679,18.2784,-0.1592,9.7805,0.3500,0.0000,1.5000,2,3740.4378,4050.6356,2620.3197,3644.1432,3418.7834,-0.0548,-0.0016,-0.0109,0.0546,-1.4255,-1.4265,-1.2073,-1.1915,-3145.7040,-120.0711,-795.0027,2590.6615,1320.8361,928.4436,957.5915,898.6995,0.2928,-31.3665,23.4456,-12.3647,27.2547,-78.9449,-94.2676,91.3366,81.4229,1.7453,-0.2513,13733.8819,0.2266,0.8423,0.3573,0.3415,0.8021,107.0773,0.0000
12.3000,corner,161.2428,2.9432,12.8945,66.1082,18.3728,-0.1643,9.8133,0.3500,0.0000,1.5000,2,3759.0797,4058.9798,2613.8331,3644.6763,3416.4060,-0.0544,-0.0014,-0.0107,0.0541,-1.4395,-1.4403,-1.2198,-1.2038,-3136.8242,-108.9493,-783.1999,2576.4848,1335.8563,935.0699,967.4156,907.1840,0.2957,-31.6568,23.6907,-12.5599,27.4489,-78.3331,-94.0253,91.1476,80.8835,1.7624,-0.2518,13733.8952,0.2280,0.8400,0.3602,0.3415,0.7995,107.2708,0.0000
12.4000,corner,163.0388,3.3539,13.8366,66.4486,18.4672,-0.1692,9.8455,0.3500,0.0000,1.5000,2,3777.7530,4066.5291,2608.0392,3644.9364,3414.3970,-0.0538,-0.0012,-0.0105,0.0536,-1.4529,-1.4535,-1.2318,-1.2156,-3126.6768,-100.5032,-770.9239,2562.6857,1350.0659,941.4870,976.6227,915.2538,0.2985,-31.9313,23.9245,-12.7438,27.6360,-77.8562,-93.7102,90.8570,80.4425,1.7787,-0.2523,13733.9017,0.2295,0.8375,0.3630,0.3414,0.7970,107.4701,0.0000
12.5000,corner,164.8371,3.7960,14.7821,66.7890,18.5617,-0.1741,9.8773,0.3500,0.0000,1.5000,2,3796.4465,4073.7064,2602.5362,3645.0888,3412.5738,-0.0533,-0.0011,-0.0104,0.0532,-1.4661,-1.4665,-1.2434,-1.2271,-3115.8638,-93.6182,-758.3824,2549.0613,1363.9282,947.7946,985.5760,923.1574,0.3012,-32.1991,24.1539,-12.9231,27.8206,-77.4479,-93.3656,90.5249,80.0533,1.7946,-0.2528,13733.9052,0.2310,0.8349,0.3660,0.3412,0.7944,107.6717,0.0000
12.6000,corner,166.6370,4.2698,15.7310,67.1295,18.6561,-0.1790,9.9089,0.3500,0.0000,1.5000,2,3815.1550,4080.7056,2597.1323,3645.2166,3410.8530,-0.0528,-0.0010,-0.0102,0.0527,-1.4791,-1.4794,-1.2551,-1.2386,-3104.6702,-87.8082,-745.6713,2535.5186,1377.6677,954.0406,994.4386,931.0027,0.3039,-32.4643,24.3819,-13.1004,28.0045,-77.0777,-93.0141,90.1813,79.6944,1.8104,-0.2533,13733.9075,0.2324,0.8324,0.3689,0.3410,0.7919,107.8746,0.0000
12.7000,corner,168.4380,4.7755,16.6832,67.4700,18.7506,-0.1840,9.9402,0.3500,0.0000,1.5000,2,3833.8758,4087.6157,2591.7465,3645.3535,3409.1935,-0.0523,-0.0009,-0.0100,0.0523,-1.4922,-1.4923,-1.2667,-1.2501,-3093.2226,-82.8087,-732.8375,2522.0157,1391.3858,960.2467,1003.2784,938.8324,0.3066,-32.7286,24.6097,-13.2771,28.1885,-76.7302,-92.6652,89.8385,79.3542,1.8261,-0.2538,13733.9092,0.2339,0.8298,0.3719,0.3408,0.7894,108.0791,0.0000
12.8000,corner,170.2396,5.3135,17.6387,67.8106,18.8451,-0.1889,9.9713,0.3500,0.0000,1.5000,2,3852.6075,4094.4783,2586.3503,3645.5091,3407.5728,-0.0518,-0.0008,-0.0098,0.0518,-1.5053,-1.5053,-1.2783,-1.2616,-3081.5732,-78.4495,-719.9056,2508.5339,1405.1254,966.4222,1012.1203,946.6609,0.3093,-32.9926,24.8377,-13.4536,28.3730,-76.3975,-92.3217,89.5002,79.0262,1.8419,-0.2542,13733.9105,0.2353,0.8272,0.3749,0.3407,0.7868,108.2854,0.0000
12.9000,corner,172.0410,5.8839,18.5976,68.1512,18.9396,-0.1940,10.0020,0.3500,0.0000,1.5000,2,3871.3492,4101.3130,2580.9380,3645.6826,3405.9780,-0.0513,-0.0007,-0.0096,0.0514,-1.5185,-1.5182,-1.2900,-1.2731,-3069.7411,-74.6094,-706.8897,2495.0653,1418.9023,972.5701,1020.9714,954.4914,0.3120,-33.2566,25.0660,-13.6299,28.5579,-76.0749,-91.9834,89.1664,78.7063,1.8577,-0.2547,13733.9115,0.2368,0.8246,0.3779,0.3406,0.7843,108.4939,0.0000
13.0000,corner,173.8417,6.4872,19.5598,68.4918,19.0341,-0.1991,10.0324,0.3500,0.0000,1.5000,2,3890.1003,4108.1303,2575.5122,3645.8695,3404.4003,-0.0508,-0.0006,-0.0094,0.0509,-1.5316,-1.5312,-1.3016,-1.2846,-3057.7314,-71.1977,-693.7992,2481.6071,1432.7212,978.6915,1029.8322,962.3230,0.3147,-33.5207,25.2947,-13.8063,28.7432,-75.7591,-91.6488,88.8360,78.3918,1.8735,-0.2552,13733.9123,0.2383,0.8220,0.3810,0.3406,0.7818,108.7046,0.0000
13.1000,corner,175.6411,7.1233,20.5252,68.8325,19.1286,-0.2042,10.0625,0.3500,0.0000,1.5000,2,3908.8602,4114.9364,2570.0783,3646.0648,3402.8336,-0.0503,-0.0006,-0.0092,0.0505,-1.5448,-1.5443,-1.3133,-1.2962,-3045.5439,-68.1441,-680.6405,2468.1585,1446.5822,984.7861,1038.7007,970.1539,0.3174,-33.7847,25.5236,-13.9828,28.9287,-75.4481,-91.3164,88.5075,78.0806,1.8893,-0.2557,13733.9130,0.2398,0.8194,0.3841,0.3406,0.7793,108.9176,0.0000
13.2000,corner,177.4385,7.7927,21.4938,69.1732,19.2231,-0.2094,10.0923,0.3500,0.0000,1.5000,2,3927.6286,4121.7353,2564.6413,3646.2638,3401.2731,-0.0498,-0.0005,-0.0090,0.0500,-1.5581,-1.5573,-1.3250,-1.3077,-3033.1768,-65.3929,-667.4192,2454.7202,1460.4841,990.8535,1047.5749,977.9821,0.3201,-34.0488,25.7526,-14.1592,29.1144,-75.1400,-90.9848,88.1794,77.7712,1.9051,-0.2562,13733.9134,0.2413,0.8168,0.3872,0.3407,0.7769,109.1330,0.0000
13.3000,corner,179.2333,8.4955,22.4657,69.5139,19.3176,-0.2147,10.1217,0.3500,0.0000,1.5000,2,3946.4050,4128.5302,2559.2060,3646.4626,3399.7151,-0.0493,-0.0005,-0.0088,0.0496,-1.5714,-1.5704,-1.3367,-1.3193,-3020.6275,-62.8996,-654.1399,2441.2934,1474.4252,996.8931,1056.4528,985.8057,0.3228,-34.3130,25.9817,-14.3357,29.3003,-74.8336,-90.6527,87.8507,77.4625,1.9209,-0.2567,13733.9138,0.2429,0.8142,0.3903,0.3408,0.7744,109.3508,0.0000
13.4000,corner,181.0247,9.2319,23.4407,69.8546,19.4121,-0.2199,10.1508,0.3500,0.0000,1.5000,2,3965.1890,4135.3235,2553.7765,3646.6577,3398.1564,-0.0489,-0.0004,-0.0086,0.0492,-1.5846,-1.5835,-1.3484,-1.3309,-3007.8934,-60.6279,-640.8065,2427.8795,1488.4037,1002.9042,1065.3323,993.6232,0.3255,-34.5771,26.2108,-14.5122,29.4862,-74.5277,-90.3190,87.5203,77.1534,1.9367,-0.2572,13733.9141,0.2445,0.8115,0.3934,0.3409,0.7720,109.5710,0.0000
13.5000,corner,182.8122,10.0021,24.4188,70.1953,19.5067,-0.2253,10.1796,0.3500,0.0000,1.5000,2,3983.9803,4142.1172,2548.3562,3646.8463,3396.5945,-0.0484,-0.0004,-0.0084,0.0488,-1.5980,-1.5967,-1.3601,-1.3425,-2994.9719,-58.5480,-627.4228,2414.4804,1502.4180,1008.8863,1074.2120,1001.4332,0.3283,-34.8412,26.4399,-14.6888,29.6722,-74.2214,-89.9829,87.1875,76.8431,1.9525,-0.2577,13733.9143,0.2461,0.8089,0.3966,0.3411,0.7696,109.7936,0.0000
13.6000,corner,184.5951,10.8062,25.4000,70.5360,19.6012,-0.2307,10.2079,0.3500,0.0000,1.5000,2,4002.7785,4148.9130,2542.9482,3647.0261,3395.0271,-0.0479,-0.0004,-0.0082,0.0484,-1.6113,-1.6099,-1.3718,-1.3540,-2981.8602,-56.6354,-613.9921,2401.0981,1516.4666,1014.8389,1083.0902,1009.2342,0.3310,-35.1053,26.6690,-14.8654,29.8581,-73.9138,-89.6436,86.8515,76.5308,1.9683,-0.2582,13733.9144,0.2477,0.8063,0.3997,0.3414,0.7672,110.0187,0.0000
13.7000,corner,186.3727,11.6444,26.3843,70.8765,19.6957,-0.2361,10.2362,0.3500,0.0000,1.5000,2,4021.5342,4155.7811,2537.6369,3647.1122,3393.3832,-0.0474,-0.0003,-0.0080,0.0480,-1.6247,-1.6231,-1.3835,-1.3656,-2968.6573,-54.8676,-601.1318,2387.3461,1530.5621,1020.7819,1091.9575,1017.0195,0.3337,-35.3685,26.8990,-15.0431,30.0430,-73.5920,-89.2831,86.4886,76.1982,1.9842,-0.2586,13733.9134,0.2493,0.8037,0.4028,0.3418,0.7647,110.2437,0.0000
13.8000,corner,188.1442,12.5169,27.3717,71.2168,19.7901,-0.2416,10.2643,0.3500,0.0000,1.5000,2,4040.2581,4162.6544,2532.3264,3647.1938,3391.7384,-0.0469,-0.0003,-0.0078,0.0475,-1.6381,-1.6363,-1.3953,-1.3773,-2955.3353,-53.2463,-588.3625,2373.3663,1544.7043,1026.7056,1100.8375,1024.8096,0.3364,-35.6304,27.1310,-15.2227,30.2266,-73.2831,-88.9326,86.1395,75.8816,2.0000,-0.2590,13733.9130,0.2509,0.8011,0.4060,0.3422,0.7622,110.4689,0.0000
13.9000,corner,189.9090,13.4238,28.3622,71.5567,19.8844,-0.2471,10.2921,0.3500,0.0000,1.5000,2,4058.9705,4169.5417,2527.0174,3647.2707,3390.0830,-0.0465,-0.0003,-0.0076,0.0471,-1.6515,-1.6496,-1.4071,-1.3889,-2941.8590,-51.7387,-575.5588,2359.4059,1558.8887,1032.5991,1109.7334,1032.6046,0.3391,-35.8916,27.3640,-15.4032,30.4096,-72.9773,-88.5862,85.7959,75.5691,2.0159,-0.2593,13733.9128,0.2526,0.7985,0.4091,0.3428,0.7597,110.6952,0.0000
14.0000,corner,191.6664,14.3651,29.3556,71.8963,19.9786,-0.2527,10.3196,0.3500,0.0000,1.5000,2,4077.6711,4176.4405,2521.7163,3647.3404,3388.4155,-0.0460,-0.0003,-0.0074,0.0467,-1.6650,-1.6629,-1.4189,-1.4006,-2928.2213,-50.3320,-562.7231,2345.4672,1573.1101,1038.4611,1118.6352,1040.3951,0.3418,-36.1524,27.5973,-15.5841,30.5923,-72.6705,-88.2398,85.4531,75.2555,2.0317,-0.2596,13733.9128,0.2542,0.7959,0.4123,0.3433,0.7572,110.9232,0.0000
