time,phase,pos_x,pos_y,yaw_deg,speed_kph,vx_body,vy_body,yaw_rate_dps,throttle,brake,steer_deg,gear,rpm,fz_fl,fz_fr,fz_rl,fz_rr,sr_fl,sr_fr,sr_rl,sr_rr,sa_fl_deg,sa_fr_deg,sa_rl_deg,sa_rr_deg,fx_fl,fx_fr,fx_rl,fx_rr,fy_fl,fy_fr,fy_rl,fy_rr,lat_accel_g,susp_defl_fl_mm,susp_defl_fr_mm,susp_defl_rl_mm,susp_defl_rr_mm,susp_vel_fl,susp_vel_fr,susp_vel_rl,susp_vel_rr,roll_deg,pitch_deg
0.0000,accel,0.0000,0.0000,0.0000,0.0000,0.0000,0.0000,0.0000,0.0000,0.0000,0.0000,1,1000.0000,3776.8500,3776.8500,3090.1500,3090.1500,0.0000,0.0000,0.0000,0.0000,0.0000,0.0000,0.0000,0.0000,0.0000,0.0000,0.0000,0.0000,0.0000,0.0000,0.0000,0.0000,0.0000,0.0000,0.0000,0.0000,0.0000,0.0000,0.0000,0.0000,0.0000,0.0000,0.0000
0.1000,accel,0.0000,0.0000,0.0000,0.0189,0.0039,0.0000,0.0000,0.0667,0.0000,0.0000,1,1000.0000,3719.9859,3719.9859,3147.1123,3147.1123,0.0008,0.0008,0.0027,0.0027,0.0000,0.0000,0.0000,0.0000,-1.0416,-1.0416,112.8544,112.8544,0.0000,0.0000,0.0000,0.0000,0.0000,-0.1181,-0.1181,0.1924,0.1924,-4.1916,-4.1916,5.1645,5.1645,0.0000,-0.0068
0.2000,accel,0.0018,0.0000,0.0000,0.1124,0.0284,0.0000,0.0000,0.1333,0.0000,0.0000,1,1000.0000,3697.7662,3697.7662,3169.3250,3169.3250,0.0007,0.0007,0.0048,0.0048,0.0000,0.0000,0.0000,0.0000,-2.8329,-2.8329,243.5492,243.5492,0.0000,0.0000,0.0000,0.0000,0.0000,-0.6790,-0.6790,0.8527,0.8527,-6.5338,-6.5338,7.4472,7.4472,0.0000,-0.0338
0.3000,accel,0.0072,0.0000,0.0000,0.2736,0.0708,0.0000,0.0000,0.2000,0.0000,0.0000,1,1000.0000,3681.7075,3681.7075,3185.2874,3185.2874,0.0007,0.0007,0.0081,0.0081,0.0000,0.0000,0.0000,0.0000,-4.6947,-4.6947,440.7257,440.7257,0.0000,0.0000,0.0000,0.0000,0.0000,-1.3894,-1.3894,1.6337,1.6337,-6.0479,-6.0479,6.0221,6.0221,0.0000,-0.0666
0.4000,accel,0.0179,0.0000,0.0000,0.5292,0.1314,0.0000,0.0000,0.2667,0.0000,0.0000,1,1000.0000,3289.5465,3289.5465,3579.6346,3579.6346,-0.0027,-0.0027,0.0251,0.0251,0.0000,0.0000,0.0000,0.0000,-218.2448,-218.2448,1529.8298,1529.8298,0.0000,0.0000,0.0000,0.0000,0.0000,-0.9855,-0.9855,3.7399,3.7399,-120.9785,-120.9785,142.6992,142.6992,0.0000,-0.1041
0.5000,accel,0.0353,0.0000,0.0000,0.6924,0.2329,0.0000,0.0000,0.3333,0.0000,0.0000,1,1000.0000,3191.2448,3191.2448,3676.8799,3676.8799,0.0060,0.0060,-0.2299,-0.2299,0.0000,0.0000,0.0000,0.0000,311.6080,311.6080,-3717.3190,-3717.3190,0.0000,0.0000,0.0000,0.0000,0.0000,-1.8196,-1.8196,6.4364,6.4364,-143.1074,-143.1074,154.6323,154.6323,0.0000,-0.1819
0.6000,accel,0.0627,0.0000,0.0000,1.0318,0.3391,0.0000,0.0000,0.4000,0.0000,0.0000,1,1000.0000,3440.5571,3440.5571,3422.0961,3422.0961,-0.0148,-0.0148,-0.3251,-0.3251,0.0000,0.0000,0.0000,0.0000,-994.0602,-994.0602,-3411.8652,-3411.8652,0.0000,0.0000,0.0000,0.0000,0.0000,-1.7064,-1.7064,8.6423,8.6423,-72.6838,-72.6838,30.6595,30.6595,0.0000,-0.2281
0.7000,accel,0.1012,0.0000,0.0000,1.3919,0.4646,0.0000,0.0000,0.4667,0.0000,0.0000,1,1000.0000,3445.4665,3445.4665,3415.9562,3415.9562,-0.0781,-0.0781,-0.3316,-0.3316,0.0000,0.0000,0.0000,0.0000,-3148.4539,-3148.4539,-3402.4643,-3402.4643,0.0000,0.0000,0.0000,0.0000,0.0000,-2.3838,-2.3838,10.2213,10.2213,-66.4428,-66.4428,12.4135,12.4135,0.0000,-0.2778
0.8000,accel,0.1521,0.0000,0.0000,2.0432,0.5649,0.0000,0.0000,0.5333,0.0000,0.0000,1,1000.0000,3586.6682,3586.6682,3274.1838,3274.1838,0.1574,0.1574,-0.1434,-0.1434,0.0000,0.0000,0.0000,0.0000,3526.8590,3526.8590,-3306.4425,-3306.4425,0.0000,0.0000,0.0000,0.0000,0.0000,-1.8114,-1.8114,9.9113,9.9113,-30.1874,-30.1874,-29.4251,-29.4251,0.0000,-0.2583
0.9000,accel,0.2160,0.0000,0.0000,2.5797,0.7007,0.0000,0.0000,0.6000,0.0000,0.0000,1,1000.0000,2612.2887,2612.2887,4258.2274,4258.2274,-0.2221,-0.2221,0.5872,0.5872,0.0000,0.0000,0.0000,0.0000,-2643.5583,-2643.5583,3981.7490,3981.7490,0.0000,0.0000,0.0000,0.0000,0.0000,-2.0014,-2.0014,10.8844,10.8844,-307.2247,-307.2247,342.6905,342.6905,0.0000,-0.2840
1.0000,accel,0.2959,0.0000,0.0000,3.2739,0.8317,0.0000,0.0000,0.6667,0.0000,0.0000,1,1000.0000,3904.4182,3904.4182,2960.1107,2960.1107,0.4774,0.4774,0.4027,0.4027,0.0000,0.0000,0.0000,0.0000,3697.3759,3697.3759,2830.4269,2830.4269,0.0000,0.0000,0.0000,0.0000,0.0000,-2.6568,-2.6568,9.5916,9.5916,93.2912,93.2912,-116.8771,-116.8771,0.0000,-0.2699
1.1000,accel,0.3940,0.0000,0.0000,3.8821,1.0613,0.0000,0.0000,0.7333,0.0000,0.0000,1,1000.0000,2606.3506,2606.3506,4264.2326,4264.2326,-0.2887,-0.2887,0.4568,0.4568,0.0000,0.0000,0.0000,0.0000,-2612.7596,-2612.7596,4048.5070,4048.5070,0.0000,0.0000,0.0000,0.0000,0.0000,-4.6509,-4.6509,12.7891,12.7891,-289.9962,-289.9962,326.0461,326.0461,0.0000,-0.3843
1.2000,accel,0.5112,0.0000,0.0000,4.5391,1.2453,0.0000,0.0000,0.8000,0.0000,0.0000,1,1288.1816,2615.8796,2615.8796,4254.0890,4254.0890,-0.1685,-0.1685,0.6237,0.6237,0.0000,0.0000,0.0000,0.0000,-2654.0865,-2654.0865,3962.4590,3962.4590,0.0000,0.0000,0.0000,0.0000,0.0000,-4.5761,-4.5761,13.2014,13.2014,-287.8081,-287.8081,317.8660,317.8660,0.0000,-0.3918
1.3000,accel,0.6521,0.0000,0.0000,5.3947,1.4997,0.0000,0.0000,0.8667,0.0000,0.0000,1,1000.0000,3480.9555,3480.9555,3379.4637,3379.4637,-0.0940,-0.0940,0.3773,0.3773,0.0000,0.0000,0.0000,0.0000,-3338.5161,-3338.5161,3242.8927,3242.8927,0.0000,0.0000,0.0000,0.0000,0.0000,-6.2652,-6.2652,14.9352,14.9352,-28.5784,-28.5784,-35.2304,-35.2304,0.0000,-0.4672
1.4000,accel,0.8175,0.0000,0.0000,6.4216,1.7827,0.0000,0.0000,0.9333,0.0000,0.0000,1,1000.0000,3470.1271,3470.1271,3391.3496,3391.3496,0.1414,0.1414,-0.1029,-0.1029,0.0000,0.0000,0.0000,0.0000,3397.6834,3397.6834,-3309.1692,-3309.1692,0.0000,0.0000,0.0000,0.0000,0.0000,-9.2310,-9.2310,16.5077,16.5077,-10.4879,-10.4879,-43.0666,-43.0666,0.0000,-0.5672
1.5000,accel,1.0112,0.0000,0.0000,7.6544,2.0480,0.0000,0.0000,1.0000,0.0000,0.0000,1,1399.2522,3509.1680,3509.1680,3352.6393,3352.6393,0.3240,0.3240,0.4632,0.4632,0.0000,0.0000,0.0000,0.0000,3393.9859,3393.9859,3180.4287,3180.4287,0.0000,0.0000,0.0000,0.0000,0.0000,-9.7331,-9.7331,16.8091,16.8091,5.9546,5.9546,-56.2797,-56.2797,0.0000,-0.5849
1.6000,accel,1.2393,0.0000,0.0000,8.7120,2.4018,0.0000,0.0000,1.0000,0.0000,0.0000,1,1843.6179,2586.9992,2586.9992,4282.4060,4282.4060,-0.5801,-0.5801,0.5325,0.5325,0.0000,0.0000,0.0000,0.0000,-2498.5099,-2498.5099,4028.8075,4028.8075,0.0000,0.0000,0.0000,0.0000,0.0000,-11.2173,-11.2173,18.8168,18.8168,-248.6223,-248.6223,273.0382,273.0382,0.0000,-0.6619
1.7000,accel,1.4990,0.0000,0.0000,9.9809,2.6940,0.0000,0.0000,1.0000,0.0000,0.0000,1,1777.2372,3441.8158,3441.8158,3420.2280,3420.2280,0.2863,0.2863,0.4569,0.4569,0.0000,0.0000,0.0000,0.0000,3348.2910,3348.2910,3247.1621,3247.1621,0.0000,0.0000,0.0000,0.0000,0.0000,-11.0791,-11.0791,17.6087,17.6087,-5.3761,-5.3761,-42.6799,-42.6799,0.0000,-0.6322
1.8000,accel,1.7941,0.0000,0.0000,11.1656,3.0259,0.0000,0.0000,1.0000,0.0000,0.0000,1,2277.3865,4911.8416,4911.8416,1966.3783,1966.3783,0.0891,0.0891,0.5276,0.5276,0.0000,0.0000,0.0000,0.0000,4506.4497,4506.4497,1850.9972,1850.9972,0.0000,0.0000,0.0000,0.0000,0.0000,-10.1971,-10.1971,17.9611,17.9611,571.6631,571.6631,-460.5827,-460.5827,0.0000,-0.6205
1.9000,accel,2.1265,0.0000,0.0000,12.7569,3.5063,0.0000,0.0000,1.0000,0.0000,0.0000,1,1888.1205,3480.5038,3480.5038,3383.2635,3383.2635,-0.0011,-0.0011,0.3388,0.3388,0.0000,0.0000,0.0000,0.0000,-127.2873,-127.2873,3264.8942,3264.8942,0.0000,0.0000,0.0000,0.0000,0.0000,-15.9850,-15.9850,22.4923,22.4923,57.0078,57.0078,-88.1241,-88.1241,0.0000,-0.8479
2.0000,accel,2.5018,0.0000,0.0000,14.1333,3.8820,0.0000,0.0000,1.0000,0.0000,0.0000,1,1416.3855,3786.6561,3786.6561,3080.4704,3080.4704,0.0374,0.0374,0.0279,0.0279,0.0000,0.0000,0.0000,0.0000,2247.6430,2247.6430,1444.6140,1444.6140,0.0000,0.0000,0.0000,0.0000,0.0000,-14.9877,-14.9877,21.5059,21.5059,169.4958,169.4958,-167.5903,-167.5903,0.0000,-0.8042
2.1000,accel,2.9123,0.0000,0.0000,15.4195,4.2695,0.0000,0.0000,1.0000,0.0000,0.0000,1,1659.7488,2690.3336,2690.3336,4178.2277,4178.2277,-0.3897,-0.3897,0.0870,0.0870,0.0000,0.0000,0.0000,0.0000,-2657.8269,-2657.8269,3810.5365,3810.5365,0.0000,0.0000,0.0000,0.0000,0.0000,-15.8547,-15.8547,21.7614,21.7614,-185.9739,-185.9739,201.9210,201.9210,0.0000,-0.8289
2.2000,accel,3.3589,0.0000,0.0000,16.8797,4.6733,0.0000,0.0000,1.0000,0.0000,0.0000,1,2887.8850,2682.5525,2682.5525,4185.4276,4185.4276,-0.3184,-0.3184,0.4264,0.4264,0.0000,0.0000,0.0000,0.0000,-2677.1810,-2677.1810,3989.3210,3989.3210,0.0000,0.0000,0.0000,0.0000,0.0000,-17.3058,-17.3058,23.4325,23.4325,-177.8324,-177.8324,188.0897,188.0897,0.0000,-0.8977
2.3000,accel,3.8549,0.0000,0.0000,18.6662,5.1687,0.0000,0.0000,1.0000,0.0000,0.0000,1,3461.5968,2630.3309,2630.3309,4238.1108,4238.1108,-0.2904,-0.2904,0.4709,0.4709,0.0000,0.0000,0.0000,0.0000,-2636.1214,-2636.1214,4016.5631,4016.5631,0.0000,0.0000,0.0000,0.0000,0.0000,-20.0505,-20.0505,25.5609,25.5609,-173.1479,-173.1479,187.8798,187.8798,0.0000,-1.0051
2.4000,accel,4.4000,0.0000,0.0000,20.4163,5.6565,0.0000,0.0000,1.0000,0.0000,0.0000,1,5329.9119,2660.0441,2660.0441,4207.9228,4207.9228,-0.2597,-0.2597,0.6240,0.6240,0.0000,0.0000,0.0000,0.0000,-2678.1617,-2678.1617,3919.3492,3919.3492,0.0000,0.0000,0.0000,0.0000,0.0000,-20.9249,-20.9249,26.2951,26.2951,-158.4123,-158.4123,168.4619,168.4619,0.0000,-1.0406
2.5000,accel,4.9936,0.0000,0.0000,22.0727,6.1233,0.0000,0.0000,1.0000,0.0000,0.0000,2,2838.9165,2989.5491,2989.5491,3874.7984,3874.7984,-0.1103,-0.1103,0.5688,0.5688,0.0000,0.0000,0.0000,0.0000,-2948.0666,-2948.0666,3630.4969,3630.4969,0.0000,0.0000,0.0000,0.0000,0.0000,-20.5461,-20.5461,25.6742,25.6742,-66.9741,-66.9741,41.4209,41.4209,0.0000,-1.0185
2.6000,accel,5.6193,0.0000,0.0000,22.4257,6.3123,0.0000,0.0000,1.0000,0.0000,0.0000,2,1020.1767,2659.5211,2659.5211,4208.8297,4208.8297,-0.2277,-0.2277,-0.1909,-0.1909,0.0000,0.0000,0.0000,0.0000,-2689.5030,-2689.5030,-4270.8688,-4270.8688,0.0000,0.0000,0.0000,0.0000,0.0000,-10.7230,-10.7230,18.6262,18.6262,-231.4323,-231.4323,245.5140,245.5140,0.0000,-0.6468
2.7000,accel,6.2462,0.0000,0.0000,22.6491,6.2895,0.0000,0.0000,1.0000,0.0000,0.0000,2,1521.2593,3297.7063,3297.7063,3567.1611,3567.1611,-0.2018,-0.2018,0.1733,0.1733,0.0000,0.0000,0.0000,0.0000,-3343.9999,-3343.9999,3513.1945,3513.1945,0.0000,0.0000,0.0000,0.0000,0.0000,-3.7050,-3.7050,9.6248,9.6248,-99.2227,-99.2227,78.8603,78.8603,0.0000,-0.2937
2.8000,accel,6.8860,0.0000,0.0000,23.2248,6.5008,0.0000,0.0000,1.0000,0.0000,0.0000,2,1274.9994,2573.7218,2573.7218,4299.1792,4299.1792,-0.2169,-0.2169,-0.0189,-0.0189,0.0000,0.0000,0.0000,0.0000,-2606.0651,-2606.0651,-1539.4832,-1539.4832,0.0000,0.0000,0.0000,0.0000,0.0000,-6.3381,-6.3381,12.2045,12.2045,-287.2673,-287.2673,345.8702,345.8702,0.0000,-0.4086
2.9000,accel,7.5439,0.0000,0.0000,24.0184,6.5916,0.0000,0.0000,1.0000,0.0000,0.0000,2,1752.4448,4719.1376,4719.1376,2154.8211,2154.8211,0.1551,0.1551,0.2480,0.2480,0.0000,0.0000,0.0000,0.0000,4638.5009,4638.5009,2108.5352,2108.5352,0.0000,0.0000,0.0000,0.0000,0.0000,-2.4664,-2.4664,9.7554,9.7554,417.2749,417.2749,-348.1298,-348.1298,0.0000,-0.2693
3.0000,accel,8.2202,0.0000,0.0000,24.6427,6.8310,0.0000,0.0000,1.0000,0.0000,0.0000,2,1286.7704,3764.5238,3764.5238,3098.4676,3098.4676,0.1686,0.1686,-0.0576,-0.0576,0.0000,0.0000,0.0000,0.0000,3706.6017,3706.6017,-2506.5339,-2506.5339,0.0000,0.0000,0.0000,0.0000,0.0000,-4.8223,-4.8223,12.4298,12.4298,58.9880,58.9880,-97.6192,-97.6192,0.0000,-0.3802
3.1000,accel,8.9160,0.0000,0.0000,25.4253,7.0632,0.0000,0.0000,1.0000,0.0000,0.0000,2,1468.0448,2581.3785,2581.3785,4289.3926,4289.3926,-0.1854,-0.1854,0.0381,0.0381,0.0000,0.0000,0.0000,0.0000,-2619.9302,-2619.9302,2580.8196,2580.8196,0.0000,0.0000,0.0000,0.0000,0.0000,-6.6978,-6.6978,14.3641,14.3641,-282.5105,-282.5105,320.3597,320.3597,0.0000,-0.4641
3.2000,accel,9.6317,0.0000,0.0000,26.1160,7.1748,0.0000,0.0000,1.0000,0.0000,0.0000,2,1832.8173,4677.8121,4677.8121,2195.3347,2195.3347,0.1266,0.1266,0.2174,0.2174,0.0000,0.0000,0.0000,0.0000,4544.4199,4544.4199,2156.9462,2156.9462,0.0000,0.0000,0.0000,0.0000,0.0000,-3.1585,-3.1585,11.1382,11.1382,407.6655,407.6655,-346.4318,-346.4318,0.0000,-0.3151
3.3000,accel,10.3667,0.0000,0.0000,26.9099,7.3976,0.0000,0.0000,1.0000,0.0000,0.0000,2,1656.0053,3816.5317,3816.5317,3048.2029,3048.2029,0.1034,0.1034,0.1069,0.1069,0.0000,0.0000,0.0000,0.0000,3612.2556,3612.2556,2901.0788,2901.0788,0.0000,0.0000,0.0000,0.0000,0.0000,-5.3177,-5.3177,11.6445,11.6445,84.7457,84.7457,-106.3713,-106.3713,0.0000,-0.3738
3.4000,accel,11.1216,0.0000,0.0000,27.5180,7.6143,0.0000,0.0000,1.0000,0.0000,0.0000,2,1651.0056,4133.4094,4133.4094,2734.6016,2734.6016,0.0019,0.0019,0.0780,0.0780,0.0000,0.0000,0.0000,0.0000,84.6340,84.6340,2415.8409,2415.8409,0.0000,0.0000,0.0000,0.0000,0.0000,-5.6302,-5.6302,12.7627,12.7627,214.6215,214.6215,-203.9590,-203.9590,0.0000,-0.4053
3.5000,accel,11.8960,0.0000,0.0000,28.2397,7.7969,0.0000,0.0000,1.0000,0.0000,0.0000,1,2964.4413,4404.1768,4404.1768,2466.3147,2466.3147,0.0258,0.0258,0.0681,0.0681,0.0000,0.0000,0.0000,0.0000,1927.1671,1927.1671,2074.1710,2074.1710,0.0000,0.0000,0.0000,0.0000,0.0000,-4.7128,-4.7128,12.4871,12.4871,313.7545,313.7545,-278.6437,-278.6437,0.0000,-0.3790
3.6000,accel,12.6771,0.0000,0.0000,28.1150,7.8177,0.0000,0.0000,1.0000,0.0000,0.0000,1,3033.4657,3594.7417,3594.7417,3266.5707,3266.5707,-0.1498,-0.1498,0.0869,0.0869,0.0000,0.0000,0.0000,0.0000,-3636.9785,-3636.9785,2978.2113,2978.2113,0.0000,0.0000,0.0000,0.0000,0.0000,-0.5284,-0.5284,8.0216,8.0216,-37.0453,-37.0453,-18.1029,-18.1029,0.0000,-0.1884
3.7000,accel,13.4584,0.0000,0.0000,28.1166,7.8164,0.0000,0.0000,1.0000,0.0000,0.0000,1,3760.7788,3621.7407,3621.7407,3242.2746,3242.2746,-0.1634,-0.1634,0.2636,0.2636,0.0000,0.0000,0.0000,0.0000,-3672.9887,-3672.9887,3165.2198,3165.2198,0.0000,0.0000,0.0000,0.0000,0.0000,0.1044,0.1044,4.0223,4.0223,-33.8516,-33.8516,4.9312,4.9312,0.0000,-0.0863
3.8000,accel,14.2686,0.0000,0.0000,29.9210,8.2995,0.0000,0.0000,1.0000,0.0000,0.0000,1,5753.9770,2818.9094,2818.9094,4050.1956,4050.1956,-0.1225,-0.1225,0.4890,0.4890,0.0000,0.0000,0.0000,0.0000,-2814.4796,-2814.4796,3829.9860,3829.9860,0.0000,0.0000,0.0000,0.0000,0.0000,-11.9666,-11.9666,17.0107,17.0107,-177.0101,-177.0101,198.2150,198.2150,0.0000,-0.6386
3.9000,accel,15.1279,0.0000,0.0000,31.6808,8.7885,0.0000,0.0000,1.0000,0.0000,0.0000,1,6654.6627,2822.3548,2822.3548,4045.0018,4045.0018,-0.1151,-0.1151,0.5321,0.5321,0.0000,0.0000,0.0000,0.0000,-2798.7670,-2798.7670,3805.6586,3805.6586,0.0000,0.0000,0.0000,0.0000,0.0000,-17.3399,-17.3399,22.4574,22.4574,-137.6451,-137.6451,141.6710,141.6710,0.0000,-0.8770
4.0000,accel,16.0360,0.0000,0.0000,33.4386,9.2762,0.0000,0.0000,1.0000,0.0000,0.0000,1,6859.1787,2805.0962,2805.0962,4061.7435,4061.7435,-0.1114,-0.1114,0.5209,0.5209,0.0000,0.0000,0.0000,0.0000,-2770.0454,-2770.0454,3826.3813,3826.3813,0.0000,0.0000,0.0000,0.0000,0.0000,-19.6066,-19.6066,24.7608,24.7608,-126.3851,-126.3851,125.3332,125.3332,0.0000,-0.9777
4.1000,accel,16.9929,0.0000,0.0000,35.1992,9.7645,0.0000,0.0000,1.0000,0.0000,0.0000,1,6893.3968,2783.6676,2783.6676,4083.1192,4083.1192,-0.1078,-0.1078,0.4981,0.4981,0.0000,0.0000,0.0000,0.0000,-2736.1549,-2736.1549,3856.8526,3856.8526,0.0000,0.0000,0.0000,0.0000,0.0000,-20.6107,-20.6107,25.7727,25.7727,-125.3355,-125.3355,123.7644,123.7644,0.0000,-1.0221
4.2000,accel,17.9986,0.0000,0.0000,36.9635,10.2538,0.0000,0.0000,1.0000,0.0000,0.0000,1,6886.0151,2766.0592,2766.0592,4100.8127,4100.8127,-0.1030,-0.1030,0.4724,0.4724,0.0000,0.0000,0.0000,0.0000,-2699.3311,-2699.3311,3885.7200,3885.7200,0.0000,0.0000,0.0000,0.0000,0.0000,-21.0943,-21.0943,26.2393,26.2393,-126.9127,-126.9127,126.1763,126.1763,0.0000,-1.0431
4.3000,accel,19.0534,0.0000,0.0000,38.7317,10.7443,0.0000,0.0000,1.0000,0.0000,0.0000,1,6866.1378,2758.9830,2758.9830,4107.9384,4107.9384,-0.0965,-0.0965,0.4456,0.4456,0.0000,0.0000,0.0000,0.0000,-2660.6052,-2660.6052,3905.6847,3905.6847,0.0000,0.0000,0.0000,0.0000,0.0000,-21.3637,-21.3637,26.4664,26.4664,-127.0099,-127.0099,126.7557,126.7557,0.0000,-1.0540
4.4000,accel,20.1572,0.0000,0.0000,40.5053,11.2363,0.0000,0.0000,1.0000,0.0000,0.0000,1,6841.0367,2760.2588,2760.2588,4106.6589,4106.6589,-0.0894,-0.0894,0.4181,0.4181,0.0000,0.0000,0.0000,0.0000,-2617.4354,-2617.4354,3918.5961,3918.5961,0.0000,0.0000,0.0000,0.0000,0.0000,-21.5507,-21.5507,26.5894,26.5894,-125.3096,-125.3096,125.0131,125.0131,0.0000,-1.0609
4.5000,accel,21.3104,0.0000,0.0000,42.2855,11.7301,0.0000,0.0000,1.0000,0.0000,0.0000,2,6813.1081,2764.8754,2764.8754,4102.0248,4102.0248,-0.0824,-0.0824,0.3900,0.3900,0.0000,0.0000,0.0000,0.0000,-2566.8765,-2566.8765,3929.2259,3929.2259,0.0000,0.0000,0.0000,0.0000,0.0000,-21.7115,-21.7115,26.6690,26.6690,-122.8419,-122.8419,122.3644,122.3644,0.0000,-1.0662
4.6000,accel,22.4951,0.0000,0.0000,42.6427,11.8529,0.0000,0.0000,1.0000,0.0000,0.0000,2,2528.8995,3551.6530,3551.6530,3311.6497,3311.6497,-0.0832,-0.0832,0.0630,0.0630,0.0000,0.0000,0.0000,0.0000,-3305.9971,-3305.9971,2693.8098,2693.8098,0.0000,0.0000,0.0000,0.0000,0.0000,-10.0856,-10.0856,16.0007,16.0007,26.4729,26.4729,-62.2165,-62.2165,0.0000,-0.5749
4.7000,accel,23.6799,0.0000,0.0000,42.6268,11.8511,0.0000,0.0000,1.0000,0.0000,0.0000,2,2519.5292,3593.2275,3593.2275,3270.6393,3270.6393,-0.0919,-0.0919,0.0597,0.0597,0.0000,0.0000,0.0000,0.0000,-3429.6622,-3429.6622,2593.1170,2593.1170,0.0000,0.0000,0.0000,0.0000,0.0000,-3.8469,-3.8469,7.9747,7.9747,-13.7745,-13.7745,-16.6055,-16.6055,0.0000,-0.2605
4.8000,accel,24.8796,0.0000,0.0000,43.5703,12.1014,0.0000,0.0000,1.0000,0.0000,0.0000,2,2601.0837,3167.8992,3167.8992,3699.2625,3699.2625,-0.0868,-0.0868,0.0699,0.0699,0.0000,0.0000,0.0000,0.0000,-2982.7173,-2982.7173,3143.6757,3143.6757,0.0000,0.0000,0.0000,0.0000,0.0000,-7.6871,-7.6871,11.8073,11.8073,-107.8670,-107.8670,109.8757,109.8757,0.0000,-0.4296
4.9000,accel,26.1050,0.0000,0.0000,44.4992,12.3597,0.0000,0.0000,1.0000,0.0000,0.0000,2,2639.2139,3128.5706,3128.5706,3738.6393,3738.6393,-0.0840,-0.0840,0.0638,0.0638,0.0000,0.0000,0.0000,0.0000,-2920.1714,-2920.1714,3057.8767,3057.8767,0.0000,0.0000,0.0000,0.0000,0.0000,-9.5965,-9.5965,13.5767,13.5767,-105.4649,-105.4649,107.9328,107.9328,0.0000,-0.5107
5.0000,accel,27.3562,0.0000,0.0000,45.4367,12.6203,0.0000,0.0000,1.0000,0.0000,0.0000,2,2685.7030,3112.3399,3112.3399,3754.8280,3754.8280,-0.0809,-0.0809,0.0606,0.0606,0.0000,0.0000,0.0000,0.0000,-2874.9069,-2874.9069,2999.2980,2999.2980,0.0000,0.0000,0.0000,0.0000,0.0000,-10.4768,-10.4768,14.4309,14.4309,-103.8144,-103.8144,105.8661,105.8661,0.0000,-0.5489
5.1000,accel,28.6336,0.0000,0.0000,46.3849,12.8837,0.0000,0.0000,1.0000,0.0000,0.0000,2,2735.2225,3102.7922,3102.7922,3764.3276,3764.3276,-0.0778,-0.0778,0.0584,0.0584,0.0000,0.0000,0.0000,0.0000,-2832.5112,-2832.5112,2951.8354,2951.8354,0.0000,0.0000,0.0000,0.0000,0.0000,-10.9239,-10.9239,14.9045,14.9045,-103.3487,-103.3487,104.9305,104.9305,0.0000,-0.5692
5.2000,accel,29.9375,0.0000,0.0000,47.3446,13.1504,0.0000,0.0000,1.0000,0.0000,0.0000,2,2785.9717,3094.3375,3094.3375,3772.7544,3772.7544,-0.0748,-0.0748,0.0564,0.0564,0.0000,0.0000,0.0000,0.0000,-2788.1283,-2788.1283,2906.8067,2906.8067,0.0000,0.0000,0.0000,0.0000,0.0000,-11.1928,-11.1928,15.2191,15.2191,-103.8432,-103.8432,105.1549,105.1549,0.0000,-0.5820
5.3000,accel,31.2683,0.0000,0.0000,48.3161,13.4202,0.0000,0.0000,1.0000,0.0000,0.0000,2,2837.8589,3086.5755,3086.5755,3780.4985,3780.4985,-0.0717,-0.0717,0.0546,0.0546,0.0000,0.0000,0.0000,0.0000,-2741.2476,-2741.2476,2864.3325,2864.3325,0.0000,0.0000,0.0000,0.0000,0.0000,-11.3901,-11.3901,15.4650,15.4650,-104.6523,-104.6523,105.7935,105.7935,0.0000,-0.5918
5.4000,accel,32.6263,0.0000,0.0000,49.2996,13.6933,0.0000,0.0000,1.0000,0.0000,0.0000,2,2890.9663,3079.7201,3079.7201,3787.3389,3787.3389,-0.0687,-0.0687,0.0531,0.0531,0.0000,0.0000,0.0000,0.0000,-2691.7739,-2691.7739,2825.5423,2825.5423,0.0000,0.0000,0.0000,0.0000,0.0000,-11.5611,-11.5611,15.6791,15.6791,-105.3892,-105.3892,106.3882,106.3882,0.0000,-0.6003
5.5000,accel,34.0118,0.0000,0.0000,50.2953,13.9696,0.0000,0.0000,1.0000,0.0000,0.0000,2,2945.3543,3073.9686,3073.9686,3793.0755,3793.0755,-0.0657,-0.0657,0.0518,0.0518,0.0000,0.0000,0.0000,0.0000,-2639.5500,-2639.5500,2791.3312,2791.3312,0.0000,0.0000,0.0000,0.0000,0.0000,-11.7260,-11.7260,15.8764,15.8764,-105.8548,-105.8548,106.7101,106.7101,0.0000,-0.6083
5.6000,accel,35.4251,0.0000,0.0000,51.3034,14.2494,0.0000,0.0000,1.0000,0.0000,0.0000,2,3001.0477,3069.4565,3069.4565,3797.5718,3797.5718,-0.0628,-0.0628,0.0508,0.0508,0.0000,0.0000,0.0000,0.0000,-2584.3343,-2584.3343,2762.1803,2762.1803,0.0000,0.0000,0.0000,0.0000,0.0000,-11.8938,-11.8938,16.0625,16.0625,-105.9456,-105.9456,106.6473,106.6473,0.0000,-0.6161
5.7000,accel,36.8666,0.0000,0.0000,52.3230,14.5322,0.0000,0.0000,1.0000,0.0000,0.0000,2,3058.7700,3068.6536,3068.6536,3798.3392,3798.3392,-0.0598,-0.0598,0.0502,0.0502,0.0000,0.0000,0.0000,0.0000,-2527.8210,-2527.8210,2744.5790,2744.5790,0.0000,0.0000,0.0000,0.0000,0.0000,-12.0588,-12.0588,16.2231,16.2231,-104.9964,-104.9964,105.3491,105.3491,0.0000,-0.6232
5.8000,accel,38.3366,0.0000,0.0000,53.3520,14.8176,0.0000,0.0000,1.0000,0.0000,0.0000,2,3116.7023,3069.0103,3069.0103,3797.9602,3797.9602,-0.0569,-0.0569,0.0496,0.0496,0.0000,0.0000,0.0000,0.0000,-2468.3467,-2468.3467,2723.1122,2723.1122,0.0000,0.0000,0.0000,0.0000,0.0000,-12.2187,-12.2187,16.3545,16.3545,-103.7520,-103.7520,103.8830,103.8830,0.0000,-0.6297
5.9000,accel,39.8352,0.0000,0.0000,54.3884,15.1050,0.0000,0.0000,1.0000,0.0000,0.0000,2,3174.8373,3070.1882,3070.1882,3796.7665,3796.7665,-0.0541,-0.0541,0.0489,0.0489,0.0000,0.0000,0.0000,0.0000,-2405.6508,-2405.6508,2699.1697,2699.1697,0.0000,0.0000,0.0000,0.0000,0.0000,-12.3609,-12.3609,16.4581,16.4581,-102.4000,-102.4000,102.3700,102.3700,0.0000,-0.6351
6.0000,accel,41.3628,0.0000,0.0000,55.4323,15.3945,0.0000,0.0000,1.0000,0.0000,0.0000,2,3233.7110,3072.5131,3072.5131,3794.4263,3794.4263,-0.0513,-0.0513,0.0483,0.0483,0.0000,0.0000,0.0000,0.0000,-2338.9154,-2338.9154,2678.0891,2678.0891,0.0000,0.0000,0.0000,0.0000,0.0000,-12.4970,-12.4970,16.5435,16.5435,-100.7635,-100.7635,100.5795,100.5795,0.0000,-0.6400
6.1000,accel,42.9194,0.0000,0.0000,56.4836,15.6859,0.0000,0.0000,1.0000,0.0000,0.0000,2,3293.2889,3075.9973,3075.9973,3790.9274,3790.9274,-0.0485,-0.0485,0.0478,0.0478,0.0000,0.0000,0.0000,0.0000,-2267.7114,-2267.7114,2659.4752,2659.4752,0.0000,0.0000,0.0000,0.0000,0.0000,-12.6347,-12.6347,16.6166,16.6166,-98.7846,-98.7846,98.4490,98.4490,0.0000,-0.6446
6.2000,accel,44.5053,0.0000,0.0000,57.5424,15.9793,0.0000,0.0000,1.0000,0.0000,0.0000,2,3353.5387,3080.6604,3080.6604,3786.2497,3786.2497,-0.0457,-0.0457,0.0474,0.0474,0.0000,0.0000,0.0000,0.0000,-2191.5409,-2191.5409,2642.9244,2642.9244,0.0000,0.0000,0.0000,0.0000,0.0000,-12.7772,-12.7772,16.6797,16.6797,-96.4344,-96.4344,95.9470,95.9470,0.0000,-0.6491
6.3000,accel,46.1207,0.0000,0.0000,58.6088,16.2748,0.0000,0.0000,1.0000,0.0000,0.0000,2,3414.4310,3086.5354,3086.5354,3780.3600,3780.3600,-0.0429,-0.0429,0.0471,0.0471,0.0000,0.0000,0.0000,0.0000,-2109.8238,-2109.8238,2628.0396,2628.0396,0.0000,0.0000,0.0000,0.0000,0.0000,-12.9259,-12.9259,16.7336,16.7336,-93.6936,-93.6936,93.0516,93.0516,0.0000,-0.6536
6.4000,accel,47.7658,0.0000,0.0000,59.6828,16.5723,0.0000,0.0000,1.0000,0.0000,0.0000,2,3475.9392,3093.6745,3093.6745,3773.2058,3773.2058,-0.0401,-0.0401,0.0469,0.0469,0.0000,0.0000,0.0000,0.0000,-2021.8757,-2021.8757,2614.4358,2614.4358,0.0000,0.0000,0.0000,0.0000,0.0000,-13.0815,-13.0815,16.7786,16.7786,-90.5420,-90.5420,89.7404,89.7404,0.0000,-0.6580
6.5000,accel,49.4408,0.0000,0.0000,60.7645,16.8718,0.0000,0.0000,1.0000,0.0000,0.0000,2,3538.0392,3102.1546,3102.1546,3764.7099,3764.7099,-0.0372,-0.0372,0.0467,0.0467,0.0000,0.0000,0.0000,0.0000,-1926.8762,-1926.8762,2601.7385,2601.7385,0.0000,0.0000,0.0000,0.0000,0.0000,-13.2446,-13.2446,16.8143,16.8143,-86.9545,-86.9545,85.9853,85.9853,0.0000,-0.6624
6.6000,accel,51.1460,0.0000,0.0000,61.8539,17.1734,0.0000,0.0000,1.0000,0.0000,0.0000,2,3600.7086,3112.0840,3112.0840,3754.7638,3754.7638,-0.0344,-0.0344,0.0465,0.0465,0.0000,0.0000,0.0000,0.0000,-1823.8246,-1823.8246,2589.5760,2589.5760,0.0000,0.0000,0.0000,0.0000,0.0000,-13.4154,-13.4154,16.8401,16.8401,-82.8971,-82.8971,81.7487,81.7487,0.0000,-0.6667
6.7000,accel,52.8814,0.0000,0.0000,62.9511,17.4770,0.0000,0.0000,1.0000,0.0000,0.0000,2,3663.9256,3123.6106,3123.6106,3743.2190,3743.2190,-0.0314,-0.0314,0.0464,0.0464,0.0000,0.0000,0.0000,0.0000,-1711.4786,-1711.4786,2577.5680,2577.5680,0.0000,0.0000,0.0000,0.0000,0.0000,-13.5947,-13.5947,16.8552,16.8552,-78.3237,-78.3237,76.9800,76.9800,0.0000,-0.6710
6.8000,accel,54.6475,0.0000,0.0000,64.0562,17.7827,0.0000,0.0000,1.0000,0.0000,0.0000,2,3727.6682,3136.9336,3136.9336,3729.8758,3729.8758,-0.0284,-0.0284,0.0463,0.0463,0.0000,0.0000,0.0000,0.0000,-1588.2735,-1588.2735,2565.3102,2565.3102,0.0000,0.0000,0.0000,0.0000,0.0000,-13.7829,-13.7829,16.8583,16.8583,-73.1723,-73.1723,71.6113,71.6113,0.0000,-0.6752
6.9000,accel,56.4442,0.0000,0.0000,65.1693,18.0904,0.0000,0.0000,1.0000,0.0000,0.0000,2,3791.9123,3152.3178,3152.3178,3714.4687,3714.4687,-0.0253,-0.0253,0.0463,0.0463,0.0000,0.0000,0.0000,0.0000,-1452.2193,-1452.2193,2552.3556,2552.3556,0.0000,0.0000,0.0000,0.0000,0.0000,-13.9812,-13.9812,16.8478,16.8478,-67.3606,-67.3606,65.5531,65.5531,0.0000,-0.6794
7.0000,accel,58.2720,0.0000,0.0000,66.2904,18.4002,0.0000,0.0000,1.0000,0.0000,0.0000,2,3856.6310,3170.1080,3170.1080,3696.6519,3696.6519,-0.0221,-0.0221,0.0462,0.0462,0.0000,0.0000,0.0000,0.0000,-1300.8025,-1300.8025,2538.1969,2538.1969,0.0000,0.0000,0.0000,0.0000,0.0000,-14.1907,-14.1907,16.8216,16.8216,-60.7812,-60.7812,58.6886,58.6886,0.0000,-0.6834
7.1000,accel,60.1309,0.0000,0.0000,67.4197,18.7121,0.0000,0.0000,1.0000,0.0000,0.0000,2,3921.7943,3190.7288,3190.7288,3676.0000,3676.0000,-0.0186,-0.0186,0.0462,0.0462,0.0000,0.0000,0.0000,0.0000,-1131.0025,-1131.0025,2522.2667,2522.2667,0.0000,0.0000,0.0000,0.0000,0.0000,-14.4131,-14.4131,16.7769,16.7769,-53.3010,-53.3010,50.8752,50.8752,0.0000,-0.6873
7.2000,accel,62.0213,0.0000,0.0000,68.5572,19.0261,0.0000,0.0000,1.0000,0.0000,0.0000,2,3987.3726,3214.6135,3214.6135,3652.0793,3652.0793,-0.0150,-0.0150,0.0461,0.0461,0.0000,0.0000,0.0000,0.0000,-939.8380,-939.8380,2504.0195,2504.0195,0.0000,0.0000,0.0000,0.0000,0.0000,-14.6504,-14.6504,16.7105,16.7105,-44.7817,-44.7817,41.9705,41.9705,0.0000,-0.6911
7.3000,accel,63.9432,0.0000,0.0000,69.7024,19.3420,0.0000,0.0000,1.0000,0.0000,0.0000,2,4052.9994,3242.4828,3242.4828,3624.1663,3624.1663,-0.0112,-0.0112,0.0460,0.0460,0.0000,0.0000,0.0000,0.0000,-727.2647,-727.2647,2480.2250,2480.2250,0.0000,0.0000,0.0000,0.0000,0.0000,-14.9001,-14.9001,16.6150,16.6150,-35.0355,-35.0355,31.7606,31.7606,0.0000,-0.6945
7.4000,accel,65.8970,0.0000,0.0000,70.8527,19.6592,0.0000,0.0000,1.0000,0.0000,0.0000,2,4118.5582,3272.6459,3272.6459,3593.9716,3593.9716,-0.0074,-0.0074,0.0458,0.0458,0.0000,0.0000,0.0000,0.0000,-503.7186,-503.7186,2452.2576,2452.2576,0.0000,0.0000,0.0000,0.0000,0.0000,-15.1475,-15.1475,16.4807,16.4807,-24.6502,-24.6502,21.0259,21.0259,0.0000,-0.6970
7.5000,accel,67.8827,0.0000,0.0000,72.0076,19.9779,0.0000,0.0000,1.0000,0.0000,0.0000,2,4184.6188,3301.0380,3301.0380,3565.5848,3565.5848,-0.0039,-0.0039,0.0456,0.0456,0.0000,0.0000,0.0000,0.0000,-295.9164,-295.9164,2427.4541,2427.4541,0.0000,0.0000,0.0000,0.0000,0.0000,-15.3958,-15.3958,16.3326,16.3326,-14.7648,-14.7648,11.1523,11.1523,0.0000,-0.6992
7.6000,accel,69.9004,0.0000,0.0000,73.1662,20.2981,0.0000,0.0000,1.0000,0.0000,0.0000,2,4251.5969,3321.4446,3321.4446,3545.2459,3545.2459,-0.0015,-0.0015,0.0456,0.0456,0.0000,0.0000,0.0000,0.0000,-146.4367,-146.4367,2412.7929,2412.7929,0.0000,0.0000,0.0000,0.0000,0.0000,-15.6342,-15.6342,16.2094,16.2094,-7.2318,-7.2318,4.2486,4.2486,0.0000,-0.7017
7.7000,accel,71.9503,0.0000,0.0000,74.3283,20.6201,0.0000,0.0000,1.0000,0.0000,0.0000,2,4319.7142,3330.7808,3330.7808,3536.0215,3536.0215,-0.0004,-0.0004,0.0457,0.0457,0.0000,0.0000,0.0000,0.0000,-73.0232,-73.0232,2411.6024,2411.6024,0.0000,0.0000,0.0000,0.0000,0.0000,-15.8378,-15.8378,16.1455,16.1455,-3.1100,-3.1100,1.1975,1.1975,0.0000,-0.7048
7.8000,accel,74.0325,0.0000,0.0000,75.4942,20.9436,0.0000,0.0000,1.0000,0.0000,0.0000,2,4388.7386,3332.4216,3332.4216,3534.4759,3534.4759,0.0000,0.0000,0.0460,0.0460,0.0000,0.0000,0.0000,0.0000,-49.9714,-49.9714,2419.6909,2419.6909,0.0000,0.0000,0.0000,0.0000,0.0000,-15.9873,-15.9873,16.1452,16.1452,-1.5734,-1.5734,0.5821,0.5821,0.0000,-0.7081
7.9000,accel,76.1472,0.0000,0.0000,76.6645,21.2686,0.0000,0.0000,1.0000,0.0000,0.0000,2,4458.3272,3331.0954,3331.0954,3535.8582,3535.8582,0.0001,0.0001,0.0463,0.0463,0.0000,0.0000,0.0000,0.0000,-45.4973,-45.4973,2431.3604,2431.3604,0.0000,0.0000,0.0000,0.0000,0.0000,-16.1047,-16.1047,16.1921,16.1921,-1.1137,-1.1137,0.6664,0.6664,0.0000,-0.7117
8.0000,brake,78.2944,0.0000,0.0000,77.8389,21.5947,0.0000,0.0000,0.0000,0.0000,0.0000,2,4527.5086,3329.8475,3329.8475,3537.1249,3537.1249,0.0001,0.0001,0.0465,0.0465,0.0000,0.0000,0.0000,0.0000,-44.9845,-44.9845,2437.8995,2437.8995,0.0000,0.0000,0.0000,0.0000,0.0000,-16.2026,-16.2026,16.2589,16.2589,-0.7709,-0.7709,0.5049,0.5049,0.0000,-0.7153
8.1000,brake,80.4557,0.0000,0.0000,77.6490,21.5828,0.0000,0.0000,0.0000,0.2000,0.0000,2,4283.6009,3824.1551,3824.1551,3043.7080,3043.7080,-0.0072,-0.0072,-0.0072,-0.0072,0.0000,0.0000,0.0000,0.0000,-580.1139,-580.1139,-458.8659,-458.8659,0.0000,0.0000,0.0000,0.0000,0.0000,-5.2677,-5.2677,7.5734,7.5734,87.2954,87.2954,-78.5763,-78.5763,0.0000,-0.2830
8.2000,brake,82.6033,0.0000,0.0000,76.9440,21.3992,0.0000,0.0000,0.0000,0.4000,0.0000,2,4208.3749,3944.1213,3944.1213,2922.1817,2922.1817,-0.0150,-0.0150,-0.0163,-0.0163,0.0000,0.0000,0.0000,0.0000,-1149.8659,-1149.8659,-917.6520,-917.6520,0.0000,0.0000,0.0000,0.0000,0.0000,3.3722,3.3722,-0.5260,-0.5260,48.8821,48.8821,-55.4449,-55.4449,0.0000,0.0859
8.3000,brake,84.7248,0.0000,0.0000,75.8301,21.0976,0.0000,0.0000,0.0000,0.5000,0.0000,2,4118.3201,4028.7915,4028.7915,2836.6466,2836.6466,-0.0196,-0.0196,-0.0235,-0.0235,0.0000,0.0000,0.0000,0.0000,-1493.4711,-1493.4711,-1230.1907,-1230.1907,0.0000,0.0000,0.0000,0.0000,0.0000,10.0147,10.0147,-7.3131,-7.3131,16.3257,16.3257,-31.4046,-31.4046,0.0000,0.3818
8.4000,brake,86.8136,0.0000,0.0000,74.6374,20.7686,0.0000,0.0000,0.0000,0.5000,0.0000,2,4051.6214,3993.8875,3993.8875,2871.8099,2871.8099,-0.0222,-0.0222,-0.0241,-0.0241,0.0000,0.0000,0.0000,0.0000,-1649.3736,-1649.3736,-1271.9357,-1271.9357,0.0000,0.0000,0.0000,0.0000,0.0000,13.1933,13.1933,-11.1451,-11.1451,-21.0158,-21.0158,8.4192,8.4192,0.0000,0.5363
8.5000,brake,88.8694,0.0000,0.0000,73.4432,20.4414,0.0000,0.0000,0.0000,0.5000,0.0000,2,3982.1464,3926.1167,3926.1167,2940.8345,2940.8345,-0.0276,-0.0276,-0.0255,-0.0255,0.0000,0.0000,0.0000,0.0000,-1942.3523,-1942.3523,-1364.3960,-1364.3960,0.0000,0.0000,0.0000,0.0000,0.0000,14.6559,14.6559,-12.5977,-12.5977,-50.8258,-50.8258,50.5552,50.5552,0.0000,0.6006
8.6000,brake,90.8924,0.0000,0.0000,72.2527,20.1146,0.0000,0.0000,0.0000,0.5000,0.0000,2,3912.6370,3865.6452,3865.6452,3001.7539,3001.7539,-0.0326,-0.0326,-0.0270,-0.0270,0.0000,0.0000,0.0000,0.0000,-2177.2066,-2177.2066,-1457.2959,-1457.2959,0.0000,0.0000,0.0000,0.0000,0.0000,15.4807,15.4807,-12.9233,-12.9233,-73.9951,-73.9951,78.1789,78.1789,0.0000,0.6259
8.7000,brake,92.8824,0.0000,0.0000,71.0661,19.7874,0.0000,0.0000,0.0000,0.5000,0.0000,2,3844.7953,3828.0181,3828.0181,3039.4065,3039.4065,-0.0359,-0.0359,-0.0280,-0.0280,0.0000,0.0000,0.0000,0.0000,-2318.6670,-2318.6670,-1522.3709,-1522.3709,0.0000,0.0000,0.0000,0.0000,0.0000,15.9818,15.9818,-12.8808,-12.8808,-88.3248,-88.3248,92.8143,92.8143,0.0000,0.6360
8.8000,brake,94.8397,0.0000,0.0000,69.8820,19.4605,0.0000,0.0000,0.0000,0.5000,0.0000,2,3777.4310,3797.2350,3797.2350,3070.1511,3070.1511,-0.0389,-0.0389,-0.0290,-0.0290,0.0000,0.0000,0.0000,0.0000,-2431.6364,-2431.6364,-1580.9022,-1580.9022,0.0000,0.0000,0.0000,0.0000,0.0000,16.2945,16.2945,-12.7208,-12.7208,-99.3538,-99.3538,103.5129,103.5129,0.0000,0.6394
8.9000,brake,96.7642,0.0000,0.0000,68.6999,19.1340,0.0000,0.0000,0.0000,0.5000,0.0000,2,3710.1872,3769.5899,3769.5899,3097.7553,3097.7553,-0.0416,-0.0416,-0.0300,-0.0300,0.0000,0.0000,0.0000,0.0000,-2528.4724,-2528.4724,-1638.7344,-1638.7344,0.0000,0.0000,0.0000,0.0000,0.0000,16.5124,16.5124,-12.5261,-12.5261,-108.8087,-108.8087,112.6067,112.6067,0.0000,0.6399
9.0000,brake,98.6560,0.0000,0.0000,67.5199,18.8078,0.0000,0.0000,0.0000,0.5000,0.0000,2,3642.9588,3743.9977,3743.9977,3123.3132,3123.3132,-0.0443,-0.0443,-0.0311,-0.0311,0.0000,0.0000,0.0000,0.0000,-2613.1713,-2613.1713,-1697.5581,-1697.5581,0.0000,0.0000,0.0000,0.0000,0.0000,16.6821,16.6821,-12.3262,-12.3262,-117.3328,-117.3328,120.8312,120.8312,0.0000,0.6393
9.1000,brake,100.5151,0.0000,0.0000,66.3416,18.4821,0.0000,0.0000,0.0000,0.5000,0.0000,2,3575.6751,3719.8281,3719.8281,3147.4559,3147.4559,-0.0469,-0.0469,-0.0322,-0.0322,0.0000,0.0000,0.0000,0.0000,-2688.0272,-2688.0272,-1758.4561,-1758.4561,0.0000,0.0000,0.0000,0.0000,0.0000,16.8260,16.8260,-12.1309,-12.1309,-125.2661,-125.2661,128.5355,128.5355,0.0000,0.6381
9.2000,brake,102.3416,0.0000,0.0000,65.1652,18.1569,0.0000,0.0000,0.0000,0.5000,0.0000,2,3508.2804,3696.6572,3696.6572,3170.6064,3170.6064,-0.0494,-0.0494,-0.0335,-0.0335,0.0000,0.0000,0.0000,0.0000,-2754.5425,-2754.5425,-1822.2292,-1822.2292,0.0000,0.0000,0.0000,0.0000,0.0000,16.9552,16.9552,-11.9423,-11.9423,-132.8092,-132.8092,135.9097,135.9097,0.0000,0.6368
9.3000,brake,104.1355,0.0000,0.0000,63.9905,17.8320,0.0000,0.0000,0.0000,0.5000,0.0000,2,3440.7297,3674.1803,3674.1803,3193.0678,3193.0678,-0.0518,-0.0518,-0.0348,-0.0348,0.0000,0.0000,0.0000,0.0000,-2813.7896,-2813.7896,-1889.4714,-1889.4714,0.0000,0.0000,0.0000,0.0000,0.0000,17.0755,17.0755,-11.7599,-11.7599,-140.0908,-140.0908,143.0698,143.0698,0.0000,0.6354
9.4000,brake,105.8969,0.0000,0.0000,62.8174,17.5076,0.0000,0.0000,0.0000,0.5000,0.0000,2,3372.9889,3652.1774,3652.1774,3215.0590,3215.0590,-0.0543,-0.0543,-0.0363,-0.0363,0.0000,0.0000,0.0000,0.0000,-2866.5913,-2866.5913,-1960.5637,-1960.5637,0.0000,0.0000,0.0000,0.0000,0.0000,17.1903,17.1903,-11.5823,-11.5823,-147.1971,-147.1971,150.0905,150.0905,0.0000,0.6341
9.5000,brake,107.6258,0.0000,0.0000,61.6460,17.1836,0.0000,0.0000,0.0000,0.5000,0.0000,2,3305.0379,3630.4998,3630.4998,3236.7276,3236.7276,-0.0567,-0.0567,-0.0379,-0.0379,0.0000,0.0000,0.0000,0.0000,-2913.6272,-2913.6272,-2035.6318,-2035.6318,0.0000,0.0000,0.0000,0.0000,0.0000,17.3015,17.3015,-11.4083,-11.4083,-154.1847,-154.1847,157.0184,157.0184,0.0000,0.6327
9.6000,brake,109.3223,0.0000,0.0000,60.4761,16.8601,0.0000,0.0000,0.0000,0.5000,0.0000,2,3236.8739,3609.0662,3609.0662,3258.1538,3258.1538,-0.0591,-0.0591,-0.0396,-0.0396,0.0000,0.0000,0.0000,0.0000,-2955.4999,-2955.4999,-2114.4980,-2114.4980,0.0000,0.0000,0.0000,0.0000,0.0000,17.4102,17.4102,-11.2370,-11.2370,-161.0855,-161.0855,163.8759,163.8759,0.0000,0.6313
9.7000,brake,110.9863,0.0000,0.0000,59.3079,16.5369,0.0000,0.0000,0.0000,0.5000,0.0000,2,3168.5147,3587.8607,3587.8607,3279.3529,3279.3529,-0.0615,-0.0615,-0.0416,-0.0416,0.0000,0.0000,0.0000,0.0000,-2992.7757,-2992.7757,-2196.6558,-2196.6558,0.0000,0.0000,0.0000,0.0000,0.0000,17.5173,17.5173,-11.0679,-11.0679,-167.9088,-167.9088,170.6640,170.6640,0.0000,0.6299
9.8000,brake,112.6180,0.0000,0.0000,58.1411,16.2142,0.0000,0.0000,0.0000,0.5000,0.0000,2,3100.0236,3566.9654,3566.9654,3300.2414,3300.2414,-0.0639,-0.0639,-0.0436,-0.0436,0.0000,0.0000,0.0000,0.0000,-3026.0546,-3026.0546,-2280.9944,-2280.9944,0.0000,0.0000,0.0000,0.0000,0.0000,17.6229,17.6229,-10.9009,-10.9009,-174.6335,-174.6335,177.3500,177.3500,0.0000,0.6286
9.9000,brake,114.2174,0.0000,0.0000,56.9759,15.8919,0.0000,0.0000,0.0000,0.5000,0.0000,2,3031.4816,3546.5088,3546.5088,3320.6902,3320.6902,-0.0663,-0.0663,-0.0458,-0.0458,0.0000,0.0000,0.0000,0.0000,-3055.9299,-3055.9299,-2366.1993,-2366.1993,0.0000,0.0000,0.0000,0.0000,0.0000,17.7269,17.7269,-10.7368,-10.7368,-181.2214,-181.2214,183.8883,183.8883,0.0000,0.6273
10.0000,corner,115.7845,0.0000,0.0000,55.8122,15.5699,0.0000,0.0000,0.3500,0.0000,0.0000,2,2962.9434,3526.5784,3526.5784,3340.6118,3340.6118,-0.0688,-0.0688,-0.0481,-0.0481,0.0000,0.0000,0.0000,0.0000,-3082.8540,-3082.8540,-2451.2942,-2451.2942,0.0000,0.0000,0.0000,0.0000,0.0000,17.8289,17.8289,-10.5762,-10.5762,-187.6440,-187.6440,190.2506,190.2506,0.0000,0.6260
10.1000,corner,117.3402,0.0001,0.0037,56.1383,15.5995,0.0020,0.1094,0.3500,0.0000,0.1000,2,3259.5764,3400.6878,3409.2767,3458.4911,3465.4430,-0.0545,-0.0547,0.0432,0.0434,-0.0775,-0.0775,-0.0010,-0.0010,-2675.2030,-2688.0342,2272.0134,2282.6832,50.9397,51.0321,0.3667,0.3674,0.0069,7.4124,7.4983,-1.5760,-1.4962,-149.6597,-146.9183,147.0551,149.7283,0.0031,0.1981
10.2000,corner,118.9055,0.0010,0.0327,56.4846,15.6960,0.0063,0.4704,0.3500,0.0000,0.2000,2,3276.2145,3394.9994,3414.8650,3449.7138,3474.2255,-0.0537,-0.0544,0.0418,0.0427,-0.1361,-0.1361,-0.0166,-0.0166,-2650.7110,-2683.5496,2215.9739,2264.9895,102.5350,103.1258,9.2566,9.3146,0.0150,0.6056,1.4157,2.8071,3.4542,-107.3913,-97.1485,96.6807,106.7706,0.0269,-0.0467
10.3000,corner,120.4804,0.0037,0.1057,56.8315,15.7926,0.0081,0.9637,0.3500,0.0000,0.3000,2,3292.8731,3401.7396,3404.3585,3445.7589,3482.0884,-0.0534,-0.0535,0.0405,0.0420,-0.1942,-0.1944,-0.0535,-0.0534,-2647.7572,-2652.4980,2164.6532,2243.7691,150.4005,150.8622,34.2127,34.5343,0.0250,-3.0720,-0.6247,4.2204,6.0521,-90.5309,-74.2412,74.1808,90.7218,0.0791,-0.1539
10.4000,corner,122.0650,0.0091,0.2311,57.1788,15.8892,0.0071,1.5119,0.3500,0.0000,0.4000,2,3309.6731,3419.6942,3381.6129,3446.5489,3486.1383,-0.0534,-0.0521,0.0394,0.0411,-0.2590,-0.2593,-0.1053,-0.1051,-2662.4109,-2597.9608,2124.5804,2213.6544,203.7732,202.4697,71.7943,72.5110,0.0375,-5.4038,-0.7126,4.2732,7.7429,-84.5396,-64.3184,64.3485,85.0533,0.1508,-0.1998
10.5000,corner,123.6592,0.0187,0.4122,57.5262,15.9859,0.0042,2.0834,0.3500,0.0000,0.5000,2,3326.5190,3445.4969,3350.6720,3450.6148,3487.2258,-0.0537,-0.0504,0.0385,0.0401,-0.3292,-0.3297,-0.1655,-0.1649,-2689.9136,-2526.6636,2092.8646,2175.2977,263.0375,257.6062,116.7443,117.7415,0.0517,-7.2276,0.0873,3.7030,9.0912,-82.7467,-60.2664,60.2858,83.3956,0.2348,-0.2196
10.6000,corner,125.2631,0.0338,0.6506,57.8737,16.0826,0.0001,2.6661,0.3500,0.0000,0.6000,2,3343.3580,3476.0846,3314.9183,3456.5358,3486.4739,-0.0541,-0.0485,0.0378,0.0390,-0.4031,-0.4039,-0.2301,-0.2291,-2725.2308,-2444.0121,2066.0354,2130.9310,326.8804,314.5671,165.7310,166.7026,0.0670,-8.8697,1.2959,2.8439,10.3170,-82.5650,-58.8273,58.8045,83.2786,0.3260,-0.2285
10.7000,corner,126.8765,0.0562,0.9471,58.2211,16.1792,-0.0048,3.2561,0.3500,0.0000,0.7000,2,3360.1581,3509.5492,3276.4133,3463.4013,3484.6473,-0.0547,-0.0464,0.0371,0.0378,-0.4795,-0.4807,-0.2973,-0.2957,-2765.0901,-2353.1430,2041.6534,2082.2810,394.3329,372.1993,217.1284,217.6734,0.0830,-10.4582,2.7001,1.8448,11.5066,-82.9904,-58.5253,58.4501,83.7428,0.4218,-0.2326
10.8000,corner,128.4994,0.0875,1.3023,58.5683,16.2758,-0.0103,3.8520,0.3500,0.0000,0.8000,2,3376.8979,3544.8852,3236.2565,3470.7066,3482.1595,-0.0552,-0.0442,0.0364,0.0365,-0.5581,-0.5596,-0.3665,-0.3642,-2807.7191,-2255.5037,2018.3030,2030.3637,464.9110,429.9040,270.2438,269.9216,0.0994,-12.0441,4.2064,0.7716,12.6945,-83.6264,-58.6981,58.5654,84.4082,0.5207,-0.2347
10.9000,corner,130.1317,0.1295,1.7168,58.9150,16.3723,-0.0164,4.4535,0.3500,0.0000,0.9000,2,3393.5625,3581.6248,3195.0001,3478.1834,3479.1953,-0.0558,-0.0419,0.0358,0.0353,-0.6386,-0.6404,-0.4374,-0.4343,-2852.2515,-2151.5071,1995.2338,1975.7043,538.4306,487.3819,324.8099,323.1597,0.1162,-13.6482,5.7743,-0.3474,13.8945,-84.3086,-59.0481,58.8532,85.1153,0.6222,-0.2360
11.0000,corner,131.7733,0.1838,2.1911,59.2611,16.4685,-0.0231,5.0605,0.3500,0.0000,1.0000,2,3410.1399,3619.5856,3152.9244,3485.6794,3475.8088,-0.0564,-0.0395,0.0351,0.0340,-0.7209,-0.7231,-0.5099,-0.5058,-2898.2932,-2040.9620,1972.0558,1918.5645,614.8578,544.4634,380.7326,377.2773,0.1334,-15.2788,7.3861,-1.4999,15.1120,-84.9597,-59.4379,59.1740,85.7881,0.7259,-0.2369
11.1000,corner,133.4240,0.2524,2.7255,59.6065,16.5646,-0.0303,5.6728,0.3500,0.0000,1.1000,2,3426.6198,3658.7312,3110.1900,3493.0892,3471.9813,-0.0570,-0.0370,0.0345,0.0327,-0.8051,-0.8077,-0.5840,-0.5788,-2945.6772,-1923.2995,1948.5463,1859.1012,694.2251,601.0264,437.9818,432.2259,0.1509,-16.9397,9.0341,-2.6810,16.3491,-85.5339,-59.7968,59.4553,86.3798,0.8318,-0.2377
11.2000,corner,135.0835,0.3370,3.3208,59.9509,16.6603,-0.0381,6.2904,0.3500,0.0000,1.2000,2,3442.9936,3699.1033,3066.9152,3500.3174,3467.6476,-0.0577,-0.0344,0.0339,0.0315,-0.8912,-0.8942,-0.6598,-0.6533,-2994.3403,-1797.6678,1924.5408,1797.4695,776.5931,656.9639,496.5477,487.9751,0.1688,-18.6325,10.7147,-3.8888,17.6062,-85.9933,-60.0800,59.6492,86.8510,0.9397,-0.2384
11.3000,corner,136.7516,0.4397,3.9772,60.2941,16.7557,-0.0465,6.9133,0.3500,0.0000,1.3000,2,3459.2540,3740.7938,3023.2149,3507.2581,3462.7061,-0.0583,-0.0316,0.0332,0.0302,-0.9793,-0.9827,-0.7373,-0.7293,-3044.2671,-1662.9522,1899.8707,1733.8939,862.0323,712.1719,556.4237,544.4962,0.1871,-20.3580,12.4262,-5.1228,18.8828,-86.2983,-60.2490,59.7139,87.1596,1.0496,-0.2390
11.4000,corner,138.4278,0.5623,4.6953,60.6360,16.8507,-0.0556,7.5415,0.3500,0.0000,1.4000,2,3475.3960,3783.9356,2979.2200,3513.7835,3457.0204,-0.0589,-0.0286,0.0326,0.0289,-1.0694,-1.0732,-0.8164,-0.8069,-3095.4646,-1517.7662,1874.3237,1668.7252,950.6174,766.5466,617.5999,601.7565,0.2057,-22.1167,14.1671,-6.3831,20.1780,-86.4017,-60.2626,59.6045,87.2562,1.1615,-0.2396
11.5000,corner,140.1118,0.7067,5.4755,60.9762,16.9452,-0.0653,8.1748,0.3500,0.0000,1.5000,2,3491.4163,3828.6982,2935.0859,3519.7388,3450.4196,-0.0596,-0.0255,0.0319,0.0276,-1.1616,-1.1657,-0.8973,-0.8860,-3147.9510,-1360.4664,1847.6155,1602.4875,1042.4238,819.9845,680.0607,659.7173,0.2246,-23.9088,15.9362,-7.6703,21.4904,-86.2471,-60.0736,59.2688,87.0812,1.2754,-0.2401
11.6000,corner,141.8031,0.8749,6.3146,61.3154,17.0392,-0.0776,8.7043,0.3500,0.0000,1.5000,2,3507.3830,3879.7963,2886.8326,3528.6379,3438.6510,-0.0603,-0.0220,0.0314,0.0263,-1.1771,-1.1814,-0.9786,-0.9655,-3208.1609,-1181.8394,1824.5080,1531.7608,1081.3256,827.9076,743.8217,717.3205,0.2370,-25.6806,17.6793,-8.9445,22.7761,-84.2728,-61.0297,60.0680,85.0194,1.3877,-0.2406
11.7000,corner,143.5012,1.0682,7.1913,61.6542,17.1330,-0.0924,8.9890,0.3500,0.0000,1.5000,2,3523.4485,3934.4107,2839.1519,3541.2499,3419.0646,-0.0610,-0.0180,0.0311,0.0248,-1.2095,-1.2135,-1.0463,-1.0319,-3271.2199,-978.1530,1817.7506,1445.6278,1121.1202,833.3022,801.2317,765.3984,0.2483,-27.1269,19.0862,-9.9840,23.8035,-79.1883,-63.8515,62.7090,79.7100,1.4786,-0.2409
11.8000,corner,145.2056,1.2877,8.0873,61.9924,17.2266,-0.1045,9.1390,0.3500,0.0000,1.5000,2,3539.5609,3977.3228,2804.3933,3550.5997,3401.5374,-0.0614,-0.0144,0.0308,0.0234,-1.2425,-1.2461,-1.0927,-1.0776,-3315.0088,-789.3029,1807.8016,1363.9922,1162.5172,843.6746,842.8156,798.3687,0.2578,-28.1485,20.0524,-10.7158,24.5051,-74.2543,-66.0602,64.8081,74.6416,1.5418,-0.2411
11.9000,corner,146.9157,1.5345,8.9935,62.3302,17.3201,-0.1136,9.2279,0.3500,0.0000,1.5000,2,3555.7816,4006.9703,2781.5824,3556.2312,3389.0706,-0.0613,-0.0114,0.0302,0.0223,-1.2689,-1.2721,-1.1229,-1.1073,-3338.8094,-633.1155,1784.5775,1300.2087,1195.4141,853.3845,870.3384,819.7133,0.2647,-28.8487,20.6889,-11.2120,24.9684,-70.6194,-67.2871,66.0239,71.0208,1.5843,-0.2415
12.0000,corner,148.6310,1.8091,9.9061,62.6676,17.4136,-0.1204,9.2905,0.3500,0.0000,1.5000,2,3572.1474,4026.6716,2766.3109,3559.6733,3381.2183,-0.0611,-0.0090,0.0295,0.0215,-1.2897,-1.2926,-1.1435,-1.1276,-3348.6494,-510.6444,1749.5284,1254.0340,1220.3080,861.6685,888.8616,834.2114,0.2697,-29.3480,21.1260,-11.5587,25.2914,-68.2885,-67.9078,66.7053,68.8128,1.6140,-0.2419
12.1000,corner,150.3510,2.1122,10.8235,63.0048,17.5072,-0.1260,9.3418,0.3500,0.0000,1.5000,2,3588.6621,4039.8201,2754.8722,3562.3477,3376.8632,-0.0607,-0.0072,0.0286,0.0209,-1.3069,-1.3095,-1.1591,-1.1430,-3350.0995,-417.5265,1706.7836,1220.9898,1239.9538,868.9192,902.4425,845.1795,0.2736,-29.7330,21.4570,-11.8181,25.5429,-66.9973,-68.3247,67.2217,67.7019,1.6366,-0.2424
12.2000,corner,152.0752,2.4442,11.7451,63.3420,17.6009,-0.1311,9.3883,0.3500,0.0000,1.5000,2,3605.3196,4048.8657,2744.9850,3565.0969,3374.9871,-0.0603,-0.0059,0.0277,0.0205,-1.3221,-1.3245,-1.1722,-1.1560,-3346.8937,-348.2051,1659.8207,1196.8993,1256.6409,875.5617,913.5643,854.4885,0.2770,-30.0557,21.7373,-12.0280,25.7634,-66.4738,-68.7858,67.7934,67.3742,1.6557,-0.2430
12.3000,corner,153.8031,2.8055,12.6707,63.6792,17.6946,-0.1359,9.4326,0.3500,0.0000,1.5000,2,3622.1121,4055.4100,2735.4999,3568.2608,3374.7927,-0.0598,-0.0049,0.0267,0.0201,-1.3363,-1.3386,-1.1843,-1.1679,-3341.2215,-297.1805,1610.9394,1178.8181,1271.8111,881.8719,923.5623,863.0852,0.2800,-30.3452,21.9967,-12.2102,25.9736,-66.4916,-69.3932,68.5013,67.5743,1.6731,-0.2436
12.4000,corner,155.5342,3.1963,13.6001,64.0164,17.7883,-0.1405,9.4757,0.3500,0.0000,1.5000,2,3639.0367,4060.4832,2725.9696,3571.8617,3375.6719,-0.0594,-0.0042,0.0257,0.0199,-1.3501,-1.3521,-1.1960,-1.1795,-3334.2741,-259.5222,1561.7064,1164.7996,1286.2674,888.0051,933.0951,871.4110,0.2829,-30.6169,22.2493,-12.3769,26.1828,-66.8697,-70.1528,69.3377,68.1045,1.6898,-0.2443
12.5000,corner,157.2679,3.6171,14.5335,64.3536,17.8821,-0.1452,9.5181,0.3500,0.0000,1.5000,2,3656.0969,4064.7539,2716.3135,3575.7682,3377.1670,-0.0590,-0.0037,0.0248,0.0197,-1.3636,-1.3655,-1.2076,-1.1910,-3326.6648,-231.2227,1513.3683,1153.5236,1300.4261,894.0434,942.4649,879.6565,0.2857,-30.8791,22.5013,-12.5351,26.3942,-67.4658,-71.0220,70.2544,68.8163,1.7061,-0.2450
12.6000,corner,159.0036,4.0681,15.4706,64.6909,17.9760,-0.1499,9.5600,0.3500,0.0000,1.5000,2,3673.2924,4068.6340,2706.5786,3579.8319,3378.9679,-0.0586,-0.0033,0.0239,0.0195,-1.3771,-1.3788,-1.2192,-1.2024,-3318.6968,-209.3484,1466.7327,1144.1177,1314.4918,900.0282,951.8004,887.8961,0.2885,-31.1367,22.7547,-12.6890,26.6082,-68.1796,-71.9512,71.2038,69.6117,1.7224,-0.2457
12.7000,corner,160.7409,4.5497,16.4117,65.0283,18.0698,-0.1547,9.6014,0.3500,0.0000,1.5000,2,3690.6253,4072.3793,2696.8529,3583.9189,3380.8658,-0.0582,-0.0030,0.0231,0.0193,-1.3907,-1.3922,-1.2309,-1.2140,-3310.5153,-191.9117,1422.4487,1136.0077,1328.5607,905.9801,961.1503,896.1536,0.2913,-31.3920,23.0095,-12.8411,26.8242,-68.9408,-72.8950,72.1451,70.4263,1.7386,-0.2464
12.8000,corner,162.4791,5.0620,17.3565,65.3658,18.1637,-0.1595,9.6422,0.3500,0.0000,1.5000,2,3708.0990,4076.1518,2687.2260,3587.9202,3382.7194,-0.0578,-0.0027,0.0223,0.0192,-1.4042,-1.4055,-1.2426,-1.2255,-3302.1877,-177.6114,1381.0693,1128.8045,1342.6762,911.9099,970.5292,904.4333,0.2941,-31.6468,23.2655,-12.9932,27.0412,-69.7010,-73.8160,73.0462,71.2175,1.7549,-0.2471
12.9000,corner,164.2177,5.6054,18.3052,65.7033,18.2576,-0.1643,9.6826,0.3500,0.0000,1.5000,2,3725.7161,4080.0545,2677.7723,3591.7541,3384.4340,-0.0574,-0.0025,0.0217,0.0191,-1.4177,-1.4189,-1.2544,-1.2372,-3293.7440,-165.5956,1343.0192,1122.2421,1356.8570,917.8234,979.9384,912.7321,0.2969,-31.9020,23.5221,-13.1462,27.2585,-70.4271,-74.6856,73.8834,71.9574,1.7712,-0.2478
13.0000,corner,165.9560,6.1802,19.2577,66.0410,18.3515,-0.1693,9.7225,0.3500,0.0000,1.5000,2,3743.4758,4084.1500,2668.5443,3595.3659,3385.9500,-0.0569,-0.0023,0.0210,0.0189,-1.4313,-1.4323,-1.2663,-1.2489,-3285.1964,-155.2949,1308.5491,1116.1425,1371.1107,923.7237,989.3748,921.0456,0.2997,-32.1582,23.7787,-13.3009,27.4753,-71.0974,-75.4845,74.6416,72.6290,1.7875,-0.2485
13.1000,corner,167.6936,6.7865,20.2140,66.3788,18.4454,-0.1742,9.7618,0.3500,0.0000,1.5000,2,3761.3736,4088.4713,2659.5712,3598.7261,3387.2355,-0.0565,-0.0021,0.0205,0.0188,-1.4449,-1.4457,-1.2782,-1.2607,-3276.5490,-146.3194,1277.7155,1110.3940,1385.4398,929.6123,998.8346,929.3696,0.3025,-32.4158,24.0349,-13.4577,27.6913,-71.6998,-76.2016,75.3134,73.2240,1.8039,-0.2492
13.2000,corner,169.4297,7.4246,21.1740,66.7166,18.5393,-0.1793,9.8007,0.3500,0.0000,1.5000,2,3779.4009,4093.0293,2650.8613,3601.8265,3388.2806,-0.0561,-0.0020,0.0200,0.0187,-1.4586,-1.4591,-1.2902,-1.2726,-3267.8018,-138.3955,1250.3986,1104.9335,1399.8444,935.4891,1008.3146,937.7010,0.3053,-32.6750,24.2905,-13.6168,27.9060,-72.2294,-76.8329,75.8980,73.7410,1.8203,-0.2498
13.3000,corner,171.1638,8.0949,22.1378,67.0545,18.6332,-0.1844,9.8391,0.3500,0.0000,1.5000,2,3797.5467,4097.8192,2642.4070,3604.6744,3389.0904,-0.0557,-0.0018,0.0196,0.0186,-1.4723,-1.4726,-1.3023,-1.2845,-3258.9533,-131.3263,1226.3482,1099.7307,1414.3234,941.3535,1017.8127,946.0378,0.3081,-32.9358,24.5454,-13.7783,28.1195,-72.6866,-77.3799,76.3992,74.1827,1.8368,-0.2505
13.4000,corner,172.8952,8.7974,23.1053,67.3925,18.7272,-0.1895,9.8770,0.3500,0.0000,1.5000,2,3815.7984,4102.8273,2634.1906,3607.2867,3389.6798,-0.0552,-0.0017,0.0192,0.0185,-1.4860,-1.4862,-1.3144,-1.2964,-3250.0011,-124.9668,1205.2402,1094.7748,1428.8755,947.2041,1027.3276,954.3789,0.3109,-33.1983,24.7994,-13.9420,28.3316,-73.0751,-77.8477,76.8235,74.5550,1.8533,-0.2511
13.5000,corner,174.6232,9.5323,24.0766,67.7305,18.8211,-0.1947,9.9146,0.3500,0.0000,1.5000,2,3834.1436,4108.0350,2626.1897,3609.6853,3390.0684,-0.0548,-0.0016,0.0189,0.0185,-1.4997,-1.4997,-1.3265,-1.3085,-3240.9429,-119.2068,1186.7262,1090.0640,1443.4991,953.0392,1036.8585,962.7238,0.3138,-33.4625,25.0527,-14.1080,28.5426,-73.4005,-78.2429,77.1788,74.8646,1.8698,-0.2517
13.6000,corner,176.3473,10.3000,25.0515,68.0686,18.9150,-0.2000,9.9517,0.3500,0.0000,1.5000,2,3852.5705,4113.4227,2618.3803,3611.8929,3390.2770,-0.0544,-0.0015,0.0186,0.0184,-1.5135,-1.5133,-1.3387,-1.3205,-3231.7764,-113.9602,1170.4681,1085.5992,1458.1930,958.8570,1046.4053,971.0724,0.3166,-33.7281,25.3053,-14.2759,28.7524,-73.6691,-78.5731,77.4727,75.1184,1.8864,-0.2523
13.7000,corner,178.0668,11.1005,26.0300,68.4068,19.0089,-0.2053,9.9885,0.3500,0.0000,1.5000,2,3871.0684,4118.9714,2610.7394,3613.9316,3390.3256,-0.0539,-0.0014,0.0184,0.0183,-1.5273,-1.5269,-1.3509,-1.3326,-3222.4998,-109.1583,1156.1575,1081.3806,1472.9558,964.6560,1055.9679,979.4246,0.3194,-33.9952,25.5573,-14.4457,28.9612,-73.8869,-78.8454,77.7125,75.3228,1.9029,-0.2529
13.8000,corner,179.7809,11.9340,27.0122,68.7449,19.1029,-0.2107,10.0250,0.3500,0.0000,1.5000,2,3889.6279,4124.6638,2603.2463,3615.8212,3390.2323,-0.0535,-0.0013,0.0181,0.0182,-1.5412,-1.5406,-1.3632,-1.3447,-3213.1109,-104.7449,1143.5234,1077.4059,1487.7864,970.4344,1065.5463,987.7807,0.3222,-34.2635,25.8088,-14.6171,29.1692,-74.0597,-79.0665,77.9047,75.4838,1.9196,-0.2535
13.9000,corner,181.4891,12.8008,27.9980,69.0831,19.1968,-0.2161,10.0611,0.3500,0.0000,1.5000,2,3908.2411,4130.4847,2595.8828,3617.5790,3390.0132,-0.0531,-0.0013,0.0180,0.0182,-1.5551,-1.5543,-1.3755,-1.3569,-3203.6081,-100.6736,1132.3327,1073.6706,1502.6836,976.1909,1075.1405,996.1407,0.3251,-34.5331,26.0599,-14.7900,29.3764,-74.1926,-79.2425,78.0548,75.6062,1.9362,-0.2541
14.0000,corner,183.1905,13.7008,28.9874,69.4213,19.2907,-0.2216,10.0969,0.3500,0.0000,1.5000,2,3926.9007,4136.4207,2588.6331,3619.2203,3389.6823,-0.0526,-0.0012,0.0178,0.0181,-1.5690,-1.5681,-1.3879,-1.3691,-3193.9895,-96.9052,1122.3878,1070.1679,1517.6465,981.9240,1084.7506,1004.5046,0.3279,-34.8037,26.3106,-14.9643,29.5830,-74.2899,-79.3783,78.1676,75.6943,1.9529,-0.2547
14.1000,corner,184.8846,14.6343,29.9804,69.7595,19.3846,-0.2271,10.1325,0.3500,0.0000,1.5000,2,3945.6010,4142.4602,2581.4839,3620.7578,3389.2515,-0.0522,-0.0011,0.0176,0.0181,-1.5830,-1.5818,-1.4003,-1.3814,-3184.2536,-93.4066,1113.5214,1066.8896,1532.6740,987.6326,1094.3764,1012.8724,0.3308,-35.0754,26.5611,-15.1398,29.7891,-74.3556,-79.4785,78.2472,75.7520,1.9696,-0.2552
14.2000,corner,186.5705,15.6014,30.9769,70.0977,19.4785,-0.2327,10.1677,0.3500,0.0000,1.5000,2,3964.3367,4148.5933,2574.4237,3622.2027,3388.7310,-0.0517,-0.0011,0.0175,0.0180,-1.5970,-1.5957,-1.4127,-1.3936,-3174.3985,-90.1492,1105.5928,1063.8264,1547.7650,993.3154,1104.0176,1021.2440,0.3336,-35.3479,26.8114,-15.3164,29.9947,-74.3929,-79.5469,78.2971,75.7822,1.9863,-0.2558
14.3000,corner,188.2477,16.6021,31.9770,70.4359,19.5724,-0.2384,10.2026,0.3500,0.0000,1.5000,2,3983.1033,4154.8113,2567.4430,3623.5643,3388.1298,-0.0513,-0.0010,0.0174,0.0180,-1.6110,-1.6095,-1.4252,-1.4060,-3164.4226,-87.1087,1098.4831,1060.9684,1562.9185,998.9715,1113.6741,1029.6190,0.3365,-35.6214,27.0615,-15.4941,30.1999,-74.4047,-79.5867,78.3202,75.7876,2.0031,-0.2564
14.4000,corner,189.9153,17.6366,32.9805,70.7741,19.6662,-0.2441,10.2373,0.3500,0.0000,1.5000,2,4001.8970,4161.1067,2560.5336,3624.8507,3387.4552,-0.0509,-0.0009,0.0173,0.0179,-1.6251,-1.6234,-1.4377,-1.4183,-3154.3242,-84.2637,1092.0917,1058.3053,1578.1335,1004.5998,1123.3454,1037.9972,0.3394,-35.8956,27.3115,-15.6727,30.4047,-74.3933,-79.6007,78.3191,75.7706,2.0199,-0.2569
14.5000,corner,191.5727,18.7048,33.9876,71.1122,19.7601,-0.2498,10.2717,0.3500,0.0000,1.5000,2,4020.7771,4167.7151,2553.9397,3625.8165,3386.4691,-0.0504,-0.0009,0.0172,0.0179,-1.6392,-1.6374,-1.4502,-1.4307,-3144.1973,-81.5334,1087.5716,1056.4582,1593.4368,1010.2302,1133.0075,1046.3558,0.3422,-36.1700,27.5621,-15.8535,30.6080,-74.2960,-79.5234,78.2088,75.6488,2.0367,-0.2574
14.6000,corner,193.2191,19.8069,34.9981,71.4501,19.8538,-0.2556,10.3060,0.3500,0.0000,1.5000,2,4039.6346,4174.3869,2547.4030,3626.7205,3385.4270,-0.0500,-0.0008,0.0171,0.0179,-1.6534,-1.6513,-1.4628,-1.4431,-3133.9713,-78.9593,1083.1857,1054.2231,1608.8046,1015.8370,1142.6914,1054.7251,0.3451,-36.4450,27.8130,-16.0367,30.8096,-74.1828,-79.4258,78.0930,75.5251,2.0535,-0.2579
14.7000,corner,194.8537,20.9430,36.0121,71.7876,19.9475,-0.2615,10.3402,0.3500,0.0000,1.5000,2,4058.4058,4180.9291,2540.7155,3627.7672,3384.5264,-0.0496,-0.0008,0.0170,0.0178,-1.6676,-1.6654,-1.4754,-1.4556,-3123.6969,-76.6247,1077.6295,1051.3097,1624.2313,1021.4102,1152.4079,1063.1146,0.3480,-36.7194,28.0656,-16.2213,31.0108,-74.1189,-79.3759,78.0427,75.4679,2.0704,-0.2583
14.8000,corner,196.4757,22.1129,37.0295,72.1247,20.0411,-0.2675,10.3743,0.3500,0.0000,1.5000,2,4077.1733,4187.5266,2534.0570,3628.7729,3383.5814,-0.0492,-0.0008,0.0169,0.0178,-1.6819,-1.6794,-1.4881,-1.4682,-3113.3329,-74.4269,1072.4492,1048.5768,1639.7231,1026.9522,1162.1585,1071.5244,0.3508,-36.9935,28.3197,-16.4069,31.2118,-74.0497,-79.3197,77.9812,75.4001,2.0873,-0.2587
14.9000,corner,198.0845,23.3167,38.0504,72.4615,20.1346,-0.2734,10.4082,0.3500,0.0000,1.5000,2,4095.9373,4194.1856,2527.4328,3629.7342,3382.5845,-0.0488,-0.0007,0.0168,0.0177,-1.6961,-1.6935,-1.5008,-1.4808,-3102.8804,-72.3485,1067.6876,1045.9987,1655.2813,1032.4622,1171.9372,1079.9470,0.3537,-37.2678,28.5745,-16.5934,31.4127,-73.9681,-79.2519,77.9059,75.3171,2.1042,-0.2591
15.0000,corner,199.6792,24.5544,39.0747,72.7979,20.2279,-0.2795,10.4418,0.3500,0.0000,1.5000,2,4114.6959,4200.8989,2520.8446,3630.6532,3381.5393,-0.0483,-0.0007,0.0168,0.0177,-1.7105,-1.7077,-1.5136,-1.4934,-3092.3320,-70.3800,1063.3043,1043.5656,1670.9004,1037.9390,1181.7360,1088.3754,0.3566,-37.5425,28.8296,-16.7806,31.6134,-73.8729,-79.1714,77.8174,75.2196,2.1212,-0.2594
15.1000,corner,201.2590,25.8259,40.1025,73.1339,20.3212,-0.2856,10.4752,0.3500,0.0000,1.5000,2,4133.4473,4207.6597,2514.2941,3631.5314,3380.4497,-0.0479,-0.0006,0.0167,0.0177,-1.7248,-1.7218,-1.5264,-1.5060,-3081.6796,-68.5131,1059.2611,1041.2689,1686.5737,1043.3811,1191.5485,1096.8044,0.3595,-37.8175,29.0847,-16.9683,31.8139,-73.7644,-79.0778,77.7158,75.1083,2.1381,-0.2598
15.2000,corner,202.8233,27.1313,41.1335,73.4695,20.4143,-0.2918,10.5083,0.3500,0.0000,1.5000,2,4152.1896,4214.4623,2507.7824,3632.3700,3379.3193,-0.0475,-0.0006,0.0166,0.0176,-1.7392,-1.7361,-1.5393,-1.5187,-3070.9168,-66.7403,1055.5248,1039.1005,1702.2958,1048.7872,1201.3700,1105.2306,0.3624,-38.0927,29.3398,-17.1564,32.0142,-73.6433,-78.9713,77.6017,74.9843,2.1551,-0.2602
15.3000,corner,204.3711,28.4703,42.1680,73.8047,20.5073,-0.2980,10.5411,0.3500,0.0000,1.5000,2,4170.9215,4221.3022,2501.3095,3633.1704,3378.1510,-0.0471,-0.0006,0.0166,0.0176,-1.7537,-1.7503,-1.5521,-1.5314,-3060.0389,-65.0544,1052.0665,1037.0530,1718.0626,1054.1563,1211.1973,1113.6514,0.3653,-38.3682,29.5946,-17.3449,32.2142,-73.5103,-78.8522,77.4754,74.8484,2.1721,-0.2605
15.4000,corner,205.9016,29.8430,43.2057,74.1395,20.6002,-0.3042,10.5736,0.3500,0.0000,1.5000,2,4189.6414,4228.1759,2494.8748,3633.9343,3376.9471,-0.0467,-0.0005,0.0165,0.0176,-1.7681,-1.7646,-1.5650,-1.5441,-3049.0427,-63.4493,1048.8606,1035.1191,1733.8709,1059.4875,1221.0283,1122.0655,0.3682,-38.6438,29.8493,-17.5337,32.4138,-73.3662,-78.7210,77.3376,74.7013,2.1891,-0.2609
15.5000,corner,207.4142,31.2492,44.2468,74.4739,20.6930,-0.3105,10.6059,0.3500,0.0000,1.5000,2,4208.3482,4235.0806,2488.4775,3634.6633,3375.7099,-0.0463,-0.0005,0.0165,0.0175,-1.7826,-1.7788,-1.5778,-1.5569,-3037.9259,-61.9191,1045.8848,1033.2923,1749.7186,1064.7802,1230.8616,1130.4715,0.3711,-38.9196,30.1037,-17.7227,32.6132,-73.2114,-78.5783,77.1886,74.5437,2.2061,-0.2612
15.6000,corner,208.9079,32.6887,45.2911,74.8079,20.7857,-0.3169,10.6379,0.3500,0.0000,1.5000,2,4227.0405,4242.0140,2482.1166,3635.3588,3374.4412,-0.0459,-0.0005,0.0164,0.0175,-1.7971,-1.7932,-1.5907,-1.5696,-3026.6866,-60.4586,1043.1192,1031.5665,1765.6038,1070.0338,1240.6958,1138.8686,0.3740,-39.1955,30.3579,-17.9120,32.8123,-73.0466,-78.4247,77.0291,74.3760,2.2230,-0.2616
15.7000,corner,210.3821,34.1615,46.3387,75.1414,20.8782,-0.3233,10.6696,0.3500,0.0000,1.5000,2,4245.7172,4248.9739,2475.7913,3636.0222,3373.1425,-0.0455,-0.0005,0.0164,0.0175,-1.8116,-1.8075,-1.6036,-1.5824,-3015.3232,-59.0630,1040.5462,1029.9357,1781.5248,1075.2477,1250.5301,1147.2559,0.3769,-39.4714,30.6118,-18.1015,33.0110,-72.8722,-78.2605,76.8595,74.1989,2.2400,-0.2619
15.8000,corner,211.8357,35.6674,47.3895,75.4745,20.9706,-0.3298,10.7010,0.3500,0.0000,1.5000,2,4264.3774,4255.9585,2469.5005,3636.6548,3371.8154,-0.0451,-0.0004,0.0163,0.0175,-1.8262,-1.8218,-1.6165,-1.5951,-3003.8344,-57.7279,1038.1499,1028.3946,1797.4802,1080.4216,1260.3635,1155.6328,0.3798,-39.7473,30.8654,-18.2912,33.2095,-72.6887,-78.0863,76.6803,74.0126,2.2570,-0.2622
15.9000,corner,213.2682,37.2061,48.4435,75.8072,21.0629,-0.3363,10.7321,0.3500,0.0000,1.5000,2,4283.0200,4262.9660,2463.2437,3637.2579,3370.4610,-0.0447,-0.0004,0.0163,0.0175,-1.8407,-1.8362,-1.6295,-1.6079,-2992.2186,-56.4494,1035.9162,1026.9381,1813.4684,1085.5551,1270.1952,1163.9985,0.3827,-40.0233,31.1187,-18.4810,33.4076,-72.4965,-77.9025,76.4918,73.8175,2.2739,-0.2626
16.0000,corner,214.6786,38.7775,49.5007,76.1394,21.1551,-0.3428,10.7629,0.3500,0.0000,1.5000,2,4301.6441,4269.9949,2457.0203,3637.8323,3369.0805,-0.0443,-0.0004,0.0163,0.0174,-1.8553,-1.8506,-1.6424,-1.6207,-2980.4744,-55.2237,1033.8323,1025.5614,1829.4882,1090.6478,1280.0243,1172.3523,0.3856,-40.2992,31.3717,-18.6709,33.6054,-72.2960,-77.7094,76.2943,73.6141,2.2909,-0.2629
16.1000,corner,216.0661,40.3813,50.5610,76.4711,21.2471,-0.3494,10.7935,0.3500,0.0000,1.5000,2,4320.2489,4277.0436,2450.8298,3638.3792,3367.6750,-0.0439,-0.0004,0.0162,0.0174,-1.8699,-1.8650,-1.6554,-1.6335,-2968.6004,-54.0477,1031.8866,1024.2601,1845.5381,1095.6993,1289.8500,1180.6935,0.3885,-40.5750,31.6244,-18.8609,33.8028,-72.0873,-77.5075,76.0882,73.4025,2.3078,-0.2633
16.2000,corner,217.4300,42.0173,51.6244,76.8024,21.3390,-0.3561,10.8237,0.3500,0.0000,1.5000,2,4338.8334,4284.1107,2444.6717,3638.8991,3366.2455,-0.0435,-0.0003,0.0162,0.0174,-1.8845,-1.8795,-1.6683,-1.6463,-2956.5951,-52.9182,1030.0688,1023.0299,1861.6167,1100.7093,1299.6715,1189.0214,0.3914,-40.8508,31.8767,-19.0510,33.9999,-71.8709,-77.2969,75.8739,73.1832,2.3247,-0.2636
16.3000,corner,218.7693,43.6852,52.6909,77.1332,21.4307,-0.3628,10.8537,0.3500,0.0000,1.5000,2,4357.3969,4291.1949,2438.5459,3639.3930,3364.7927,-0.0431,-0.0003,0.0162,0.0174,-1.8992,-1.8939,-1.6813,-1.6591,-2944.4570,-51.8324,1028.3693,1021.8669,1877.7226,1105.6775,1309.4878,1197.3354,0.3942,-41.1264,32.1287,-19.2411,34.1966,-71.6470,-77.0780,75.6515,72.9562,2.3416,-0.2639
