time,phase,pos_x,pos_y,yaw_deg,speed_kph,vx_body,vy_body,yaw_rate_dps,throttle,brake,steer_deg,gear,rpm,fz_fl,fz_fr,fz_rl,fz_rr,sr_fl,sr_fr,sr_rl,sr_rr,sa_fl_deg,sa_fr_deg,sa_rl_deg,sa_rr_deg,fx_fl,fx_fr,fx_rl,fx_rr,fy_fl,fy_fr,fy_rl,fy_rr,lat_accel_g,susp_defl_fl_mm,susp_defl_fr_mm,susp_defl_rl_mm,susp_defl_rr_mm,susp_vel_fl,susp_vel_fr,susp_vel_rl,susp_vel_rr,roll_deg,pitch_deg,fz_total,understeer_deg,fc_util_fl,fc_util_fr,fc_util_rl,fc_util_rr,radius_m,yaw_rate_ref_dps
0.0000,accel,0.0000,0.0000,0.0000,0.0000,0.0000,0.0000,0.0000,0.0000,0.0000,0.0000,1,1000.0000,3776.8500,3776.8500,3090.1500,3090.1500,0.0000,0.0000,0.0000,0.0000,0.0000,0.0000,0.0000,0.0000,0.0000,0.0000,0.0000,0.0000,0.0000,0.0000,0.0000,0.0000,0.0000,0.0000,0.0000,0.0000,0.0000,0.0000,0.0000,0.0000,0.0000,0.0000,0.0000,13734.0000,0.0000,0.0000,0.0000,0.0000,0.0000,0.0000,0.0000
0.1000,accel,-0.0000,0.0000,0.0000,0.0120,0.0024,0.0000,0.0000,0.0500,0.0000,0.0000,1,1000.0000,3724.4579,3724.4579,3142.6141,3142.6141,0.0008,0.0008,0.0022,0.0022,0.0000,0.0000,0.0000,0.0000,-0.7672,-0.7672,84.1828,84.1828,0.0000,0.0000,0.0000,0.0000,0.0000,-0.0738,-0.0738,0.1345,0.1345,-3.2305,-3.2305,3.9449,3.9449,0.0000,-0.0046,13734.1441,0.0000,0.0002,0.0002,0.0268,0.0268,0.0000,0.0000
0.2000,accel,0.0012,0.0000,0.0000,0.0820,0.0206,0.0000,0.0000,0.1000,0.0000,0.0000,1,1000.0000,3707.7652,3707.7652,3159.3017,3159.3017,0.0008,0.0008,0.0038,0.0038,0.0000,0.0000,0.0000,0.0000,-2.0104,-2.0104,182.2435,182.2435,0.0000,0.0000,0.0000,0.0000,0.0000,-0.5008,-0.5008,0.6343,0.6343,-4.9502,-4.9502,5.6212,5.6212,0.0000,-0.0250,13734.1338,0.0000,0.0005,0.0005,0.0577,0.0577,0.0000,0.0000
0.3000,accel,0.0052,0.0000,0.0000,0.2013,0.0526,0.0000,0.0000,0.1500,0.0000,0.0000,1,1000.0000,3691.4021,3691.4021,3175.6402,3175.6402,0.0007,0.0007,0.0054,0.0054,0.0000,0.0000,0.0000,0.0000,-3.7921,-3.7921,279.5785,279.5785,0.0000,0.0000,0.0000,0.0000,0.0000,-1.0440,-1.0440,1.2320,1.2320,-5.7451,-5.7451,6.1801,6.1801,0.0000,-0.0502,13734.0846,0.0000,0.0010,0.0010,0.0880,0.0880,0.0000,0.0000
0.4000,accel,0.0132,0.0000,0.0000,0.3725,0.0979,0.0000,0.0000,0.2000,0.0000,0.0000,1,1000.0000,3683.0486,3683.0486,3183.8880,3183.8880,0.0007,0.0007,0.0087,0.0087,0.0000,0.0000,0.0000,0.0000,-4.5816,-4.5816,472.9537,472.9537,0.0000,0.0000,0.0000,0.0000,0.0000,-1.6284,-1.6284,1.8443,1.8443,-3.9573,-3.9573,3.3561,3.3561,0.0000,-0.0765,13733.8732,0.0000,0.0012,0.0012,0.1485,0.1485,0.0000,0.0000
0.5000,accel,0.0265,0.0000,0.0000,0.5907,0.1583,0.0000,0.0000,0.2500,0.0000,0.0000,1,1000.0000,3298.7533,3298.7533,3570.2102,3570.2102,-0.0022,-0.0022,0.0109,0.0109,0.0000,0.0000,0.0000,0.0000,-187.7943,-187.7943,675.1494,675.1494,0.0000,0.0000,0.0000,0.0000,0.0000,-1.0461,-1.0461,3.8823,3.8823,-117.9156,-117.9156,137.5046,137.5046,0.0000,-0.1086,13737.9269,0.0000,0.0569,0.0569,0.1891,0.1891,0.0000,0.0000
0.6000,accel,0.0464,0.0000,0.0000,0.8891,0.2028,0.0000,0.0000,0.3000,0.0000,0.0000,1,1000.0000,3967.2718,3967.2718,2899.6423,2899.6423,0.5461,0.5461,0.0005,0.0005,0.0000,0.0000,0.0000,0.0000,3726.5853,3726.5853,-18.2352,-18.2352,0.0000,0.0000,0.0000,0.0000,0.0000,-0.1229,-0.1229,3.9076,3.9076,93.0933,93.0933,-93.5533,-93.5533,0.0000,-0.0888,13733.8282,0.0000,0.9393,0.9393,0.0063,0.0063,0.0000,0.0000
0.7000,accel,0.0751,0.0000,0.0000,1.2544,0.2947,0.0000,0.0000,0.3500,0.0000,0.0000,1,1000.0000,3912.1563,3912.1563,2954.9606,2954.9606,0.3325,0.3325,0.0142,0.0142,0.0000,0.0000,0.0000,0.0000,3778.8479,3778.8479,732.8855,732.8855,0.0000,0.0000,0.0000,0.0000,0.0000,-1.2776,-1.2776,4.3811,4.3811,82.5944,82.5944,-81.1304,-81.1304,0.0000,-0.1247,13734.2337,0.0000,0.9659,0.9659,0.2480,0.2480,0.0000,0.0000
0.8000,accel,0.1128,0.0000,0.0000,1.3908,0.4519,0.0000,0.0000,0.4000,0.0000,0.0000,1,1000.0000,3439.1488,3439.1488,3423.5853,3423.5853,-0.0366,-0.0366,-0.3565,-0.3565,0.0000,0.0000,0.0000,0.0000,-2111.8267,-2111.8267,-3397.8502,-3397.8502,0.0000,0.0000,0.0000,0.0000,0.0000,-2.3186,-2.3186,9.0218,9.0218,-68.7130,-68.7130,27.4601,27.4601,0.0000,-0.2499,13725.4682,0.0000,0.6141,0.6141,0.9925,0.9925,0.0000,0.0000
0.9000,accel,0.1620,0.0000,0.0000,1.8973,0.5554,0.0000,0.0000,0.4500,0.0000,0.0000,1,1000.0000,3458.4757,3458.4757,3402.5095,3402.5095,0.0169,0.0169,-0.2989,-0.2989,0.0000,0.0000,0.0000,0.0000,1017.5529,1017.5529,-3402.5095,-3402.5095,0.0000,0.0000,0.0000,0.0000,0.0000,-1.6247,-1.6247,9.9381,9.9381,-68.1476,-68.1476,9.8666,9.8666,0.0000,-0.2548,13721.9704,0.0000,0.2942,0.2942,1.0000,1.0000,0.0000,0.0000
1.0000,accel,0.2228,0.0000,0.0000,2.3607,0.6757,0.0000,0.0000,0.5000,0.0000,0.0000,1,1000.0000,3463.4238,3463.4238,3397.1504,3397.1504,0.0298,0.0298,-0.1911,-0.1911,0.0000,0.0000,0.0000,0.0000,1719.1051,1719.1051,-3397.1504,-3397.1504,0.0000,0.0000,0.0000,0.0000,0.0000,-1.9244,-1.9244,10.4808,10.4808,-64.5932,-64.5932,2.2962,2.2962,0.0000,-0.2734,13721.1483,0.0000,0.4964,0.4964,1.0000,1.0000,0.0000,0.0000
1.1000,accel,0.2957,0.0000,0.0000,2.9389,0.7985,0.0000,0.0000,0.5500,0.0000,0.0000,1,1035.0133,2581.3413,2581.3413,4289.4296,4289.4296,-0.6360,-0.6360,0.6524,0.6524,0.0000,0.0000,0.0000,0.0000,-2478.7563,-2478.7563,3983.5746,3983.5746,0.0000,0.0000,0.0000,0.0000,0.0000,-2.1589,-2.1589,11.1097,11.1097,-314.9416,-314.9416,352.9184,352.9184,0.0000,-0.2924,13741.5417,0.0000,0.9603,0.9603,0.9287,0.9287,0.0000,0.0000
1.2000,accel,0.3833,0.0000,0.0000,3.2256,0.9777,0.0000,0.0000,0.6000,0.0000,0.0000,1,1000.0000,2584.6624,2584.6624,4286.8787,4286.8787,-0.1719,-0.1719,-0.1211,-0.1211,0.0000,0.0000,0.0000,0.0000,-2584.6624,-2584.6624,-4275.1539,-4275.1539,0.0000,0.0000,0.0000,0.0000,0.0000,-4.7386,-4.7386,12.2031,12.2031,-295.5661,-295.5661,340.9642,340.9642,0.0000,-0.3733,13743.0823,0.0000,1.0000,1.0000,0.9973,0.9973,0.0000,0.0000
1.3000,accel,0.4872,0.0000,0.0000,4.0375,1.1052,0.0000,0.0000,0.6000,0.0000,0.0000,1,1092.5703,2610.7492,2610.7492,4259.7213,4259.7213,-0.2892,-0.2892,0.5854,0.5854,0.0000,0.0000,0.0000,0.0000,-2610.7492,-2610.7492,3983.9047,3983.9047,0.0000,0.0000,0.0000,0.0000,0.0000,-3.3798,-3.3798,11.9329,11.9329,-297.8191,-297.8191,332.8033,332.8033,0.0000,-0.3374,13740.9410,0.0000,1.0000,1.0000,0.9353,0.9353,0.0000,0.0000
1.4000,accel,0.6086,0.0000,0.0000,4.7509,1.2414,0.0000,0.0000,0.6000,0.0000,0.0000,1,1000.0000,3917.6279,3917.6279,2946.8035,2946.8035,0.5564,0.5564,0.1757,0.1757,0.0000,0.0000,0.0000,0.0000,3675.6755,3675.6755,2902.4435,2902.4435,0.0000,0.0000,0.0000,0.0000,0.0000,-2.9518,-2.9518,10.3398,10.3398,101.5249,101.5249,-126.0235,-126.0235,0.0000,-0.2929,13728.8628,0.0000,0.9382,0.9382,0.9849,0.9849,0.0000,0.0000
1.5000,accel,0.7460,0.0000,0.0000,5.0914,1.4956,0.0000,0.0000,0.6000,0.0000,0.0000,1,1000.0000,2570.6221,2570.6221,4301.0371,4301.0371,-0.4344,-0.4344,-0.2325,-0.2325,0.0000,0.0000,0.0000,0.0000,-2524.7192,-2524.7192,-4301.0371,-4301.0371,0.0000,0.0000,0.0000,0.0000,0.0000,-6.8171,-6.8171,13.7424,13.7424,-284.7315,-284.7315,331.2353,331.2353,0.0000,-0.4531,13743.3184,0.0000,0.9821,0.9821,1.0000,1.0000,0.0000,0.0000
1.6000,accel,0.9021,0.0000,0.0000,5.9510,1.6339,0.0000,0.0000,0.6000,0.0000,0.0000,1,1000.0000,2592.3869,2592.3869,4278.2975,4278.2975,-0.5038,-0.5038,0.3356,0.3356,0.0000,0.0000,0.0000,0.0000,-2524.8359,-2524.8359,4130.5540,4130.5540,0.0000,0.0000,0.0000,0.0000,0.0000,-4.7360,-4.7360,12.9136,12.9136,-293.3780,-293.3780,330.4269,330.4269,0.0000,-0.3889,13741.3689,0.0000,0.9739,0.9739,0.9655,0.9655,0.0000,0.0000
1.7000,accel,1.0734,0.0000,0.0000,6.4113,1.7985,0.0000,0.0000,0.6000,0.0000,0.0000,1,1000.0000,3035.6671,3035.6671,3829.7542,3829.7542,-0.0120,-0.0120,-0.0096,-0.0096,0.0000,0.0000,0.0000,0.0000,-723.5284,-723.5284,-748.7000,-748.7000,0.0000,0.0000,0.0000,0.0000,0.0000,-4.8082,-4.8082,12.8635,12.8635,-166.2106,-166.2106,151.5103,151.5103,0.0000,-0.3894,13730.8426,0.0000,0.2383,0.2383,0.1955,0.1955,0.0000,0.0000
1.8000,accel,1.2635,0.0000,0.0000,7.1701,1.9723,0.0000,0.0000,0.6000,0.0000,0.0000,1,1013.6408,2591.6250,2591.6250,4278.7885,4278.7885,-0.4487,-0.4487,0.2770,0.2770,0.0000,0.0000,0.0000,0.0000,-2540.8062,-2540.8062,4168.5159,4168.5159,0.0000,0.0000,0.0000,0.0000,0.0000,-4.5225,-4.5225,13.0221,13.0221,-295.1206,-295.1206,329.5387,329.5387,0.0000,-0.3866,13740.8269,0.0000,0.9804,0.9804,0.9742,0.9742,0.0000,0.0000
1.9000,accel,1.4696,0.0000,0.0000,7.5932,2.1888,0.0000,0.0000,0.6000,0.0000,0.0000,1,1000.0000,2560.4613,2560.4613,4310.1500,4310.1500,-0.6813,-0.6813,-0.1074,-0.1074,0.0000,0.0000,0.0000,0.0000,-2447.7826,-2447.7826,-4234.1351,-4234.1351,0.0000,0.0000,0.0000,0.0000,0.0000,-6.6009,-6.6009,14.6805,14.6805,-289.1789,-289.1789,325.4991,325.4991,0.0000,-0.4690,13741.2226,0.0000,0.9560,0.9560,0.9824,0.9824,0.0000,0.0000
2.0000,accel,1.6934,0.0000,0.0000,8.1852,2.3545,0.0000,0.0000,0.6000,0.0000,0.0000,1,1000.0000,2878.4396,2878.4396,3987.6884,3987.6884,-0.1764,-0.1764,-0.1058,-0.1058,0.0000,0.0000,0.0000,0.0000,-2878.4396,-2878.4396,-3908.5618,-3908.5618,0.0000,0.0000,0.0000,0.0000,0.0000,-5.8388,-5.8388,14.7217,14.7217,-203.7713,-203.7713,196.1020,196.1020,0.0000,-0.4531,13732.2560,0.0000,1.0000,1.0000,0.9802,0.9802,0.0000,0.0000
2.1000,accel,1.9378,0.0000,0.0000,9.0951,2.5276,0.0000,0.0000,0.6000,0.0000,0.0000,1,1269.9663,3453.3336,3453.3336,3407.4301,3407.4301,-0.3709,-0.3709,0.2789,0.2789,0.0000,0.0000,0.0000,0.0000,-3420.4361,-3420.4361,3318.6269,3318.6269,0.0000,0.0000,0.0000,0.0000,0.0000,-5.5765,-5.5765,13.7926,13.7926,-41.3895,-41.3895,-19.0786,-19.0786,0.0000,-0.4268,13721.5275,0.0000,0.9905,0.9905,0.9739,0.9739,0.0000,0.0000
2.2000,accel,2.2009,0.0000,0.0000,9.6085,2.7328,0.0000,0.0000,0.6000,0.0000,0.0000,1,1000.0000,3444.2332,3444.2332,3416.8535,3416.8535,-0.0326,-0.0326,-0.2509,-0.2509,0.0000,0.0000,0.0000,0.0000,-1941.8071,-1941.8071,-3416.8535,-3416.8535,0.0000,0.0000,0.0000,0.0000,0.0000,-6.2983,-6.2983,14.0889,14.0889,-38.8343,-38.8343,-18.5024,-18.5024,0.0000,-0.4493,13722.1734,0.0000,0.5638,0.5638,1.0000,1.0000,0.0000,0.0000
2.3000,accel,2.4836,0.0000,0.0000,10.6507,2.8784,0.0000,0.0000,0.6000,0.0000,0.0000,1,1245.2316,3844.7923,3844.7923,3020.2727,3020.2727,0.1366,0.1366,0.1706,0.1706,0.0000,0.0000,0.0000,0.0000,3756.8483,3756.8483,2974.1844,2974.1844,0.0000,0.0000,0.0000,0.0000,0.0000,-5.4002,-5.4002,11.7702,11.7702,96.8748,96.8748,-115.2493,-115.2493,0.0000,-0.3784,13730.1299,0.0000,0.9771,0.9771,0.9847,0.9847,0.0000,0.0000
2.4000,accel,2.7841,0.0000,0.0000,11.3632,3.0761,0.0000,0.0000,0.6000,0.0000,0.0000,1,1294.1728,3857.8678,3857.8678,3007.3420,3007.3420,0.1852,0.1852,0.1499,0.1499,0.0000,0.0000,0.0000,0.0000,3799.7678,3799.7678,2952.5058,2952.5058,0.0000,0.0000,0.0000,0.0000,0.0000,-5.7727,-5.7727,12.3050,12.3050,105.8305,105.8305,-122.7640,-122.7640,0.0000,-0.3984,13730.4197,0.0000,0.9849,0.9849,0.9818,0.9818,0.0000,0.0000
2.5000,accel,3.1046,0.0000,0.0000,11.9457,3.2992,0.0000,0.0000,0.6000,0.0000,0.0000,1,2091.0994,2569.8508,2569.8508,4300.3536,4300.3536,-0.5494,-0.5494,0.4386,0.4386,0.0000,0.0000,0.0000,0.0000,-2490.1416,-2490.1416,4092.3178,4092.3178,0.0000,0.0000,0.0000,0.0000,0.0000,-5.7489,-5.7489,14.3431,14.3431,-292.5817,-292.5817,324.9547,324.9547,0.0000,-0.4428,13740.4089,0.0000,0.9690,0.9690,0.9516,0.9516,0.0000,0.0000
2.6000,accel,3.4469,0.0000,0.0000,12.6088,3.5105,0.0000,0.0000,0.6000,0.0000,0.0000,1,1786.5743,3730.8591,3730.8591,3132.9492,3132.9492,-0.3342,-0.3342,0.2999,0.2999,0.0000,0.0000,0.0000,0.0000,-3714.7031,-3714.7031,3041.3480,3041.3480,0.0000,0.0000,0.0000,0.0000,0.0000,-6.8904,-6.8904,13.7064,13.7064,66.2035,66.2035,-96.8858,-96.8858,0.0000,-0.4539,13727.6165,0.0000,0.9957,0.9957,0.9708,0.9708,0.0000,0.0000
2.7000,accel,3.8102,0.0000,0.0000,13.2687,3.7653,0.0000,0.0000,0.6000,0.0000,0.0000,1,1205.5084,2565.6573,2565.6573,4304.4763,4304.4763,-0.2415,-0.2415,-0.0920,-0.0920,0.0000,0.0000,0.0000,0.0000,-2565.6573,-2565.6573,-4108.7884,-4108.7884,0.0000,0.0000,0.0000,0.0000,0.0000,-8.1335,-8.1335,16.1667,16.1667,-276.7473,-276.7473,308.3675,308.3675,0.0000,-0.5355,13740.2673,0.0000,1.0000,1.0000,0.9545,0.9545,0.0000,0.0000
2.8000,accel,4.1968,0.0000,0.0000,14.3284,3.9613,0.0000,0.0000,0.6000,0.0000,0.0000,1,2453.9955,2588.8822,2588.8822,4279.9799,4279.9799,-0.5891,-0.5891,0.4272,0.4272,0.0000,0.0000,0.0000,0.0000,-2497.9640,-2497.9640,4079.0009,4079.0009,0.0000,0.0000,0.0000,0.0000,0.0000,-6.4512,-6.4512,15.8845,15.8845,-282.1277,-282.1277,301.3911,301.3911,0.0000,-0.4922,13737.7243,0.0000,0.9649,0.9649,0.9530,0.9530,0.0000,0.0000
2.9000,accel,4.6073,0.0000,0.0000,15.3163,4.1749,0.0000,0.0000,0.6000,0.0000,0.0000,1,1687.3920,3769.2199,3769.2199,3093.5225,3093.5225,0.2333,0.2333,0.1213,0.1213,0.0000,0.0000,0.0000,0.0000,3695.8806,3695.8806,2992.8548,2992.8548,0.0000,0.0000,0.0000,0.0000,0.0000,-6.2486,-6.2486,14.8209,14.8209,75.1296,75.1296,-116.1115,-116.1115,0.0000,-0.4643,13725.4847,0.0000,0.9805,0.9805,0.9675,0.9675,0.0000,0.0000
3.0000,accel,5.0411,0.0000,0.0000,16.1061,4.3939,0.0000,0.0000,0.6000,0.0000,0.0000,1,2061.1540,3823.1780,3823.1780,3040.6855,3040.6855,0.2302,0.2302,0.2433,0.2433,0.0000,0.0000,0.0000,0.0000,3750.3849,3750.3849,2977.3995,2977.3995,0.0000,0.0000,0.0000,0.0000,0.0000,-6.0309,-6.0309,13.8916,13.8916,94.5366,94.5366,-124.5696,-124.5696,0.0000,-0.4390,13727.7271,0.0000,0.9810,0.9810,0.9792,0.9792,0.0000,0.0000
3.1000,accel,5.4992,0.0000,0.0000,16.9782,4.6359,0.0000,0.0000,0.6000,0.0000,0.0000,1,1961.4609,3743.2388,3743.2388,3120.9116,3120.9116,0.2136,0.2136,0.1614,0.1614,0.0000,0.0000,0.0000,0.0000,3679.3155,3679.3155,3070.6695,3070.6695,0.0000,0.0000,0.0000,0.0000,0.0000,-6.8898,-6.8898,13.4502,13.4502,71.1499,71.1499,-98.4950,-98.4950,0.0000,-0.4482,13728.3008,0.0000,0.9829,0.9829,0.9839,0.9839,0.0000,0.0000
3.2000,accel,5.9808,0.0000,0.0000,17.8461,4.8778,0.0000,0.0000,0.6000,0.0000,0.0000,1,1950.9154,4089.7256,4089.7256,2777.5216,2777.5216,0.2198,0.2198,0.1132,0.1132,0.0000,0.0000,0.0000,0.0000,4017.0536,4017.0536,2665.4337,2665.4337,0.0000,0.0000,0.0000,0.0000,0.0000,-6.4633,-6.4633,14.2415,14.2415,205.4797,205.4797,-202.2591,-202.2591,0.0000,-0.4563,13734.4945,0.0000,0.9822,0.9822,0.9596,0.9596,0.0000,0.0000
3.3000,accel,6.4860,0.0000,0.0000,18.5888,5.0837,0.0000,0.0000,0.6000,0.0000,0.0000,1,2690.4636,4804.9596,4804.9596,2069.4741,2069.4741,0.2234,0.2234,0.3302,0.3302,0.0000,0.0000,0.0000,0.0000,4717.5214,4717.5214,1999.6442,1999.6442,0.0000,0.0000,0.0000,0.0000,0.0000,-4.5373,-4.5373,13.3711,13.3711,472.3126,472.3126,-398.3413,-398.3413,0.0000,-0.3946,13748.8674,0.0000,0.9818,0.9818,0.9663,0.9663,0.0000,0.0000
3.4000,accel,7.0167,0.0000,0.0000,19.5404,5.4216,0.0000,0.0000,0.6000,0.0000,0.0000,1,1906.1000,3451.0605,3451.0605,3410.7461,3410.7461,0.0180,0.0180,-0.0076,-0.0076,0.0000,0.0000,0.0000,0.0000,1080.4784,1080.4784,-540.3919,-540.3919,0.0000,0.0000,0.0000,0.0000,0.0000,-9.4210,-9.4210,16.2633,16.2633,-14.5782,-14.5782,-35.7789,-35.7789,0.0000,-0.5660,13723.6130,0.0000,0.3131,0.3131,0.1584,0.1584,0.0000,0.0000
3.5000,accel,7.5731,0.0000,0.0000,20.3425,5.6607,0.0000,0.0000,0.6000,0.0000,0.0000,1,2813.6444,3808.7736,3808.7736,3057.1046,3057.1046,-0.2415,-0.2415,0.2870,0.2870,0.0000,0.0000,0.0000,0.0000,-3808.7736,-3808.7736,2973.6982,2973.6982,0.0000,0.0000,0.0000,0.0000,0.0000,-9.1449,-9.1449,15.3522,15.3522,119.9144,119.9144,-130.3114,-130.3114,0.0000,-0.5398,13731.7563,0.0000,1.0000,1.0000,0.9727,0.9727,0.0000,0.0000
3.6000,accel,8.1565,0.0000,0.0000,21.4457,5.9556,0.0000,0.0000,0.6000,0.0000,0.0000,1,2401.0867,3303.2165,3303.2165,3559.7785,3559.7785,-0.1715,-0.1715,0.1209,0.1209,0.0000,0.0000,0.0000,0.0000,-3303.2165,-3303.2165,3442.8367,3442.8367,0.0000,0.0000,0.0000,0.0000,0.0000,-10.9013,-10.9013,16.4713,16.4713,-46.2459,-46.2459,7.4422,7.4422,0.0000,-0.6032,13725.9899,0.0000,1.0000,1.0000,0.9671,0.9671,0.0000,0.0000
3.7000,accel,8.7672,0.0000,0.0000,22.2945,6.2308,0.0000,0.0000,0.6000,0.0000,0.0000,1,2170.1330,3147.1760,3147.1760,3717.2062,3717.2062,-0.0374,-0.0374,-0.0169,-0.0169,0.0000,0.0000,0.0000,0.0000,-1961.2627,-1961.2627,-1206.7386,-1206.7386,0.0000,0.0000,0.0000,0.0000,0.0000,-10.7324,-10.7324,16.8206,16.8206,-92.0353,-92.0353,66.9210,66.9210,0.0000,-0.6072,13728.7644,0.0000,0.6232,0.6232,0.3246,0.3246,0.0000,0.0000
3.8000,accel,9.4061,0.0000,0.0000,23.4131,6.5014,0.0000,0.0000,0.6000,0.0000,0.0000,1,2298.4904,3456.8390,3456.8390,3405.6098,3405.6098,0.0067,0.0067,-0.0021,-0.0021,0.0000,0.0000,0.0000,0.0000,382.7293,382.7293,-189.5740,-189.5740,0.0000,0.0000,0.0000,0.0000,0.0000,-10.7396,-10.7396,16.7356,16.7356,-3.5088,-3.5088,-40.6201,-40.6201,0.0000,-0.6055,13724.8977,0.0000,0.1107,0.1107,0.0557,0.0557,0.0000,0.0000
3.9000,accel,10.0728,0.0000,0.0000,24.3546,6.7651,0.0000,0.0000,0.6000,0.0000,0.0000,1,3078.6170,3391.7679,3391.7679,3470.8132,3470.8132,-0.1720,-0.1720,0.2214,0.2214,0.0000,0.0000,0.0000,0.0000,-3391.7679,-3391.7679,3408.5146,3408.5146,0.0000,0.0000,0.0000,0.0000,0.0000,-10.2072,-10.2072,16.0289,16.0289,-25.9031,-25.9031,-16.9426,-16.9426,0.0000,-0.5782,13725.1624,0.0000,1.0000,1.0000,0.9821,0.9821,0.0000,0.0000
4.0000,accel,10.7678,0.0000,0.0000,25.4805,7.0744,0.0000,0.0000,0.6000,0.0000,0.0000,1,2607.7828,3325.3909,3325.3909,3537.0523,3537.0523,-0.0319,-0.0319,0.0388,0.0388,0.0000,0.0000,0.0000,0.0000,-1844.9867,-1844.9867,2156.4548,2156.4548,0.0000,0.0000,0.0000,0.0000,0.0000,-11.3059,-11.3059,17.3093,17.3093,-37.0202,-37.0202,-7.1629,-7.1629,0.0000,-0.6306,13724.8865,0.0000,0.5548,0.5548,0.6097,0.6097,0.0000,0.0000
4.1000,accel,11.4922,0.0000,0.0000,26.5232,7.3954,0.0000,0.0000,0.6000,0.0000,0.0000,1,2635.0824,2710.9599,2710.9599,4158.2786,4158.2786,-0.1694,-0.1694,0.0057,0.0057,0.0000,0.0000,0.0000,0.0000,-2710.9599,-2710.9599,382.4508,382.4508,0.0000,0.0000,0.0000,0.0000,0.0000,-12.7917,-12.7917,18.6991,18.6991,-201.9596,-201.9596,224.5641,224.5641,0.0000,-0.6940,13738.4769,0.0000,1.0000,1.0000,0.0920,0.0920,0.0000,0.0000
4.2000,accel,12.2474,0.0000,0.0000,27.6652,7.6843,0.0000,0.0000,0.6000,0.0000,0.0000,1,2908.7961,3060.3425,3060.3425,3805.0203,3805.0203,-0.1460,-0.1460,0.0640,0.0640,0.0000,0.0000,0.0000,0.0000,-3060.3425,-3060.3425,3116.6162,3116.6162,0.0000,0.0000,0.0000,0.0000,0.0000,-12.4404,-12.4404,18.1125,18.1125,-104.6447,-104.6447,89.1276,89.1276,0.0000,-0.6733,13730.7257,0.0000,1.0000,1.0000,0.8191,0.8191,0.0000,0.0000
4.3000,accel,13.0332,0.0000,0.0000,28.7161,7.9735,0.0000,0.0000,0.6000,0.0000,0.0000,1,3318.1417,3256.0161,3256.0161,3607.8573,3607.8573,-0.1662,-0.1662,0.1486,0.1486,0.0000,0.0000,0.0000,0.0000,-3256.0161,-3256.0161,3540.8517,3540.8517,0.0000,0.0000,0.0000,0.0000,0.0000,-12.1495,-12.1495,17.0804,17.0804,-50.8164,-50.8164,20.5834,20.5834,0.0000,-0.6441,13727.7469,0.0000,1.0000,1.0000,0.9814,0.9814,0.0000,0.0000
4.4000,accel,13.8498,0.0000,0.0000,29.8889,8.3043,0.0000,0.0000,0.6000,0.0000,0.0000,1,3059.3195,2670.5134,2670.5134,4200.1739,4200.1739,-0.1623,-0.1623,0.0383,0.0383,0.0000,0.0000,0.0000,0.0000,-2670.5134,-2670.5134,2534.5766,2534.5766,0.0000,0.0000,0.0000,0.0000,0.0000,-13.2622,-13.2622,18.1416,18.1416,-210.1547,-210.1547,246.8972,246.8972,0.0000,-0.6920,13741.3747,0.0000,1.0000,1.0000,0.6034,0.6034,0.0000,0.0000
4.5000,accel,14.6974,0.0000,0.0000,31.0163,8.6089,0.0000,0.0000,0.6000,0.0000,0.0000,1,3295.9919,2883.9055,2883.9055,3984.4119,3984.4119,-0.1424,-0.1424,0.0746,0.0746,0.0000,0.0000,0.0000,0.0000,-2883.9055,-2883.9055,3467.5924,3467.5924,0.0000,0.0000,0.0000,0.0000,0.0000,-13.1882,-13.1882,17.8867,17.8867,-149.7143,-149.7143,163.1421,163.1421,0.0000,-0.6848,13736.6349,0.0000,1.0000,1.0000,0.8703,0.8703,0.0000,0.0000
4.6000,accel,15.5766,0.0000,0.0000,32.1659,8.9353,0.0000,0.0000,0.6000,0.0000,0.0000,1,3305.6346,2705.6800,2705.6800,4164.6564,4164.6564,-0.1448,-0.1448,0.0423,0.0423,0.0000,0.0000,0.0000,0.0000,-2705.6800,-2705.6800,2697.7900,2697.7900,0.0000,0.0000,0.0000,0.0000,0.0000,-13.7587,-13.7587,18.4274,18.4274,-196.5607,-196.5607,229.8321,229.8321,0.0000,-0.7093,13740.6728,0.0000,1.0000,1.0000,0.6478,0.6478,0.0000,0.0000
4.7000,accel,16.4881,0.0000,0.0000,33.3267,9.2523,0.0000,0.0000,0.6000,0.0000,0.0000,1,3508.5104,2866.4605,2866.4605,4001.9594,4001.9594,-0.1347,-0.1347,0.0657,0.0657,0.0000,0.0000,0.0000,0.0000,-2866.4605,-2866.4605,3314.8580,3314.8580,0.0000,0.0000,0.0000,0.0000,0.0000,-13.7210,-13.7210,18.3706,18.3706,-150.8928,-150.8928,165.3219,165.3219,0.0000,-0.7072,13736.8396,0.0000,1.0000,1.0000,0.8283,0.8283,0.0000,0.0000
4.8000,accel,17.4322,0.0000,0.0000,34.5048,9.5821,0.0000,0.0000,0.6000,0.0000,0.0000,1,3585.9001,2803.0033,2803.0033,4066.0979,4066.0979,-0.1292,-0.1292,0.0533,0.0533,0.0000,0.0000,0.0000,0.0000,-2803.0033,-2803.0033,3038.0785,3038.0785,0.0000,0.0000,0.0000,0.0000,0.0000,-14.0418,-14.0418,18.6825,18.6825,-166.7322,-166.7322,187.8586,187.8586,0.0000,-0.7211,13738.2024,0.0000,1.0000,1.0000,0.7472,0.7472,0.0000,0.0000
4.9000,accel,18.4093,0.0000,0.0000,35.6974,9.9122,0.0000,0.0000,0.6000,0.0000,0.0000,1,3734.1261,2849.2035,2849.2035,4019.3076,4019.3076,-0.1225,-0.1225,0.0595,0.0595,0.0000,0.0000,0.0000,0.0000,-2844.6614,-2844.6614,3182.5729,3182.5729,0.0000,0.0000,0.0000,0.0000,0.0000,-14.1889,-14.1889,18.8162,18.8162,-152.4813,-152.4813,167.8055,167.8055,0.0000,-0.7273,13737.0222,0.0000,0.9984,0.9984,0.7918,0.7918,0.0000,0.0000
5.0000,entry,19.4198,0.0000,0.0000,36.9061,10.2474,0.0000,0.0000,0.3000,0.0000,0.0000,1,3876.0934,2883.5780,2883.5780,3984.4915,3984.4915,-0.1158,-0.1158,0.0633,0.0633,0.0000,0.0000,0.0000,0.0000,-2861.5239,-2861.5239,3248.1488,3248.1488,0.0000,0.0000,0.0000,0.0000,0.0000,-14.3700,-14.3700,18.9694,18.9694,-141.3665,-141.3665,152.3463,152.3463,0.0000,-0.7347,13736.1389,0.0000,0.9924,0.9924,0.8152,0.8152,0.0000,11.7426
5.1000,entry,20.4550,0.0051,0.1667,37.4452,10.4113,0.1001,4.6911,0.3000,0.0000,4.4429,1,4081.4495,3332.7751,3659.5057,3249.0169,3487.6725,-0.0953,-0.1078,0.0192,0.1614,-3.5768,-3.5865,0.0302,0.0299,-2822.5400,-3144.1516,1084.6962,3431.5664,1772.1902,1872.5097,-6.5579,-6.8726,0.2290,-11.2834,-8.1735,13.0036,15.0712,-35.0716,50.4934,-58.7041,-5.2853,0.0957,-0.5237,13728.9702,3.5516,1.0000,1.0000,0.3339,0.9839,127.1606,11.9305
5.2000,entry,21.5052,0.0332,1.0442,38.0612,10.5851,0.1807,10.5900,0.3000,0.0000,2.0462,1,3872.5528,2521.9361,3464.0793,3527.2203,4222.6137,-0.0941,-0.1165,0.0491,0.0140,0.6519,0.5914,-0.4990,-0.4853,-2419.1367,-3428.4815,2513.1446,1029.5219,433.5010,495.3384,216.9800,258.0826,0.0906,-17.0585,1.2439,6.6055,19.8578,-225.4890,-87.0370,93.0766,238.7120,0.5832,-0.4658,13735.8495,0.1295,0.9745,1.0000,0.7152,0.2514,57.2693,12.1296
5.3000,entry,22.5714,0.0761,2.0963,38.6574,10.7560,0.1169,10.9869,0.3000,0.0000,2.7074,1,3931.4191,2539.9039,3452.1782,3536.4979,4207.5315,-0.0943,-0.1277,-0.0126,0.0696,-1.6680,-1.7144,-0.7781,-0.7579,-2389.0407,-3265.2267,-885.7494,3568.6762,862.3203,1120.6379,510.5201,607.4865,0.2007,-21.4331,7.1071,2.2006,22.8819,-189.1082,-132.3170,140.8370,202.4377,0.9097,-0.4342,13736.1115,0.9232,1.0000,1.0000,0.2891,0.8604,56.0918,12.3255
5.4000,entry,23.6535,0.1395,3.2111,39.2971,10.9215,0.1272,11.6355,0.3000,0.0000,2.5081,1,4034.4820,2342.6526,3352.3840,3651.5699,4393.4899,-0.0963,-0.1336,0.0130,0.0666,-0.8629,-0.9164,-0.8407,-0.8172,-2236.4266,-3218.9553,827.8821,3660.1694,697.4364,936.3787,573.8098,691.8423,0.1917,-24.0847,10.4539,-0.4816,24.7063,-226.5255,-184.7353,213.6880,258.5768,1.1039,-0.4171,13740.0964,0.0608,1.0000,1.0000,0.2759,0.8478,53.7795,12.5151
5.5000,entry,24.7503,0.2257,4.3703,39.7813,11.0760,0.1347,11.5764,0.3000,0.0000,3.8437,1,4208.0659,2711.8885,3816.9927,3194.6171,4006.3827,-0.0797,-0.0909,0.1421,-0.0181,0.6033,0.5431,-0.9096,-0.8826,-2493.2128,-3633.4449,3128.7078,-1385.7019,724.4084,978.7190,596.2162,728.1760,0.2092,-25.2938,13.1051,-2.4023,25.6953,-112.3932,-70.9273,50.1142,93.8446,1.2290,-0.3910,13729.8810,-0.3229,0.9574,0.9858,0.9970,0.3907,54.8190,12.6921
5.6000,entry,25.8623,0.3363,5.5773,40.4541,11.2576,0.1280,11.8008,0.3000,0.0000,4.5543,1,4152.8609,2305.0629,3452.4613,3569.0634,4411.4366,-0.0887,-0.1366,0.0897,-0.0144,0.6242,0.5648,-0.9655,-0.9367,-2181.9033,-3338.7447,3280.3276,-1245.7881,684.2870,878.7908,639.5665,787.1361,0.2080,-27.0063,14.2272,-2.7395,27.5807,-216.3970,-183.0941,203.2642,237.0112,1.3225,-0.4145,13738.0243,-0.3566,0.9920,1.0000,0.9364,0.3340,54.6588,12.9003
5.7000,entry,26.9883,0.4717,6.8165,41.0553,11.4203,0.1181,12.7432,0.3000,0.0000,2.1377,1,4279.0789,2591.2831,3721.6256,3295.2074,4124.4337,-0.0717,-0.1175,-0.0120,0.1112,-2.0058,-2.0595,-0.9579,-0.9305,-2300.4306,-3493.8126,-789.6676,3948.4472,949.6616,1282.0961,659.9801,819.7632,0.2413,-28.1009,15.2631,-4.0927,27.8032,-126.8014,-113.5892,107.2543,119.9853,1.3910,-0.4027,13732.5498,1.0885,0.9604,1.0000,0.3123,0.9777,51.3476,13.0867
5.8000,entry,28.1282,0.6336,8.0801,41.7498,11.5925,0.1172,12.8317,0.3000,0.0000,2.9660,1,4339.4731,2186.3175,3402.9937,3629.6046,4522.5475,-0.0879,-0.1279,0.0562,0.0510,0.1463,0.0890,-1.0406,-1.0095,-2064.9863,-3263.2528,2790.6680,3295.6757,699.7785,965.1671,688.0635,863.4386,0.2221,-29.3725,16.0598,-4.7026,28.6191,-233.4231,-210.3176,247.1117,271.0718,1.4556,-0.4102,13741.4634,-0.9074,0.9973,1.0000,0.7919,0.7533,51.7628,13.2841
5.9000,entry,29.2806,0.8233,9.3712,42.2535,11.7605,0.1127,12.4925,0.3000,0.0000,6.2079,1,4420.2476,2385.1476,3662.7849,3374.9386,4312.5670,-0.0819,-0.1326,0.1241,-0.0175,1.2147,1.1563,-1.1044,-1.0707,-2210.6991,-3595.7187,3272.5104,-1445.1659,546.0376,697.7107,707.8788,897.9548,0.2023,-30.1115,17.1983,-5.3834,29.4495,-171.3355,-144.2236,152.0536,178.7757,1.5182,-0.4075,13735.4381,0.0979,0.9547,1.0000,0.9921,0.3945,53.9387,13.4766
6.0000,entry,30.4453,1.0416,10.6942,42.9202,11.9187,0.1100,13.3870,0.3000,0.0000,2.6184,1,4654.1501,2484.8306,3798.7671,3242.2368,4206.2811,-0.0700,-0.1300,0.1257,0.0582,1.1713,1.1134,-1.1272,-1.0928,-2186.7201,-3688.2609,3147.6875,3294.3056,732.5229,909.5950,726.0086,929.6267,0.2346,-30.3363,18.5489,-6.2293,29.9233,-141.2492,-115.0190,107.4313,131.5237,1.5717,-0.3909,13732.1157,0.0323,0.9281,1.0000,0.9963,0.8138,51.0117,13.6578
6.1000,entry,31.6212,1.2895,12.0328,43.4703,12.0874,0.1017,13.5418,0.3000,0.0000,3.1345,1,4629.9072,2770.6504,4072.4403,2964.6326,3919.4872,-0.0412,-0.1066,-0.0002,0.1380,-2.3501,-2.4032,-1.1147,-1.0819,-1845.8783,-3862.8566,-57.4746,3802.5078,907.6401,1289.6156,740.4819,950.4283,0.2525,-31.6910,18.9261,-7.2909,29.9352,-49.9096,-39.5203,7.0059,16.6864,1.6236,-0.3902,13727.2105,1.2784,0.7424,1.0000,0.2505,1.0000,51.1424,13.8512
6.2000,entry,32.8076,1.5683,13.3979,44.0871,12.2588,0.0973,13.8686,0.3000,0.0000,2.4799,1,4674.4648,2648.2481,3996.0805,3048.3764,4037.1140,-0.0461,-0.1132,-0.0028,0.1327,-2.1068,-2.1596,-1.1530,-1.1189,-1895.9243,-3775.7896,-206.9404,3913.5610,917.1783,1308.4617,764.3630,991.1255,0.2614,-32.7642,19.5630,-7.8130,30.5838,-77.2159,-65.8867,45.7241,57.2513,1.6768,-0.3964,13729.8190,0.9973,0.7953,1.0000,0.2598,1.0000,50.6450,14.0475
6.3000,entry,34.0034,1.8791,14.7829,44.6801,12.4229,0.0888,13.9264,0.3000,0.0000,3.7028,1,4773.3537,2781.8832,4160.8547,2886.5853,3897.8542,-0.0366,-0.1000,0.0017,0.1416,-2.9926,-3.0437,-1.1934,-1.1581,-1707.9091,-3899.4774,47.5105,3763.1024,1003.5880,1451.4778,781.8999,1016.0352,0.2754,-33.5656,20.4107,-8.7044,30.8479,-33.3103,-24.8639,-7.1987,-0.7808,1.7286,-0.3889,13727.1774,1.8424,0.7121,1.0000,0.2714,1.0000,51.1101,14.2356
6.4000,entry,35.2076,2.2228,16.1925,45.2823,12.5917,0.0821,14.1491,0.3000,0.0000,3.7421,1,4828.6910,2710.1768,4127.3385,2925.5878,3965.0996,-0.0383,-0.1034,-0.0043,0.1427,-3.3653,-3.4154,-1.2305,-1.1941,-1715.9400,-3869.7032,-282.7940,3823.1128,989.2445,1435.3815,803.4939,1051.5814,0.2750,-34.4726,21.1611,-9.3003,31.4735,-47.3193,-39.8000,11.4826,19.5488,1.7819,-0.3910,13728.2026,2.1781,0.7308,1.0000,0.2912,1.0000,50.9893,14.4291
6.5000,entry,36.4191,2.6005,17.6226,45.8797,12.7580,0.0748,14.3236,0.3000,0.0000,4.1542,1,4901.3273,2691.5314,4143.2744,2914.3928,3979.2133,-0.0379,-0.1020,-0.0054,0.1463,-4.0759,-4.1247,-1.2654,-1.2281,-1692.6182,-3845.1388,-341.4860,3829.0422,1058.7751,1543.2531,822.5986,1082.8548,0.2870,-35.3088,21.9525,-9.9619,32.0024,-46.6735,-40.8998,13.6201,19.9049,1.8339,-0.3900,13728.4120,2.8535,0.7418,1.0000,0.3056,1.0000,51.0335,14.6196
6.6000,entry,37.6367,3.0133,19.0739,46.4726,12.9231,0.0666,14.4687,0.3000,0.0000,4.8539,1,4961.8481,2713.7547,4200.4821,2861.5158,3951.9246,-0.0341,-0.0959,-0.0067,0.1464,-4.8379,-4.8853,-1.3041,-1.2657,-1580.8431,-3869.7617,-405.4974,3791.5257,1109.5306,1633.7058,841.1850,1114.4687,0.2963,-36.1230,22.7710,-10.6599,32.5002,-34.5085,-30.4010,-0.3932,4.0121,1.8862,-0.3878,13727.6772,3.5767,0.7117,1.0000,0.3263,1.0000,51.1753,14.8088
6.7000,entry,38.8591,3.4619,20.5462,47.0651,13.0869,0.0591,14.6609,0.3000,0.0000,5.1106,1,5022.9181,2722.5216,4250.4162,2817.1276,3937.6073,-0.0307,-0.0919,-0.0049,0.1445,-5.0566,-5.1031,-1.3444,-1.3047,-1465.9463,-3884.8117,-304.1831,3766.7535,1163.8561,1724.6089,859.8311,1147.3098,0.3100,-36.9294,23.5928,-11.3396,33.0122,-26.2437,-22.0041,-8.2204,-4.8819,1.9383,-0.3857,13727.6728,3.7553,0.6875,1.0000,0.3238,1.0000,51.1443,14.9964
6.8000,entry,40.0850,3.9472,22.0390,47.6558,13.2496,0.0517,14.8421,0.3000,0.0000,5.4689,1,5081.6784,2701.2461,4272.1156,2801.2133,3953.2044,-0.0283,-0.0912,-0.0023,0.1415,-5.0776,-5.1234,-1.3850,-1.3440,-1363.1024,-3903.8104,-161.7603,3772.5710,1163.1374,1735.2914,878.1436,1181.3268,0.3153,-37.7515,24.4050,-12.0065,33.5484,-26.4501,-21.6056,-8.0043,-4.2561,1.9908,-0.3844,13727.7794,3.7360,0.6634,1.0000,0.3188,1.0000,51.1483,15.1830
6.9000,entry,41.3129,4.4702,23.5513,48.2396,13.4114,0.0438,15.0228,0.3000,0.0000,5.8261,1,5138.5576,2665.7589,4277.3031,2801.5182,3983.3537,-0.0266,-0.0920,-0.0025,0.1401,-5.3130,-5.3578,-1.4239,-1.3817,-1278.8376,-3903.7157,-174.9677,3793.5417,1164.9123,1748.2349,896.2209,1214.9683,0.3195,-38.5898,25.1947,-12.6701,34.0858,-30.6020,-25.7640,-3.1770,0.7274,2.0431,-0.3836,13727.9339,3.9326,0.6489,1.0000,0.3259,1.0000,51.1500,15.3683
7.0000,entry,42.5414,5.0315,25.0827,48.8165,13.5711,0.0355,15.1843,0.3000,0.0000,6.3914,1,5196.6504,2644.6028,4294.8932,2789.1731,3999.4511,-0.0242,-0.0906,-0.0025,0.1391,-5.7548,-5.7985,-1.4622,-1.4189,-1174.9570,-3902.1185,-171.6074,3799.9005,1184.9622,1794.3184,913.5098,1247.5436,0.3260,-39.4134,25.9919,-13.3551,34.6020,-30.7637,-26.4327,-1.8110,2.0043,2.0952,-0.3820,13728.1203,4.3361,0.6310,1.0000,0.3332,1.0000,51.2088,15.5514
7.1000,entry,43.7690,5.6318,26.6334,49.3877,13.7290,0.0279,15.4005,0.3000,0.0000,6.2654,1,5253.0901,2617.9493,4311.6384,2778.2941,4020.4724,-0.0226,-0.0905,-0.0014,0.1371,-5.6771,-5.7199,-1.5006,-1.4560,-1097.6294,-3889.0353,-113.2598,3811.0614,1224.2403,1861.6203,930.4124,1280.6286,0.3389,-40.2331,26.7831,-14.0365,35.1280,-32.5236,-27.2998,-0.0524,5.1535,2.1473,-0.3806,13728.3542,4.2202,0.6281,1.0000,0.3374,1.0000,51.0770,15.7322
7.2000,entry,44.9941,6.2719,28.2026,49.9533,13.8852,0.0185,15.5183,0.3000,0.0000,7.3726,1,5310.5530,2598.1493,4329.8610,2765.2713,4035.2937,-0.0191,-0.0894,-0.0008,0.1360,-6.1979,-6.2396,-1.5404,-1.4947,-940.3895,-3913.1826,-84.1684,3815.6565,1203.6150,1853.2939,946.8330,1313.1492,0.3384,-41.0566,27.5869,-14.7298,35.6447,-32.2985,-27.8347,1.6500,5.9146,2.1998,-0.3789,13728.5753,4.7012,0.5879,1.0000,0.3438,1.0000,51.2663,15.9113
7.3000,entry,46.2150,6.9523,29.7907,50.5100,14.0391,0.0116,15.8048,0.3000,0.0000,6.1872,1,5365.3997,2568.3477,4346.5984,2754.8884,4059.0807,-0.0193,-0.0898,0.0004,0.1339,-5.6903,-5.7314,-1.5774,-1.5303,-937.1246,-3859.6578,-19.0621,3829.3114,1301.4546,1998.9894,963.1866,1346.2951,0.3637,-41.8714,28.3610,-15.3914,36.1661,-34.9932,-28.5819,4.1136,10.2155,2.2510,-0.3778,13728.9152,4.1570,0.6244,1.0000,0.3497,1.0000,50.8948,16.0877
7.4000,entry,47.4302,7.6735,31.3962,51.0651,14.1918,-0.0003,15.7721,0.3000,0.0000,9.4470,1,5423.5853,2566.9390,4376.9668,2728.7529,4056.1589,-0.0109,-0.0868,0.0008,0.1336,-6.9792,-7.0185,-1.6202,-1.5721,-560.0856,-3960.6725,0.0637,3815.1247,1179.6455,1863.0381,978.1391,1377.4064,0.3432,-42.6936,29.1945,-16.1227,36.6527,-29.5232,-25.8584,0.9722,4.1801,2.3041,-0.3749,13728.8175,5.4027,0.5087,1.0000,0.3585,1.0000,51.5550,16.2626
7.5000,entry,48.6377,8.4360,33.0211,51.6039,14.3416,-0.0036,16.3341,0.3000,0.0000,3.9851,1,5471.8574,2513.0452,4382.6951,2731.2573,4102.5512,-0.0196,-0.0903,0.0028,0.1295,-4.7159,-4.7558,-1.6517,-1.6021,-930.4273,-3768.7976,103.1992,3851.5445,1459.7029,2237.0027,994.9573,1412.9866,0.4070,-43.5115,29.8964,-16.7200,37.1954,-39.0795,-29.2359,7.9466,17.3102,2.3533,-0.3756,13729.5488,3.1089,0.6888,1.0000,0.3662,1.0000,50.3066,16.4342
7.6000,entry,49.8360,9.2402,34.6614,52.1501,14.4912,-0.0193,16.0970,0.3000,0.0000,10.0000,1,5533.9188,2532.1825,4421.9637,2694.5848,4080.4537,-0.0045,-0.0842,0.0023,0.1313,-7.5542,-7.5914,-1.6987,-1.6481,-252.6069,-3943.2763,74.9244,3817.4517,1241.2474,2001.0836,1008.2972,1441.2374,0.3649,-44.3303,30.7677,-17.5149,37.6319,-27.7629,-24.2396,1.2265,4.1069,2.4072,-0.3711,13729.1846,5.8994,0.5002,1.0000,0.3752,1.0000,51.5800,16.6057
7.7000,entry,51.0232,10.0865,36.3222,52.6761,14.6378,-0.0221,16.6963,0.3000,0.0000,3.9349,1,5576.2931,2462.0113,4416.8062,2708.8259,4142.5776,-0.0162,-0.0909,0.0045,0.1257,-4.3939,-4.4318,-1.7310,-1.6788,-771.6712,-3775.9176,191.2556,3868.9049,1476.5576,2291.4237,1025.8812,1480.7174,0.4229,-45.1750,31.4456,-18.0865,38.2080,-41.7781,-30.5551,12.6391,23.1946,2.4566,-0.3730,13730.2209,2.7079,0.6767,1.0000,0.3852,1.0000,50.2317,16.7737
7.8000,entry,52.1975,10.9750,37.9976,53.2088,14.7838,-0.0385,16.4638,0.3000,0.0000,10.0000,1,5641.0542,2498.0175,4470.9210,2656.8622,4103.6894,-0.0005,-0.0822,0.0039,0.1288,-7.6209,-7.6561,-1.7775,-1.7245,-61.6184,-3924.6670,157.4146,3817.3862,1310.0077,2141.5236,1037.8823,1505.9312,0.3892,-45.9717,32.3361,-18.9029,38.6198,-25.8000,-21.4549,0.0182,3.5216,2.5105,-0.3675,13729.4901,5.8875,0.5250,1.0000,0.3951,1.0000,51.4490,16.9409
7.9000,entry,53.3570,11.9060,39.6933,53.7228,14.9274,-0.0421,17.0340,0.3000,0.0000,4.1259,1,5679.1017,2414.8406,4452.3805,2684.5599,4178.9890,-0.0139,-0.0906,0.0061,0.1224,-4.2946,-4.3304,-1.8110,-1.7563,-660.9106,-3781.6673,269.7304,3881.3643,1493.3396,2350.0394,1056.1414,1548.8578,0.4374,-46.8244,33.0088,-19.4355,39.2373,-43.4741,-31.5572,16.4225,27.4669,2.5599,-0.3704,13730.7701,2.5289,0.6763,1.0000,0.4060,1.0000,50.2102,17.1056
8.0000,hold,54.4998,12.8796,41.4030,54.2418,15.0696,-0.0586,16.8199,0.3000,0.0000,10.0000,1,5744.9013,2461.9275,4517.3917,2621.5486,4128.9050,0.0021,-0.0806,0.0054,0.1262,-7.6595,-7.6927,-1.8569,-1.8013,59.4755,-3910.7793,230.7244,3818.2907,1362.8669,2261.1132,1066.7399,1571.1500,0.4101,-47.5933,33.9147,-20.2520,39.6357,-24.5288,-19.4533,-0.4406,3.4493,2.6133,-0.3643,13729.7729,5.8470,0.5541,1.0000,0.4163,1.0000,51.3336,17.2685
8.1000,hold,55.6241,13.8958,43.1318,54.7440,15.2104,-0.0632,17.3539,0.3010,0.0000,4.3452,1,5780.9115,2370.4930,4488.1632,2659.6717,4212.8511,-0.0131,-0.0896,0.0076,0.1196,-4.3154,-4.3489,-1.8905,-1.8333,-615.0750,-3780.3882,340.5928,3890.3356,1512.7596,2419.1474,1085.6682,1616.6024,0.4516,-48.4410,34.5759,-20.7353,40.2877,-44.5977,-32.5272,19.4655,30.5073,2.6622,-0.3682,13731.1791,2.4702,0.6889,1.0000,0.4278,1.0000,50.2186,17.4298
8.2000,hold,56.7278,14.9545,44.8741,55.2525,15.3498,-0.0799,17.1541,0.3019,0.0000,10.0000,1,5847.3917,2422.6703,4558.3016,2591.4259,4157.5841,0.0025,-0.0796,0.0070,0.1238,-7.4387,-7.4697,-1.9356,-1.8776,79.2575,-3904.0924,303.6766,3822.0291,1394.6963,2352.9080,1095.0295,1636.3370,0.4278,-49.1894,35.4771,-21.5215,40.6981,-24.3439,-18.9248,0.0291,4.2966,2.7148,-0.3624,13729.9819,5.5476,0.5766,1.0000,0.4385,1.0000,51.2693,17.5895
8.3000,hold,57.8091,16.0557,46.6346,55.7475,15.4885,-0.0851,17.6577,0.3029,0.0000,4.6154,1,5882.5205,2330.1763,4526.7461,2631.7080,4242.7371,-0.0127,-0.0883,0.0090,0.1173,-4.3369,-4.3681,-1.9690,-1.9095,-587.4885,-3782.0723,407.7734,3894.6612,1525.4128,2487.4403,1113.7827,1682.9832,0.4648,-50.0327,36.1291,-21.9586,41.3824,-44.7474,-32.5975,20.5128,31.5147,2.7632,-0.3672,13731.3674,2.4132,0.7015,1.0000,0.4507,1.0000,50.2574,17.7486
8.4000,hold,58.8661,17.1991,48.4086,56.2475,15.6257,-0.1019,17.4807,0.3038,0.0000,10.0000,1,5948.0913,2381.4129,4596.8611,2563.5952,4188.2863,0.0024,-0.0787,0.0084,0.1215,-7.2897,-7.3185,-2.0140,-1.9536,71.5031,-3894.0609,369.3462,3827.1344,1423.8303,2442.8306,1122.2329,1701.4066,0.4443,-50.7769,37.0252,-22.7285,41.8018,-24.7928,-18.9656,0.9672,5.5408,2.8155,-0.3617,13730.1555,5.3203,0.5986,1.0000,0.4609,1.0000,51.2156,17.9057
8.5000,hold,59.8968,18.3846,50.2002,56.7348,15.7622,-0.1079,17.9607,0.3048,0.0000,4.8068,1,5982.7502,2291.1136,4566.8209,2602.2400,4271.3010,-0.0124,-0.0872,0.0104,0.1153,-4.3506,-4.3794,-2.0480,-1.9861,-563.7527,-3781.0676,466.4827,3896.7886,1540.9223,2561.1288,1140.7785,1749.0142,0.4786,-51.6171,37.6794,-23.1561,42.4921,-44.5914,-32.2212,20.7011,31.8431,2.8638,-0.3666,13731.4754,2.3480,0.7162,1.0000,0.4736,1.0000,50.2826,18.0622
8.6000,hold,60.8991,19.6116,52.0051,57.2260,15.8971,-0.1251,17.7961,0.3057,0.0000,10.0000,1,6046.9358,2339.5920,4634.4005,2536.7193,4219.6078,0.0021,-0.0778,0.0098,0.1193,-7.2260,-7.2525,-2.0933,-2.0305,57.8732,-3883.9593,428.3099,3831.9211,1448.5656,2528.3449,1148.6547,1766.7683,0.4597,-52.3608,38.5714,-23.9197,42.9153,-25.4279,-19.2843,2.1288,6.9337,2.9159,-0.3612,13730.3196,5.1773,0.6196,1.0000,0.4833,1.0000,51.1817,18.2168
8.7000,hold,61.8711,20.8798,53.8272,57.7043,16.0310,-0.1315,18.2636,0.3067,0.0000,4.8985,1,6081.7724,2254.3090,4609.4183,2570.2524,4297.5446,-0.0120,-0.0862,0.0116,0.1135,-4.3259,-4.3524,-2.1278,-2.0634,-539.7321,-3778.6134,517.9862,3895.7256,1558.3470,2639.8519,1166.6702,1814.4453,0.4931,-53.1914,39.2320,-24.3541,43.5945,-43.8616,-31.1405,19.8862,31.3171,2.9641,-0.3658,13731.5244,2.2436,0.7316,1.0000,0.4966,1.0000,50.2919,18.3702
8.8000,hold,62.8109,22.1884,55.6622,58.1863,16.1635,-0.1494,18.0957,0.3076,0.0000,10.0000,1,6143.7612,2296.7621,4669.8396,2511.8191,4252.0987,0.0017,-0.0769,0.0111,0.1171,-7.2983,-7.3224,-2.1736,-2.1083,39.7854,-3872.9222,481.9642,3836.9726,1468.3253,2609.1906,1174.4225,1832.4806,0.4736,-53.9357,40.1159,-25.1082,44.0225,-26.4157,-20.1910,4.0533,8.8582,3.0160,-0.3607,13730.5196,5.1694,0.6395,1.0000,0.5054,1.0000,51.1781,18.5220
8.9000,hold,63.7162,23.5370,57.5140,58.6540,16.2943,-0.1558,18.5714,0.3086,0.0000,4.7878,1,6179.1831,2221.6998,4656.5574,2533.7227,4319.5083,-0.0116,-0.0850,0.0127,0.1120,-4.2228,-4.2469,-2.2079,-2.1410,-515.5282,-3771.8728,561.4373,3889.5354,1581.6771,2730.6597,1191.2822,1878.7406,0.5091,-54.7507,40.7808,-25.5585,44.6758,-42.0406,-28.7347,17.3176,29.2894,3.0638,-0.3646,13731.4882,2.0604,0.7488,1.0000,0.5198,1.0000,50.2705,18.6719
9.0000,hold,64.5853,24.9247,59.3781,59.1270,16.4245,-0.1749,18.3674,0.3095,0.0000,10.0000,1,6238.2237,2256.7889,4706.3122,2485.6345,4281.9581,0.0018,-0.0758,0.0121,0.1150,-7.5753,-7.5969,-2.2548,-2.1871,45.0811,-3870.4940,523.2581,3838.4484,1475.8016,2677.4337,1199.2538,1897.7563,0.4847,-55.5021,41.6491,-26.2975,45.1127,-26.6480,-20.7212,5.4727,9.8999,3.1154,-0.3600,13730.6937,5.3652,0.6542,1.0000,0.5264,1.0000,51.2352,18.8211
9.1000,hold,65.4160,26.3506,61.2587,59.5809,16.5512,-0.1807,18.8918,0.3105,0.0000,4.3201,1,6273.3764,2197.2795,4711.3126,2489.4304,4333.2940,-0.0113,-0.0821,0.0137,0.1104,-4.1320,-4.1538,-2.2877,-2.2184,-497.5500,-3738.0055,594.8183,3874.1033,1631.7780,2867.7135,1214.1519,1941.3296,0.5302,-56.2844,42.3154,-26.7781,45.7119,-38.0633,-24.0521,11.7967,24.4431,3.1622,-0.3625,13731.3164,1.8898,0.7764,1.0000,0.5431,1.0000,50.1971,18.9663
9.2000,hold,66.2064,27.8137,63.1504,60.0451,16.6793,-0.2017,18.5994,0.3114,0.0000,10.0000,1,6330.0423,2217.6376,4740.4166,2461.4324,4311.4439,0.0024,-0.0741,0.0130,0.1131,-8.1826,-8.2016,-2.3368,-2.2668,67.5169,-3876.4945,557.2216,3838.7659,1466.1800,2728.4318,1223.4290,1962.7596,0.4914,-57.0514,43.1586,-27.4887,46.1686,-26.7678,-21.7592,7.7044,11.1351,3.2135,-0.3589,13730.9304,5.8903,0.6618,1.0000,0.5462,1.0000,51.3808,19.1130
9.3000,hold,66.9545,29.3128,65.0582,60.4797,16.8004,-0.2055,19.2331,0.3124,0.0000,3.3165,1,6365.8982,2189.3845,4781.9141,2429.0460,4330.5027,-0.0108,-0.0779,0.0144,0.1093,-4.0063,-4.0258,-2.3657,-2.2940,-476.2212,-3670.9676,610.3769,3841.7286,1720.3756,3064.4248,1234.4179,1998.5932,0.5583,-57.7745,43.8157,-28.0159,46.6709,-29.6754,-14.5970,0.0218,13.7362,3.2580,-0.3594,13730.8473,1.6863,0.8153,1.0000,0.5669,1.0000,50.0487,19.2518
9.4000,hold,67.6584,30.8468,66.9754,60.9351,16.9262,-0.2293,18.7929,0.3133,0.0000,10.0000,1,6415.9217,2178.6500,4771.8922,2439.5216,4341.1790,0.0035,-0.0726,0.0137,0.1104,-8.9782,-8.9945,-2.4180,-2.3456,111.1603,-3903.1884,585.0944,3838.4152,1432.1828,2745.1913,1246.4241,2027.9064,0.4928,-58.5784,44.6063,-28.6508,47.1809,-27.0001,-23.1071,10.5605,12.9066,3.3087,-0.3581,13731.2428,6.6045,0.6593,1.0000,0.5644,1.0000,51.6048,19.3960
9.5000,hold,68.3159,32.4143,68.9092,61.3472,17.0408,-0.2318,19.5222,0.3143,0.0000,3.0721,1,6457.7186,2183.9196,4848.0534,2372.5491,4326.2238,-0.0097,-0.0731,0.0149,0.1091,-4.5694,-4.5864,-2.4434,-2.3694,-429.6294,-3576.8569,617.3864,3808.8048,1821.2227,3272.5703,1253.0053,2051.6378,0.5841,-59.2374,45.2730,-29.2101,47.5781,-20.7876,-6.1089,-7.5965,2.9524,3.3509,-0.3563,13730.7459,2.1715,0.8568,1.0000,0.5888,1.0000,50.0132,19.5273
9.6000,hold,68.9255,34.0138,70.8555,61.7962,17.1648,-0.2560,19.1113,0.3152,0.0000,10.0000,1,6495.8869,2140.0324,4814.3277,2407.9358,4369.1062,0.0036,-0.0735,0.0148,0.1069,-8.2069,-8.2210,-2.5021,-2.4271,112.7366,-3914.8365,621.5363,3833.8023,1443.0234,2802.1076,1267.0120,2095.4828,0.5088,-60.0896,46.1008,-29.8329,48.1831,-27.2390,-21.6580,9.7472,14.0557,3.4046,-0.3563,13731.4021,5.7494,0.6764,1.0000,0.5861,1.0000,51.4601,19.6694
9.7000,hold,69.4851,35.6440,72.8169,62.1973,17.2762,-0.2605,19.7698,0.3162,0.0000,3.4698,1,6547.9690,2166.2967,4903.6861,2326.7361,4334.0609,-0.0075,-0.0701,0.0157,0.1087,-4.8090,-4.8234,-2.5285,-2.4519,-339.9453,-3562.9863,637.0295,3786.4557,1830.8021,3369.1641,1272.1289,2108.7525,0.5972,-60.7193,46.8169,-30.4195,48.5644,-15.2376,-1.2421,-12.0472,-2.6967,3.4474,-0.3531,13730.7798,2.3260,0.8596,1.0000,0.6115,1.0000,50.0689,19.7971
9.8000,hold,69.9930,37.3032,74.7906,62.6393,17.3986,-0.2847,19.4018,0.3171,0.0000,10.0000,1,6567.4062,2078.4593,4830.4325,2402.4724,4420.6403,0.0012,-0.0747,0.0160,0.1016,-7.7997,-7.8114,-2.5887,-2.5110,17.1777,-3905.7248,672.7365,3848.4840,1443.8805,2842.2512,1291.5017,2175.1394,0.5212,-61.6153,47.5751,-30.9338,49.2729,-33.9338,-27.5871,18.5705,23.7707,3.5005,-0.3568,13732.0044,5.2557,0.6947,1.0000,0.6061,1.0000,51.3802,19.9373
9.9000,hold,70.4475,38.9896,76.7774,63.0210,17.5043,-0.2896,20.0244,0.3181,0.0000,3.5924,1,6632.7430,2150.2354,4958.2747,2281.7417,4340.7819,-0.0060,-0.0661,0.0164,0.1077,-5.2296,-5.2414,-2.6123,-2.5333,-275.8521,-3496.0856,655.4028,3762.1372,1876.8071,3515.9455,1290.5501,2165.3432,0.6157,-62.1718,48.3249,-31.5906,49.5436,-9.4512,5.0172,-16.5379,-7.7707,3.5418,-0.3504,13731.0336,2.6627,0.8822,1.0000,0.6344,1.0000,50.0850,20.0584
10.0000,hold,70.8468,40.7016,78.7767,63.4511,17.6236,-0.3133,19.6755,0.3190,0.0000,10.0000,1,6645.1448,2030.2078,4856.9168,2386.1334,4459.1334,0.0000,-0.0744,0.0170,0.0989,-7.5541,-7.5634,-2.6728,-2.5924,-28.8156,-3893.7787,706.9909,3853.3406,1447.7131,2903.1239,1312.5208,2244.0225,0.5339,-63.0814,49.0296,-32.0530,50.2856,-37.2479,-30.4094,23.2277,29.0414,3.5939,-0.3557,13732.3914,4.9261,0.7132,1.0000,0.6248,1.0000,51.3208,20.1952
10.1000,hold,71.1893,42.4369,80.7878,63.8182,17.7252,-0.3193,20.2429,0.3200,0.0000,4.2160,1,6712.1842,2118.0158,4994.0737,2255.0471,4363.9735,-0.0055,-0.0643,0.0172,0.1060,-5.7582,-5.7674,-2.6958,-2.6143,-251.3815,-3461.1199,676.4887,3754.0375,1887.4181,3600.1974,1309.5083,2225.1894,0.6264,-63.5951,49.7708,-32.7053,50.5293,-8.4902,4.8775,-16.2029,-8.1855,3.6337,-0.3487,13731.1101,3.1077,0.8990,1.0000,0.6536,1.0000,50.1697,20.3116
10.2000,hold,71.4735,44.1939,82.8114,64.2322,17.8402,-0.3418,19.9443,0.3210,0.0000,10.0000,1,6723.1735,1981.5901,4880.7554,2372.1406,4498.2918,-0.0016,-0.0741,0.0178,0.0973,-7.3702,-7.3770,-2.7544,-2.6716,-91.1550,-3869.5550,738.0412,3860.8686,1458.7166,2974.6120,1331.9728,2308.3159,0.5471,-64.4773,50.4469,-33.1335,51.2702,-41.1682,-33.7223,28.4349,34.8582,3.6841,-0.3544,13732.7778,4.6606,0.7376,1.0000,0.6419,1.0000,51.2511,20.4434
10.3000,hold,71.6979,45.9700,84.8451,64.5842,17.9375,-0.3490,20.4425,0.3219,0.0000,5.0021,1,6788.4535,2086.9523,5027.5795,2230.1660,4386.4523,-0.0051,-0.0623,0.0178,0.1045,-6.4633,-6.4698,-2.7771,-2.6933,-231.1993,-3417.7092,693.8947,3745.6962,1899.8814,3687.2510,1327.4135,2282.7010,0.6362,-64.9581,51.1635,-33.7688,51.4898,-7.6302,4.3533,-15.7152,-8.6236,3.7220,-0.3473,13731.1501,3.7313,0.9171,1.0000,0.6716,1.0000,50.2748,20.5549
10.4000,hold,71.8610,47.7633,86.8912,64.9804,18.0475,-0.3707,20.1699,0.3229,0.0000,10.0000,1,6798.3132,1941.4469,4906.3191,2355.4749,4529.7940,-0.0025,-0.0703,0.0187,0.0959,-7.7526,-7.7570,-2.8335,-2.7483,-122.2609,-3819.2447,767.2274,3861.3027,1472.7017,3079.8274,1349.4008,2368.4118,0.5598,-65.8018,51.8204,-34.1786,52.2053,-43.1765,-36.2288,32.2199,38.1088,3.7705,-0.3527,13733.0348,4.9639,0.7612,1.0000,0.6590,1.0000,51.2668,20.6809
10.5000,hold,71.9617,49.5712,88.9467,65.3155,18.1399,-0.3778,20.6579,0.3238,0.0000,5.2989,1,6861.3971,2054.6725,5062.2157,2204.4904,4409.8413,-0.0042,-0.0606,0.0186,0.1030,-6.5637,-6.5678,-2.8568,-2.7706,-194.1904,-3404.4349,712.4240,3739.1540,1883.3945,3746.4450,1342.4356,2337.8254,0.6448,-66.2649,52.5187,-34.8095,52.4020,-7.5185,4.6555,-15.6180,-8.4568,3.8073,-0.3453,13731.2199,3.7521,0.9215,1.0000,0.6894,1.0000,50.3119,20.7868
10.6000,hold,71.9987,51.3915,91.0123,65.6837,18.2419,-0.3962,20.5025,0.3248,0.0000,10.0000,1,6869.2347,1902.4706,4937.6840,2333.5508,4559.5113,-0.0051,-0.0646,0.0201,0.0941,-7.1534,-7.1558,-2.9052,-2.8177,-212.4723,-3684.8566,813.5148,3862.0873,1542.5898,3286.7241,1361.4677,2423.5150,0.5889,-66.9939,53.1290,-35.1846,53.0441,-45.7975,-36.6145,33.5099,41.6077,3.8509,-0.3496,13733.2167,4.2931,0.8185,1.0000,0.6797,1.0000,50.9782,20.9037
10.7000,hold,71.9712,53.2216,93.0810,66.0126,18.3339,-0.4118,20.5343,0.3257,0.0000,10.0000,1,6929.1888,2045.1416,5076.1368,2193.6170,4416.2516,-0.0012,-0.0565,0.0183,0.1018,-9.9770,-9.9777,-2.9295,-2.8423,-77.1812,-3345.5848,700.5623,3716.3439,1867.5883,3817.6206,1365.8813,2385.8052,0.6378,-67.4615,53.5900,-35.6331,53.2634,-1.6943,-0.3492,-12.8417,-12.7781,3.8804,-0.3471,13731.1470,7.0914,0.9140,1.0000,0.6998,1.0000,51.1561,21.0091
10.8000,hold,71.8776,55.0587,95.1721,66.3548,18.4280,-0.4213,20.8987,0.3267,0.0000,6.9064,1,6959.1953,1973.4402,5073.9509,2205.0693,4478.7393,-0.0049,-0.0616,0.0197,0.0993,-7.0781,-7.0786,-2.9730,-2.8834,-212.7773,-3447.6462,755.1218,3762.0019,1802.3155,3722.7293,1367.5771,2430.3185,0.6431,-68.1421,54.3890,-36.2318,53.7590,-17.3191,-6.6810,-5.2934,2.1500,3.9279,-0.3447,13731.1997,4.1501,0.9196,1.0000,0.7085,1.0000,50.5220,21.1169
10.9000,hold,71.7176,56.9009,97.2709,66.7121,18.5269,-0.4426,20.6995,0.3276,0.0000,10.0000,1,6975.7797,1857.2039,4976.0247,2306.4761,4593.6374,-0.0038,-0.0605,0.0207,0.0934,-8.7610,-8.7595,-3.0248,-2.9341,-162.6826,-3655.7872,828.2038,3851.1789,1510.9842,3375.8023,1386.4937,2503.9820,0.5932,-68.8854,55.0785,-36.6335,54.4126,-45.2205,-39.5848,37.1691,41.5727,3.9739,-0.3480,13733.3421,5.7808,0.8183,1.0000,0.7002,1.0000,51.2821,21.2303
11.0000,hold,71.4901,58.7450,99.3800,67.0185,18.6106,-0.4505,21.1317,0.3286,0.0000,6.4803,1,7030.1312,1936.3439,5110.5322,2178.3398,4506.1230,-0.0014,-0.0598,0.0206,0.0991,-5.7561,-5.7544,-3.0573,-2.9648,-80.3282,-3543.5954,778.4312,3762.1283,1689.2376,3682.4545,1375.2139,2480.2288,0.6440,-69.3790,55.8052,-37.3314,54.5972,-19.0835,-6.3452,-5.0759,4.7208,4.0128,-0.3398,13731.3389,2.7442,0.8734,1.0000,0.7254,1.0000,50.4602,21.3262
11.1000,hold,71.1949,60.5888,101.4933,67.3351,18.6989,-0.4638,21.2243,0.3295,0.0000,6.6344,1,7036.9094,1876.5103,5078.6484,2214.2259,4562.7133,-0.0069,-0.0635,0.0218,0.0917,-6.0443,-6.0415,-3.0908,-2.9973,-271.1716,-3505.4076,831.2095,3789.6525,1726.3339,3674.8860,1388.7288,2541.0404,0.6491,-69.9678,56.2460,-37.6044,55.1046,-31.9730,-18.6030,9.9786,22.2831,4.0462,-0.3440,13732.0979,2.9988,0.9313,1.0000,0.7309,1.0000,50.4784,21.4273
11.2000,hold,70.8309,62.4292,103.6250,67.6611,18.7889,-0.4819,21.2912,0.3305,0.0000,7.2873,1,7093.7487,1921.3066,5146.9135,2148.8317,4514.1789,-0.0023,-0.0585,0.0211,0.0978,-7.0289,-7.0246,-3.1360,-3.0414,-114.1172,-3444.5017,785.0392,3738.3663,1762.5946,3824.4120,1391.0000,2530.3020,0.6586,-70.6025,57.0274,-38.2502,55.4739,-14.6401,-4.6801,-6.9436,-0.5882,4.0912,-0.3394,13731.2307,3.9380,0.9193,1.0000,0.7433,1.0000,50.5620,21.5305
11.3000,hold,70.3979,64.2637,105.7626,67.9816,18.8776,-0.4992,21.2638,0.3314,0.0000,9.6094,1,7099.8132,1810.0055,5061.3526,2238.6441,4623.0865,-0.0055,-0.0590,0.0225,0.0900,-7.5147,-7.5088,-3.1797,-3.0839,-215.8984,-3516.3585,865.6068,3815.9000,1616.7162,3640.4001,1408.6269,2609.9493,0.6380,-71.2421,57.5819,-38.5669,56.0461,-41.8717,-33.0872,29.3702,37.0177,4.1297,-0.3431,13733.0886,4.3800,0.9011,1.0000,0.7385,1.0000,50.8661,21.6322
11.4000,hold,69.8958,66.0893,107.9036,68.2703,18.9587,-0.5163,21.2192,0.3324,0.0000,10.0000,1,7156.8950,1929.0424,5175.0982,2123.4151,4503.7634,-0.0015,-0.0531,0.0207,0.0979,-10.2525,-10.2449,-3.2089,-3.1132,-83.5758,-3309.7034,760.5502,3699.9437,1795.4590,3978.3796,1413.0212,2567.9372,0.6613,-71.7319,58.0088,-39.0050,56.2602,-4.3628,-3.6374,-8.8142,-9.1806,4.1587,-0.3413,13731.3191,7.0877,0.9318,1.0000,0.7557,1.0000,51.1918,21.7250
11.5000,hold,69.3241,67.9026,110.0612,68.5783,19.0427,-0.5319,21.2691,0.3333,0.0000,10.0000,1,7172.5532,1792.4219,5082.7474,2222.6075,4635.4925,-0.0018,-0.0519,0.0226,0.0925,-9.7242,-9.7156,-3.2571,-3.1595,-87.4559,-3483.1842,863.0468,3808.3087,1533.4660,3701.5873,1422.4952,2642.8348,0.6297,-72.3621,58.7231,-39.5027,56.7550,-38.8956,-35.1258,32.3140,34.8915,4.2019,-0.3404,13733.2693,6.5116,0.8569,1.0000,0.7486,1.0000,51.2984,21.8214
11.6000,hold,68.6833,69.7009,112.2192,68.8208,19.1089,-0.5348,21.7392,0.3343,0.0000,5.8245,1,7213.4180,1889.1515,5236.1838,2076.0552,4530.3189,-0.0007,-0.0544,0.0226,0.0963,-6.0856,-6.0772,-3.2770,-3.1779,-52.5008,-3395.4289,806.1938,3703.7679,1755.8143,3986.0611,1401.2979,2608.8106,0.6829,-72.6875,59.2601,-40.0741,56.7886,-8.9345,6.8290,-14.7093,-5.3675,4.2290,-0.3321,13731.7094,2.8540,0.9298,1.0000,0.7787,1.0000,50.3635,21.8972
11.7000,hold,67.9738,71.4815,114.3629,69.0868,19.1841,-0.5552,21.3128,0.3352,0.0000,10.0000,1,7206.7493,1898.5033,5197.9372,2107.7989,4527.2578,-0.0000,-0.0516,0.0213,0.0890,-10.3614,-10.3506,-3.2957,-3.1981,-28.5494,-3236.9676,777.4450,3669.1562,1821.8703,4067.0127,1430.2720,2652.0475,0.6786,-72.9324,59.1555,-39.9781,57.0523,-4.5135,-5.3032,-6.3252,-8.1258,4.2347,-0.3399,13731.4972,7.1091,0.9598,1.0000,0.7723,1.0000,51.5729,21.9833
11.8000,hold,67.1954,73.2397,116.5369,69.3150,19.2455,-0.5554,21.8995,0.3362,0.0000,5.7567,1,7258.6791,1852.9052,5251.6697,2067.5123,4559.7435,-0.0008,-0.0543,0.0233,0.0942,-5.7469,-5.7370,-3.3289,-3.2282,-56.1983,-3419.1983,825.3892,3710.8287,1716.1871,3986.1155,1404.9069,2649.7191,0.6850,-73.4639,60.0212,-40.7383,57.2525,-13.7450,5.4121,-12.4059,-0.2738,4.2783,-0.3301,13731.8307,2.4634,0.9267,1.0000,0.7881,1.0000,50.3523,22.0538
11.9000,hold,66.3493,74.9748,118.6972,69.5768,19.3195,-0.5791,21.4436,0.3371,0.0000,10.0000,1,7249.0312,1863.8221,5209.8980,2102.0908,4555.7593,-0.0001,-0.0514,0.0220,0.0863,-10.4217,-10.4092,-3.3557,-3.2564,-32.1973,-3235.7958,798.1421,3667.7934,1798.2703,4083.2172,1438.2664,2702.2646,0.6823,-73.8255,60.0581,-40.6857,57.6544,-8.0428,-8.3327,-2.9022,-4.2830,4.2921,-0.3387,13731.5701,7.1094,0.9650,1.0000,0.7825,1.0000,51.6205,22.1385
12.0000,hold,65.4357,76.6817,120.8749,69.7719,19.3729,-0.5790,21.9038,0.3381,0.0000,8.3047,1,7307.2313,1860.3359,5277.7924,2044.0474,4549.9000,-0.0008,-0.0496,0.0231,0.0945,-8.9030,-8.8911,-3.3759,-3.2744,-57.7040,-3205.0261,811.4683,3683.1128,1818.4001,4193.1969,1415.8385,2671.3798,0.6957,-74.2364,60.6816,-41.2944,57.7496,-6.1041,9.2566,-15.1381,-6.6369,4.3242,-0.3307,13732.0756,5.5719,0.9780,1.0000,0.7984,1.0000,50.6753,22.1997
12.1000,hold,64.4552,78.3589,123.0759,70.0395,19.4472,-0.6011,21.8918,0.3390,0.0000,10.0000,1,7309.3350,1756.2157,5202.5401,2123.2093,4650.6954,-0.0050,-0.0574,0.0245,0.0872,-8.4941,-8.4804,-3.4367,-3.3334,-191.1761,-3410.2815,887.0835,3742.1178,1684.4066,3928.9190,1439.1911,2761.4348,0.6743,-75.0371,61.4316,-41.6720,58.5227,-30.1332,-20.2460,14.2475,23.2947,4.3741,-0.3356,13732.6606,5.1022,0.9653,1.0000,0.7963,1.0000,50.8977,22.2848
12.2000,hold,63.4087,80.0037,125.2819,70.2701,19.5104,-0.6187,21.9548,0.3400,0.0000,10.0000,1,7361.2989,1831.3060,5290.9579,2036.1928,4573.1862,0.0009,-0.0494,0.0237,0.0945,-9.6705,-9.6553,-3.4789,-3.3746,2.6815,-3260.9684,825.8584,3672.7512,1744.1118,4166.5719,1435.8846,2724.8726,0.6905,-75.4974,62.0978,-42.2425,58.7616,-5.3911,0.3616,-10.6096,-7.2128,4.4099,-0.3297,13731.6431,6.2362,0.9524,1.0000,0.8135,1.0000,50.9167,22.3573
12.3000,hold,62.2973,81.6131,127.4873,70.4896,19.5715,-0.6340,21.9125,0.3410,0.0000,10.0000,1,7364.0705,1785.6739,5255.3659,2073.1891,4617.6073,-0.0013,-0.0509,0.0242,0.0893,-10.5487,-10.5323,-3.5129,-3.4079,-69.3402,-3261.7475,858.9643,3690.1998,1727.7207,4120.6643,1451.1069,2775.7382,0.6854,-75.9112,62.3849,-42.4538,59.0864,-15.4735,-11.9619,2.0576,4.4232,4.4328,-0.3323,13731.8362,7.0801,0.9683,1.0000,0.8134,1.0000,51.1746,22.4273
12.4000,hold,61.1223,83.1836,129.6896,70.6744,19.6228,-0.6442,21.8813,0.3419,0.0000,10.0000,1,7399.5271,1837.8574,5306.0685,2022.3600,4565.6134,-0.0003,-0.0485,0.0235,0.0937,-10.5816,-10.5643,-3.5290,-3.4241,-37.0300,-3223.2195,814.4158,3645.7776,1757.8069,4214.8807,1448.5075,2748.2961,0.6931,-76.1028,62.6104,-42.7486,59.1035,1.1267,1.2794,-10.9471,-11.8184,4.4463,-0.3289,13731.8993,7.0964,0.9567,1.0000,0.8217,1.0000,51.3819,22.4861
12.5000,hold,59.8853,84.7123,131.8893,70.8604,19.6741,-0.6536,21.8524,0.3429,0.0000,10.0000,1,7392.2088,1803.9497,5280.5618,2048.9753,4598.3798,-0.0003,-0.0497,0.0237,0.0873,-10.6081,-10.5901,-3.5470,-3.4419,-38.7294,-3229.0308,832.4843,3651.1549,1748.4040,4178.2405,1457.5938,2795.3827,0.6938,-76.2967,62.6979,-42.8332,59.2426,-7.4980,-6.9990,-2.7383,-3.4501,4.4556,-0.3306,13731.8666,7.1047,0.9694,1.0000,0.8192,1.0000,51.5844,22.5448
12.6000,hold,58.5880,86.1966,134.0779,71.0210,19.7188,-0.6614,21.7123,0.3438,0.0000,10.0000,1,7421.1929,1850.4037,5310.6785,2016.8562,4554.3663,0.0007,-0.0483,0.0229,0.0908,-10.6387,-10.6199,-3.5505,-3.4462,-3.5410,-3238.6872,794.8297,3618.6948,1750.8489,4208.8255,1456.9186,2765.3753,0.6942,-76.2335,62.6631,-42.9152,59.1154,7.4525,2.5967,-11.3298,-15.1171,4.4529,-0.3280,13732.3047,7.1309,0.9462,1.0000,0.8229,1.0000,52.0351,22.5961
12.7000,hold,57.2323,87.6340,136.2517,71.1866,19.7648,-0.6660,21.5315,0.3448,0.0000,10.0000,1,7421.0624,1848.2323,5289.8043,2035.1453,4558.8949,0.0007,-0.0495,0.0225,0.0871,-10.6607,-10.6414,-3.5430,-3.4400,-4.0522,-3253.8045,788.7187,3611.4698,1753.8295,4170.7056,1462.7678,2782.2309,0.6932,-76.0369,62.4361,-42.7280,59.0446,4.6180,-2.4883,-7.4417,-13.3173,4.4403,-0.3296,13732.0768,7.1595,0.9489,1.0000,0.8166,1.0000,52.5946,22.6488
12.8000,hold,55.8202,89.0224,138.4084,71.3417,19.8081,-0.6664,21.3834,0.3457,0.0000,10.0000,1,7456.6583,1887.3991,5308.2421,2014.1924,4522.8459,0.0007,-0.0479,0.0219,0.0921,-10.6708,-10.6514,-3.5231,-3.4217,-1.8808,-3234.6613,760.5715,3599.3976,1769.0851,4208.8479,1457.0436,2738.6990,0.6937,-75.6754,62.1787,-42.5964,58.7452,16.6693,6.4656,-14.3678,-21.4781,4.4209,-0.3266,13732.6795,7.1887,0.9373,1.0000,0.8160,1.0000,53.0748,22.6984
12.9000,hold,54.3535,90.3597,140.5560,71.5066,19.8537,-0.6657,21.3295,0.3467,0.0000,10.0000,1,7450.1844,1857.7994,5281.0633,2041.4731,4551.7511,0.0007,-0.0490,0.0221,0.0865,-10.6694,-10.6502,-3.5101,-3.4094,-4.0630,-3237.9852,776.7860,3612.4286,1763.8792,4171.9398,1458.3196,2769.2594,0.6929,-75.5070,61.9261,-42.4011,58.6264,3.1459,-1.3428,-7.9684,-12.3714,4.4074,-0.3284,13732.0869,7.2001,0.9494,1.0000,0.8094,1.0000,53.3316,22.7507
13.0000,hold,52.8343,91.6438,142.6978,71.6598,19.8965,-0.6650,21.2802,0.3476,0.0000,10.0000,1,7484.2405,1886.1768,5305.1708,2017.0559,4524.2500,0.0007,-0.0477,0.0216,0.0910,-10.6702,-10.6510,-3.4949,-3.3952,-1.9508,-3226.9928,753.7467,3605.6557,1771.3370,4210.8615,1449.3779,2732.7798,0.6931,-75.3520,61.8769,-42.3874,58.4726,12.9469,8.2549,-15.0429,-19.1302,4.4005,-0.3257,13732.6535,7.2155,0.9391,1.0000,0.8099,1.0000,53.5703,22.7997
13.1000,hold,51.2647,92.8729,144.8382,71.8238,19.9418,-0.6657,21.2881,0.3486,0.0000,10.0000,1,7472.4261,1843.2248,5275.6150,2048.1051,4565.0341,0.0007,-0.0489,0.0221,0.0839,-10.6687,-10.6496,-3.4912,-3.3917,-4.7363,-3230.8826,780.9744,3620.5240,1759.3705,4170.5529,1451.5900,2780.5291,0.6929,-75.4075,61.8546,-42.3253,58.5407,-2.6281,-2.3887,-6.6146,-7.9636,4.4012,-0.3280,13731.9791,7.2177,0.9545,1.0000,0.8048,1.0000,53.6722,22.8516
13.2000,hold,49.6468,94.0450,146.9782,71.9719,19.9831,-0.6678,21.2856,0.3495,0.0000,10.0000,1,7514.8187,1878.7998,5313.2971,2011.0376,4529.5492,0.0007,-0.0473,0.0216,0.0906,-10.6752,-10.6560,-3.4877,-3.3886,-1.8206,-3222.5724,750.4897,3611.1488,1765.0062,4224.4707,1442.2790,2734.3044,0.6933,-75.4405,62.0105,-42.4906,58.4850,10.8805,10.1695,-16.0247,-17.7048,4.4067,-0.3242,13732.6836,7.2274,0.9394,1.0000,0.8085,1.0000,53.7897,22.8990
13.3000,hold,47.9828,95.1584,149.1198,72.1293,20.0265,-0.6719,21.3029,0.3505,0.0000,10.0000,1,7507.1156,1840.5875,5289.4833,2036.4434,4565.5049,0.0007,-0.0486,0.0222,0.0846,-10.6831,-10.6637,-3.4949,-3.3957,-4.1659,-3232.3867,778.1721,3622.2378,1753.4996,4186.9213,1445.6391,2779.0697,0.6931,-75.6038,62.1427,-42.5563,58.6274,-1.9792,-0.4839,-8.2966,-8.4485,4.4160,-0.3254,13732.0190,7.2281,0.9527,1.0000,0.8062,1.0000,53.8629,22.9487
13.4000,hold,46.2750,96.2113,151.2610,72.2720,20.0662,-0.6769,21.2904,0.3514,0.0000,10.0000,1,7542.7047,1868.9461,5319.3186,2007.1033,4537.2624,0.0007,-0.0473,0.0218,0.0897,-10.6982,-10.6784,-3.5000,-3.4010,-1.8417,-3226.2473,756.0470,3611.5822,1757.3289,4229.2409,1440.7006,2746.4931,0.6938,-75.6827,62.3517,-42.7575,58.6237,9.3618,9.1669,-15.2429,-16.4916,4.4250,-0.3217,13732.6304,7.2377,0.9403,1.0000,0.8106,1.0000,54.0012,22.9942
13.5000,hold,44.5258,97.2020,153.4019,72.4184,20.1066,-0.6828,21.2852,0.3524,0.0000,10.0000,1,7540.5297,1841.4410,5300.9464,2026.4270,4563.2682,0.0007,-0.0482,0.0222,0.0853,-10.7131,-10.6929,-3.5109,-3.4117,-3.6186,-3231.2642,776.6967,3618.1265,1749.6364,4202.2571,1444.7856,2780.7512,0.6940,-75.8033,62.4910,-42.8595,58.7147,-0.3103,0.4242,-8.9926,-9.7109,4.4334,-0.3214,13732.0826,7.2417,0.9501,1.0000,0.8095,1.0000,54.1232,23.0404
13.6000,hold,42.7375,98.1289,155.5403,72.5531,20.1440,-0.6887,21.2532,0.3533,0.0000,10.0000,1,7567.7550,1861.1286,5319.6528,2007.8027,4543.9625,0.0007,-0.0472,0.0220,0.0885,-10.7312,-10.7106,-3.5179,-3.4189,-2.1154,-3225.0451,762.5811,3609.1190,1752.8216,4230.5780,1443.0003,2760.7708,0.6948,-75.8332,62.6399,-43.0195,58.6859,7.7391,6.4180,-13.1715,-15.0218,4.4391,-0.3180,13732.5466,7.2525,0.9418,1.0000,0.8129,1.0000,54.3053,23.0833
13.7000,hold,40.9128,98.9905,157.6759,72.6888,20.1814,-0.6944,21.2225,0.3543,0.0000,10.0000,1,7570.8904,1845.4615,5307.2405,2020.4870,4559.0222,0.0007,-0.0477,0.0223,0.0858,-10.7475,-10.7265,-3.5263,-3.4273,-3.2231,-3226.0566,774.6400,3611.5675,1749.0511,4214.1857,1446.5108,2782.3125,0.6952,-75.8691,62.7146,-43.0924,58.7036,1.8315,0.7062,-9.0265,-10.8451,4.4428,-0.3170,13732.2113,7.2602,0.9478,1.0000,0.8121,1.0000,54.4850,23.1262
13.8000,hold,39.0541,99.7854,159.8074,72.8162,20.2167,-0.6995,21.1791,0.3552,0.0000,10.0000,1,7590.4122,1856.4092,5315.9207,2011.6200,4548.5155,0.0007,-0.0471,0.0221,0.0874,-10.7637,-10.7423,-3.5308,-3.4321,-2.4777,-3219.8323,766.9951,3605.8917,1751.5121,4229.8573,1446.1790,2772.4607,0.6958,-75.8423,62.7782,-43.1846,58.6445,5.9424,3.5428,-10.9013,-13.4251,4.4441,-0.3143,13732.4655,7.2715,0.9435,1.0000,0.8138,1.0000,54.6922,23.1666
