time,phase,pos_x,pos_y,yaw_deg,speed_kph,vx_body,vy_body,yaw_rate_dps,throttle,brake,steer_deg,gear,rpm,fz_fl,fz_fr,fz_rl,fz_rr,sr_fl,sr_fr,sr_rl,sr_rr,sa_fl_deg,sa_fr_deg,sa_rl_deg,sa_rr_deg,fx_fl,fx_fr,fx_rl,fx_rr,fy_fl,fy_fr,fy_rl,fy_rr,lat_accel_g,susp_defl_fl_mm,susp_defl_fr_mm,susp_defl_rl_mm,susp_defl_rr_mm,susp_vel_fl,susp_vel_fr,susp_vel_rl,susp_vel_rr,roll_deg,pitch_deg,fz_total,understeer_deg,fc_util_fl,fc_util_fr,fc_util_rl,fc_util_rr,radius_m,yaw_rate_ref_dps,ke_total_kj,energy_engine_kj,energy_drag_kj,energy_brake_kj,energy_tire_loss_kj,energy_body_kj,integrator_err_kj
0.0000,accel,0.0000,0.0000,0.0000,0.0000,0.0000,0.0000,0.0000,0.0000,0.0000,0.0000,1,1000.0000,3776.8500,3776.8500,3090.1500,3090.1500,0.0000,0.0000,0.0000,0.0000,0.0000,0.0000,0.0000,0.0000,0.0000,0.0000,0.0000,0.0000,0.0000,0.0000,0.0000,0.0000,0.0000,0.0000,0.0000,0.0000,0.0000,0.0000,0.0000,0.0000,0.0000,0.0000,0.0000,13734.0000,0.0000,0.0000,0.0000,0.0000,0.0000,0.0000,0.0000,0.0000,0.0000,0.0000,0.0000,0.0000,0.0000,0.0000
0.1000,accel,0.0000,0.0000,0.0000,0.0189,0.0039,0.0000,0.0000,0.0667,0.0000,0.0000,1,1000.0000,3719.9820,3719.9820,3147.1162,3147.1162,0.0008,0.0008,0.0027,0.0027,0.0000,0.0000,0.0000,0.0000,-1.0390,-1.0390,112.8766,112.8766,0.0000,0.0000,0.0000,0.0000,0.0000,-0.1182,-0.1182,0.1926,0.1926,-4.1920,-4.1920,5.1647,5.1647,0.0000,-0.0068,13734.1964,0.0000,0.0003,0.0003,0.0359,0.0359,0.0000,0.0000,0.0002,0.0011,0.0000,0.0000,0.0011,0.0000,-0.0002
0.2000,accel,0.0018,0.0000,0.0000,0.1124,0.0284,0.0000,0.0000,0.1333,0.0000,0.0000,1,1000.0000,3697.7664,3697.7664,3169.3250,3169.3250,0.0008,0.0008,0.0048,0.0048,0.0000,0.0000,0.0000,0.0000,-2.8283,-2.8283,243.5822,243.5822,0.0000,0.0000,0.0000,0.0000,0.0000,-0.6791,-0.6791,0.8528,0.8528,-6.5330,-6.5330,7.4459,7.4459,0.0000,-0.0338,13734.1827,0.0000,0.0008,0.0008,0.0769,0.0769,0.0000,0.0000,0.0011,0.0064,0.0000,0.0000,0.0058,0.0006,-0.0004
0.3000,accel,0.0072,0.0000,0.0000,0.2748,0.0707,0.0000,0.0000,0.2000,0.0000,0.0000,1,1000.0000,3684.7050,3684.7050,3182.2586,3182.2586,0.0007,0.0007,0.0087,0.0087,0.0000,0.0000,0.0000,0.0000,-4.3055,-4.3055,478.3488,478.3488,0.0000,0.0000,0.0000,0.0000,0.0000,-1.3850,-1.3850,1.6275,1.6275,-5.2234,-5.2234,4.8724,4.8724,0.0000,-0.0664,13733.9272,0.0000,0.0012,0.0012,0.1503,0.1503,0.0000,0.0000,0.0046,0.0183,0.0000,0.0000,0.0143,0.0039,-0.0007
0.4000,accel,0.0179,0.0000,0.0000,0.5225,0.1317,0.0000,0.0000,0.2667,0.0000,0.0000,1,1000.0000,3277.0215,3277.0215,3592.3899,3592.3899,-0.0025,-0.0025,0.0216,0.0216,0.0000,0.0000,0.0000,0.0000,-203.5846,-203.5846,1332.1839,1332.1839,0.0000,0.0000,0.0000,0.0000,0.0000,-1.0419,-1.0419,3.7130,3.7130,-124.1555,-124.1555,148.0681,148.0681,0.0000,-0.1048,13738.8227,0.0000,0.0621,0.0621,0.3708,0.3708,0.0000,0.0000,0.0154,0.0459,0.0000,0.0000,0.0371,0.0089,-0.0065
0.5000,accel,0.0357,0.0000,0.0000,0.8543,0.2041,0.0000,0.0000,0.3333,0.0000,0.0000,1,1000.0000,3777.0994,3777.0994,3087.7102,3087.7102,0.0042,0.0042,0.0633,0.0633,0.0000,0.0000,0.0000,0.0000,241.7835,241.7835,2544.5403,2544.5403,0.0000,0.0000,0.0000,0.0000,0.0000,-1.0275,-1.0275,4.9615,4.9615,26.0687,26.0687,-47.3507,-47.3507,0.0000,-0.1320,13729.6193,0.0000,0.0640,0.0640,0.8241,0.8241,0.0000,0.0000,0.0435,0.0945,0.0000,0.0000,0.0687,0.0258,-0.0177
0.6000,accel,0.0627,0.0000,0.0000,1.1603,0.3211,0.0000,0.0000,0.4000,0.0000,0.0000,1,1000.0000,3670.5635,3670.5635,3193.8369,3193.8369,0.0866,0.0866,-0.1877,-0.1877,0.0000,0.0000,0.0000,0.0000,3321.2982,3321.2982,-3217.0304,-3217.0304,0.0000,0.0000,0.0000,0.0000,0.0000,-2.8579,-2.8579,6.4020,6.4020,1.7546,1.7546,-27.3214,-27.3214,0.0000,-0.2041,13728.8007,0.0000,0.9048,0.9048,1.0073,1.0073,0.0000,0.0000,0.1320,0.1800,0.0000,0.0000,0.1261,0.0539,-0.0781
0.7000,accel,0.1001,0.0000,0.0000,1.3826,0.4533,0.0000,0.0000,0.4667,0.0000,0.0000,1,1000.0000,2788.6929,2788.6929,4082.8150,4082.8150,-0.1723,-0.1723,-0.0489,-0.0489,0.0000,0.0000,0.0000,0.0000,-2847.3072,-2847.3072,-2973.7996,-2973.7996,0.0000,0.0000,0.0000,0.0000,0.0000,-3.3844,-3.3844,9.0255,9.0255,-246.9538,-246.9538,291.0970,291.0970,0.0000,-0.2735,13743.0157,0.0000,1.0210,1.0210,0.7284,0.7284,0.0000,0.0000,0.1959,0.3256,0.0000,0.0000,0.2599,0.0656,-0.1302
0.8000,accel,0.1496,0.0000,0.0000,1.8857,0.5666,0.0000,0.0000,0.5333,0.0000,0.0000,1,1000.0000,3503.7364,3503.7364,3357.5901,3357.5901,-0.0637,-0.0637,-0.0092,-0.0092,0.0000,0.0000,0.0000,0.0000,-2963.8523,-2963.8523,-630.8515,-630.8515,0.0000,0.0000,0.0000,0.0000,0.0000,-2.5811,-2.5811,10.2113,10.2113,-48.3978,-48.3978,-7.7579,-7.7579,0.0000,-0.2819,13722.6529,0.0000,0.8459,0.8459,0.1879,0.1879,0.0000,0.0000,0.2730,0.5833,0.0000,0.0000,0.4556,0.1277,-0.1452
0.9000,accel,0.2133,0.0000,0.0000,2.6423,0.6557,0.0000,0.0000,0.6000,0.0000,0.0000,1,1006.0431,4696.0158,4696.0158,2176.3872,2176.3872,0.1521,0.1521,0.6841,0.6841,0.0000,0.0000,0.0000,0.0000,4468.4852,4468.4852,2110.2584,2110.2584,0.0000,0.0000,0.0000,0.0000,0.0000,-0.7821,-0.7821,9.2989,9.2989,391.1579,391.1579,-338.7341,-338.7341,0.0000,-0.2222,13744.8060,0.0000,0.9515,0.9515,0.9696,0.9696,0.0000,0.0000,0.4785,0.9419,0.0000,0.0000,0.6585,0.2834,-0.1951
1.0000,accel,0.2937,0.0000,0.0000,3.2517,0.8520,0.0000,0.0000,0.6667,0.0000,0.0000,1,1000.0000,4318.6916,4318.6916,2550.0194,2550.0194,0.0251,0.0251,0.4381,0.4381,0.0000,0.0000,0.0000,0.0000,1802.6321,1802.6321,2501.2363,2501.2363,0.0000,0.0000,0.0000,0.0000,0.0000,-2.7475,-2.7475,11.0936,11.0936,259.8648,259.8648,-244.8199,-244.8199,0.0000,-0.3050,13737.4220,0.0000,0.4174,0.4174,0.9809,0.9809,0.0000,0.0000,0.5937,1.3261,0.0000,0.0000,0.8696,0.4565,-0.1372
1.1000,accel,0.3914,0.0000,0.0000,3.8353,1.0509,0.0000,0.0000,0.7333,0.0000,0.0000,1,1333.2073,2611.6777,2611.6777,4258.7563,4258.7563,-0.4099,-0.4099,0.6880,0.6880,0.0000,0.0000,0.0000,0.0000,-2643.4522,-2643.4522,3855.6211,3855.6211,0.0000,0.0000,0.0000,0.0000,0.0000,-4.0235,-4.0235,12.7989,12.7989,-293.0020,-293.0020,323.6601,323.6601,0.0000,-0.3707,13740.8680,0.0000,1.0122,1.0122,0.9053,0.9053,0.0000,0.0000,0.8887,1.9762,0.0001,0.0000,1.3209,0.6552,-0.2335
1.2000,accel,0.5103,0.0000,0.0000,4.7757,1.2481,0.0000,0.0000,0.8000,0.0000,0.0000,1,1000.0000,3802.6174,3802.6174,3060.8472,3060.8472,0.5057,0.5057,0.2147,0.2147,0.0000,0.0000,0.0000,0.0000,3551.6042,3551.6042,3043.5245,3043.5245,0.0000,0.0000,0.0000,0.0000,0.0000,-4.6292,-4.6292,12.8889,12.8889,72.2037,72.2037,-111.7451,-111.7451,0.0000,-0.3860,13726.9291,0.0000,0.9340,0.9340,0.9943,0.9943,0.0000,0.0000,1.2513,2.7284,0.0002,0.0000,1.6652,1.0630,-0.1883
1.3000,accel,0.6521,0.0000,0.0000,5.4513,1.5217,0.0000,0.0000,0.8667,0.0000,0.0000,1,1224.0795,3742.0392,3742.0392,3122.7272,3122.7272,-0.5461,-0.5461,0.5253,0.5253,0.0000,0.0000,0.0000,0.0000,-3596.6901,-3596.6901,2968.7419,2968.7419,0.0000,0.0000,0.0000,0.0000,0.0000,-7.6092,-7.6092,14.7386,14.7386,77.7275,77.7275,-107.3250,-107.3250,0.0000,-0.4925,13729.5328,0.0000,0.9612,0.9612,0.9507,0.9507,0.0000,0.0000,1.7675,3.6561,0.0003,0.0000,2.2373,1.4184,-0.3490
1.4000,accel,0.8195,0.0000,0.0000,6.5706,1.7456,0.0000,0.0000,0.9333,0.0000,0.0000,1,1000.0000,4138.7160,4138.7160,2730.5488,2730.5488,0.2837,0.2837,0.2555,0.2555,0.0000,0.0000,0.0000,0.0000,3952.1734,3952.1734,2731.7047,2731.7047,0.0000,0.0000,0.0000,0.0000,0.0000,-6.9724,-6.9724,14.5343,14.5343,229.9869,229.9869,-217.9632,-217.9632,0.0000,-0.4739,13738.5297,0.0000,0.9549,0.9549,1.0004,1.0004,0.0000,0.0000,2.3846,4.5232,0.0005,0.0000,2.4055,2.1171,-0.2674
1.5000,accel,1.0131,0.0000,0.0000,7.6293,2.0529,0.0000,0.0000,1.0000,0.0000,0.0000,1,1000.0000,3494.6332,3494.6332,3368.8092,3368.8092,0.0444,0.0444,0.1130,0.1130,0.0000,0.0000,0.0000,0.0000,2332.8944,2332.8944,3238.1516,3238.1516,0.0000,0.0000,0.0000,0.0000,0.0000,-9.8139,-9.8139,16.5691,16.5691,0.7001,0.7001,-50.2109,-50.2109,0.0000,-0.5814,13726.8847,0.0000,0.6676,0.6676,0.9612,0.9612,0.0000,0.0000,3.1870,5.7810,0.0009,0.0000,2.8699,2.9102,-0.2767
1.6000,accel,1.2365,0.0000,0.0000,8.6158,2.3157,0.0000,0.0000,1.0000,0.0000,0.0000,1,1684.2645,3838.1656,3838.1656,3029.7891,3029.7891,0.4082,0.4082,0.5041,0.5041,0.0000,0.0000,0.0000,0.0000,3626.0025,3626.0025,2896.4205,2896.4205,0.0000,0.0000,0.0000,0.0000,0.0000,-9.1973,-9.1973,15.7370,15.7370,131.8802,131.8802,-141.2020,-141.2020,0.0000,-0.5495,13735.9095,0.0000,0.9447,0.9447,0.9560,0.9560,0.0000,0.0000,4.3456,7.9860,0.0014,0.0000,4.2311,3.7535,-0.5921
1.7000,accel,1.4941,0.0000,0.0000,9.6563,2.6909,0.0000,0.0000,1.0000,0.0000,0.0000,1,1855.2454,3747.6508,3747.6508,3121.1197,3121.1197,-0.3237,-0.3237,0.4810,0.4810,0.0000,0.0000,0.0000,0.0000,-3705.1499,-3705.1499,2983.0658,2983.0658,0.0000,0.0000,0.0000,0.0000,0.0000,-11.9727,-11.9727,18.0097,18.0097,123.3173,123.3173,-131.4596,-131.4596,0.0000,-0.6607,13737.5408,0.0000,0.9887,0.9887,0.9558,0.9558,0.0000,0.0000,5.6112,9.9064,0.0022,0.0000,5.1378,4.7664,-0.8448
1.8000,accel,1.7860,0.0000,0.0000,11.0440,3.0669,0.0000,0.0000,1.0000,0.0000,0.0000,1,1000.0000,3510.6090,3510.6090,3356.6510,3356.6510,0.2121,0.2121,-0.2136,-0.2136,0.0000,0.0000,0.0000,0.0000,3443.4394,3443.4394,-3364.2579,-3364.2579,0.0000,0.0000,0.0000,0.0000,0.0000,-13.8733,-13.8733,19.9532,19.9532,47.3793,47.3793,-78.1838,-78.1838,0.0000,-0.7454,13734.5201,0.0000,0.9809,0.9809,1.0023,1.0023,0.0000,0.0000,7.0622,12.0456,0.0034,0.0000,5.7456,6.2966,-0.7656
1.9000,accel,2.1122,0.0000,0.0000,12.3165,3.4056,0.0000,0.0000,1.0000,0.0000,0.0000,1,2155.6317,2591.7156,2591.7156,4282.4309,4282.4309,-0.2088,-0.2088,0.4383,0.4383,0.0000,0.0000,0.0000,0.0000,-2665.6450,-2665.6450,3984.9852,3984.9852,0.0000,0.0000,0.0000,0.0000,0.0000,-13.7454,-13.7454,20.1486,20.1486,-229.7043,-229.7043,258.7074,258.7074,0.0000,-0.7469,13748.2930,0.0000,1.0285,1.0285,0.9305,0.9305,0.0000,0.0000,8.8641,15.0483,0.0050,0.0000,7.1611,7.8822,-0.9819
2.0000,accel,2.4777,0.0000,0.0000,13.8509,3.8319,0.0000,0.0000,1.0000,0.0000,0.0000,1,2167.4170,2640.2752,2640.2752,4233.6030,4233.6030,-0.4062,-0.4062,0.3720,0.3720,0.0000,0.0000,0.0000,0.0000,-2670.8477,-2670.8477,3980.0302,3980.0302,0.0000,0.0000,0.0000,0.0000,0.0000,-16.2353,-16.2353,22.6992,22.6992,-198.1743,-198.1743,213.3985,213.3985,0.0000,-0.8580,13747.7564,0.0000,1.0116,1.0116,0.9401,0.9401,0.0000,0.0000,10.9907,18.4495,0.0073,0.0000,8.4135,10.0287,-0.9620
2.1000,accel,2.8845,0.0000,0.0000,14.9349,4.2180,0.0000,0.0000,1.0000,0.0000,0.0000,1,1373.9741,3552.9542,3552.9542,3318.5568,3318.5568,-0.0543,-0.0543,-0.0783,-0.0783,0.0000,0.0000,0.0000,0.0000,-2780.8165,-2780.8165,-3044.6848,-3044.6848,0.0000,0.0000,0.0000,0.0000,0.0000,-15.8862,-15.8862,21.8682,21.8682,83.9535,83.9535,-103.2745,-103.2745,0.0000,-0.8320,13743.0221,0.0000,0.7827,0.7827,0.9175,0.9175,0.0000,0.0000,13.1891,20.8908,0.0105,0.0000,9.1862,11.6941,-1.4951
2.2000,accel,3.3285,0.0000,0.0000,16.7588,4.6420,0.0000,0.0000,1.0000,0.0000,0.0000,1,2906.3217,2712.5736,2712.5736,4162.8144,4162.8144,-0.3090,-0.3090,0.4339,0.4339,0.0000,0.0000,0.0000,0.0000,-2774.6108,-2774.6108,3887.0696,3887.0696,0.0000,0.0000,0.0000,0.0000,0.0000,-17.6188,-17.6188,23.8304,23.8304,-167.9243,-167.9243,173.1651,173.1651,0.0000,-0.9134,13750.7760,0.0000,1.0229,1.0229,0.9338,0.9338,0.0000,0.0000,16.3933,26.5403,0.0147,0.0000,11.7317,14.7939,-1.5994
2.3000,accel,3.8215,0.0000,0.0000,18.4994,5.1279,0.0000,0.0000,1.0000,0.0000,0.0000,1,3721.8878,2802.4154,2802.4154,4073.7888,4073.7888,-0.2369,-0.2369,0.5118,0.5118,0.0000,0.0000,0.0000,0.0000,-2859.9139,-2859.9139,3775.6170,3775.6170,0.0000,0.0000,0.0000,0.0000,0.0000,-19.7971,-19.7971,25.2507,25.2507,-126.8950,-126.8950,122.9337,122.9337,0.0000,-0.9927,13752.4084,0.0000,1.0205,1.0205,0.9268,0.9268,0.0000,0.0000,20.4998,33.7541,0.0203,0.0000,15.6449,18.0888,-2.4109
2.4000,accel,4.3627,0.0000,0.0000,20.2445,5.6093,0.0000,0.0000,1.0000,0.0000,0.0000,1,5845.8919,2605.8081,2605.8081,4274.4462,4274.4462,-0.2363,-0.2363,0.6600,0.6600,0.0000,0.0000,0.0000,0.0000,-2678.6865,-2678.6865,3879.2357,3879.2357,0.0000,0.0000,0.0000,0.0000,0.0000,-20.4507,-20.4507,25.9446,25.9446,-178.6171,-178.6171,195.8017,195.8017,0.0000,-1.0224,13760.5087,0.0000,1.0280,1.0280,0.9075,0.9075,0.0000,0.0000,26.4120,45.7134,0.0278,0.0000,23.9661,21.7195,-4.6925
2.5000,accel,4.9520,0.0000,0.0000,21.9644,6.0881,0.0000,0.0000,1.0000,0.0000,0.0000,2,1613.3301,2774.9033,2774.9033,4105.3763,4105.3763,-0.2040,-0.2040,0.2455,0.2455,0.0000,0.0000,0.0000,0.0000,-2834.6326,-2834.6326,3946.3930,3946.3930,0.0000,0.0000,0.0000,0.0000,0.0000,-20.6684,-20.6684,26.0949,26.0949,-128.9842,-128.9842,126.1761,126.1761,0.0000,-1.0305,13760.5592,0.0000,1.0215,1.0215,0.9613,0.9613,0.0000,0.0000,27.0942,52.6148,0.0375,0.0000,26.9570,25.6203,-1.4739
2.6000,accel,5.5624,0.0000,0.0000,21.9762,6.1102,0.0000,0.0000,1.0000,0.0000,0.0000,2,1407.2324,3653.2163,3653.2163,3225.0425,3225.0425,-0.2322,-0.2322,0.1318,0.1318,0.0000,0.0000,0.0000,0.0000,-3630.6263,-3630.6263,3163.3943,3163.3943,0.0000,0.0000,0.0000,0.0000,0.0000,-8.2211,-8.2211,13.2885,13.2885,46.2585,46.2585,-69.9408,-69.9408,0.0000,-0.4740,13756.5176,0.0000,0.9938,0.9938,0.9809,0.9809,0.0000,0.0000,27.0997,52.6148,0.0482,0.0000,26.9185,25.6481,-1.4516
2.7000,accel,6.1748,0.0000,0.0000,22.2307,6.1641,0.0000,0.0000,1.0000,0.0000,0.0000,2,1639.8006,2873.8574,2873.8574,4010.5476,4010.5476,-0.2491,-0.2491,0.2484,0.2484,0.0000,0.0000,0.0000,0.0000,-2925.4481,-2925.4481,3862.7539,3862.7539,0.0000,0.0000,0.0000,0.0000,0.0000,-3.9589,-3.9589,9.4620,9.4620,-220.1047,-220.1047,254.4918,254.4918,0.0000,-0.2958,13768.8100,0.0000,1.0180,1.0180,0.9631,0.9631,0.0000,0.0000,27.8830,53.5661,0.0590,0.0000,27.2614,26.2456,-1.6374
2.8000,accel,6.8022,0.0000,0.0000,22.7210,6.3705,0.0000,0.0000,1.0000,0.0000,0.0000,2,1220.2150,3493.5636,3493.5636,3383.3793,3383.3793,-0.0523,-0.0523,-0.0417,-0.0417,0.0000,0.0000,0.0000,0.0000,-2684.6879,-2684.6879,-2275.6405,-2275.6405,0.0000,0.0000,0.0000,0.0000,0.0000,-5.6110,-5.6110,12.1610,12.1610,-31.3536,-31.3536,-16.8530,-16.8530,0.0000,-0.3916,13753.8858,0.0000,0.7685,0.7685,0.6726,0.6726,0.0000,0.0000,29.6231,55.5045,0.0707,0.0000,28.0228,27.4110,-2.2121
2.9000,accel,7.4486,0.0000,0.0000,23.4810,6.5295,0.0000,0.0000,1.0000,0.0000,0.0000,2,1703.7552,3725.2298,3725.2298,3154.4758,3154.4758,-0.2128,-0.2128,0.2338,0.2338,0.0000,0.0000,0.0000,0.0000,-3694.9747,-3694.9747,3119.6483,3119.6483,0.0000,0.0000,0.0000,0.0000,0.0000,-5.4991,-5.4991,11.2765,11.2765,47.5322,47.5322,-76.0653,-76.0653,0.0000,-0.3697,13759.4111,0.0000,0.9919,0.9919,0.9890,0.9890,0.0000,0.0000,31.3114,57.4462,0.0834,0.0000,28.0666,29.2962,-2.0152
3.0000,accel,8.1140,0.0000,0.0000,24.2381,6.7310,0.0000,0.0000,1.0000,0.0000,0.0000,2,1582.9682,3312.7139,3312.7139,3567.7450,3567.7450,-0.1987,-0.1987,0.1498,0.1498,0.0000,0.0000,0.0000,0.0000,-3324.5988,-3324.5988,3489.0267,3489.0267,0.0000,0.0000,0.0000,0.0000,0.0000,-6.2104,-6.2104,12.3153,12.3153,-78.9416,-78.9416,48.1930,48.1930,0.0000,-0.4082,13760.9177,0.0000,1.0036,1.0036,0.9779,0.9779,0.0000,0.0000,33.0992,59.4371,0.0973,0.0000,28.1088,31.2310,-1.8681
3.1000,accel,8.7978,0.0000,0.0000,24.9607,6.9181,0.0000,0.0000,1.0000,0.0000,0.0000,2,1792.8639,2672.3021,2672.3021,4215.7993,4215.7993,-0.2851,-0.2851,0.2286,0.2286,0.0000,0.0000,0.0000,0.0000,-2740.1271,-2740.1271,4051.0755,4051.0755,0.0000,0.0000,0.0000,0.0000,0.0000,-5.7756,-5.7756,12.9946,12.9946,-265.1298,-265.1298,300.3964,300.3964,0.0000,-0.4136,13776.2029,0.0000,1.0254,1.0254,0.9609,0.9609,0.0000,0.0000,35.0165,61.6538,0.1124,0.0000,28.4113,33.1301,-1.8864
3.2000,accel,9.5007,0.0000,0.0000,25.7264,7.0688,0.0000,0.0000,1.0000,0.0000,0.0000,2,1741.9899,4292.3567,4292.3567,2595.3543,2595.3543,0.0931,0.0931,0.1887,0.1887,0.0000,0.0000,0.0000,0.0000,3890.5357,3890.5357,2629.6294,2629.6294,0.0000,0.0000,0.0000,0.0000,0.0000,-4.2729,-4.2729,11.5003,11.5003,261.6894,261.6894,-237.8744,-237.8744,0.0000,-0.3476,13775.4219,0.0000,0.9064,0.9064,1.0132,1.0132,0.0000,0.0000,37.0463,63.8987,0.1288,0.0000,28.5655,35.2044,-1.8418
3.3000,accel,10.2234,0.0000,0.0000,26.3889,7.2565,0.0000,0.0000,1.0000,0.0000,0.0000,2,1882.7182,4708.6246,4708.6246,2184.5283,2184.5283,0.0745,0.0745,0.2295,0.2295,0.0000,0.0000,0.0000,0.0000,3965.6957,3965.6957,2243.7802,2243.7802,0.0000,0.0000,0.0000,0.0000,0.0000,-3.7358,-3.7358,11.4445,11.4445,422.6679,422.6679,-355.0241,-355.0241,0.0000,-0.3345,13786.3058,0.0000,0.8422,0.8422,1.0271,1.0271,0.0000,0.0000,39.1424,66.2137,0.1466,0.0000,29.0190,37.0481,-2.0942
3.4000,accel,10.9660,0.0000,0.0000,27.0512,7.5113,0.0000,0.0000,1.0000,0.0000,0.0000,2,1725.1328,3246.5205,3246.5205,3637.6862,3637.6862,-0.1886,-0.1886,0.1295,0.1295,0.0000,0.0000,0.0000,0.0000,-3264.7509,-3264.7509,3520.0739,3520.0739,0.0000,0.0000,0.0000,0.0000,0.0000,-6.4760,-6.4760,13.5873,13.5873,-96.4235,-96.4235,62.4692,62.4692,0.0000,-0.4421,13768.4136,0.0000,1.0056,1.0056,0.9677,0.9677,0.0000,0.0000,41.1776,68.4867,0.1659,0.0000,29.3744,38.9463,-2.2313
3.5000,accel,11.7269,0.0000,0.0000,27.5014,7.6471,0.0000,0.0000,1.0000,0.0000,0.0000,1,2965.6709,3639.6090,3639.6090,3245.0399,3245.0399,-0.1593,-0.1593,0.0864,0.0864,0.0000,0.0000,0.0000,0.0000,-3618.4532,-3618.4532,2971.0880,2971.0880,0.0000,0.0000,0.0000,0.0000,0.0000,-5.1446,-5.1446,10.5537,10.5537,8.8066,8.8066,-46.0246,-46.0246,0.0000,-0.3459,13769.2978,0.0000,0.9942,0.9942,0.9156,0.9156,0.0000,0.0000,42.4689,69.8788,0.1867,0.0000,29.4261,40.2659,-2.2029
3.6000,accel,12.4910,0.0000,0.0000,27.4925,7.6436,0.0000,0.0000,1.0000,0.0000,0.0000,1,3013.6064,3650.7991,3650.7991,3235.1317,3235.1317,-0.1662,-0.1662,0.1013,0.1013,0.0000,0.0000,0.0000,0.0000,-3628.4642,-3628.4642,3069.7013,3069.7013,0.0000,0.0000,0.0000,0.0000,0.0000,-1.8444,-1.8444,5.1912,5.1912,-14.0826,-14.0826,-10.5487,-10.5487,0.0000,-0.1550,13771.8617,0.0000,0.9939,0.9939,0.9489,0.9489,0.0000,0.0000,42.4444,69.8788,0.2077,0.0000,29.4319,40.2391,-2.2052
3.7000,accel,13.2590,0.0000,0.0000,28.0993,7.7931,0.0000,0.0000,1.0000,0.0000,0.0000,1,3406.2146,2846.7064,2846.7064,4048.0939,4048.0939,-0.1152,-0.1152,0.1894,0.1894,0.0000,0.0000,0.0000,0.0000,-2875.9201,-2875.9201,3920.4818,3920.4818,0.0000,0.0000,0.0000,0.0000,0.0000,-5.2854,-5.2854,8.8541,8.8541,-219.3416,-219.3416,273.5842,273.5842,0.0000,-0.3116,13789.6005,0.0000,1.0103,1.0103,0.9685,0.9685,0.0000,0.0000,44.9518,72.9076,0.2291,0.0000,30.6249,42.0535,-2.8982
3.8000,accel,14.0692,0.0000,0.0000,29.9328,8.3032,0.0000,0.0000,1.0000,0.0000,0.0000,1,4748.1406,2811.3475,2811.3475,4082.8654,4082.8654,-0.1245,-0.1245,0.3804,0.3804,0.0000,0.0000,0.0000,0.0000,-2867.0789,-2867.0789,3847.8406,3847.8406,0.0000,0.0000,0.0000,0.0000,0.0000,-14.9544,-14.9544,19.5671,19.5671,-160.7249,-160.7249,179.6383,179.6383,0.0000,-0.7607,13788.4258,0.0000,1.0198,1.0198,0.9424,0.9424,0.0000,0.0000,52.1015,82.6297,0.2542,0.0000,34.5968,47.7787,-4.3228
3.9000,accel,14.9291,0.0000,0.0000,31.6984,8.7943,0.0000,0.0000,1.0000,0.0000,0.0000,1,6334.5568,2810.5113,2810.5113,4085.2447,4085.2447,-0.1204,-0.1204,0.5081,0.5081,0.0000,0.0000,0.0000,0.0000,-2856.9879,-2856.9879,3786.8091,3786.8091,0.0000,0.0000,0.0000,0.0000,0.0000,-18.6153,-18.6153,23.6559,23.6559,-135.1669,-135.1669,138.9619,138.9619,0.0000,-0.9315,13791.5121,0.0000,1.0165,1.0165,0.9269,0.9269,0.0000,0.0000,59.9142,95.9822,0.2842,0.0000,42.0628,53.6351,-6.2790
4.0000,accel,15.8376,0.0000,0.0000,33.4500,9.2803,0.0000,0.0000,1.0000,0.0000,0.0000,1,6810.3218,2790.7433,2790.7433,4107.8431,4107.8431,-0.1171,-0.1171,0.5172,0.5172,0.0000,0.0000,0.0000,0.0000,-2830.3251,-2830.3251,3801.5618,3801.5618,0.0000,0.0000,0.0000,0.0000,0.0000,-20.0616,-20.0616,25.3031,25.3031,-130.8537,-130.8537,130.7539,130.7539,0.0000,-0.9997,13797.1729,0.0000,1.0142,1.0142,0.9254,0.9254,0.0000,0.0000,66.7908,109.6722,0.3196,0.0000,49.5747,59.7779,-7.0128
4.1000,accel,16.7947,0.0000,0.0000,35.2029,9.7665,0.0000,0.0000,1.0000,0.0000,0.0000,1,6904.1910,2765.9222,2765.9222,4136.0951,4136.0951,-0.1135,-0.1135,0.4988,0.4988,0.0000,0.0000,0.0000,0.0000,-2797.0691,-2797.0691,3833.3741,3833.3741,0.0000,0.0000,0.0000,0.0000,0.0000,-20.7026,-20.7026,26.0333,26.0333,-133.7554,-133.7554,133.9358,133.9358,0.0000,-1.0299,13804.0345,0.0000,1.0113,1.0113,0.9268,0.9268,0.0000,0.0000,73.5276,123.2754,0.3610,0.0000,56.6568,66.2576,-7.2700
4.2000,accel,17.8004,0.0000,0.0000,36.9584,10.2535,0.0000,0.0000,1.0000,0.0000,0.0000,1,6906.6111,2756.9484,2756.9484,4148.6662,4148.6662,-0.1068,-0.1068,0.4740,0.4740,0.0000,0.0000,0.0000,0.0000,-2765.1107,-2765.1107,3855.4605,3855.4605,0.0000,0.0000,0.0000,0.0000,0.0000,-21.0276,-21.0276,26.3709,26.3709,-134.4075,-134.4075,134.7287,134.7287,0.0000,-1.0445,13811.2292,0.0000,1.0030,1.0030,0.9293,0.9293,0.0000,0.0000,80.5064,136.8585,0.4090,0.0000,63.3702,73.0793,-7.4271
4.3000,accel,18.8549,0.0000,0.0000,38.7192,10.7421,0.0000,0.0000,1.0000,0.0000,0.0000,1,6885.4647,2758.0750,2758.0750,4151.2841,4151.2841,-0.0990,-0.0990,0.4473,0.4473,0.0000,0.0000,0.0000,0.0000,-2731.1513,-2731.1513,3870.6741,3870.6741,0.0000,0.0000,0.0000,0.0000,0.0000,-21.2356,-21.2356,26.5479,26.5479,-133.0306,-133.0306,133.1007,133.1007,0.0000,-1.0530,13818.7182,0.0000,0.9902,0.9902,0.9324,0.9324,0.0000,0.0000,87.8235,150.4415,0.4643,0.0000,69.7209,80.2563,-7.5672
4.4000,accel,19.9583,0.0000,0.0000,40.4872,11.2326,0.0000,0.0000,1.0000,0.0000,0.0000,1,6857.2296,2762.6089,2762.6089,4150.6847,4150.6847,-0.0915,-0.0915,0.4196,0.4196,0.0000,0.0000,0.0000,0.0000,-2691.1996,-2691.1996,3884.1990,3884.1990,0.0000,0.0000,0.0000,0.0000,0.0000,-21.4047,-21.4047,26.6605,26.6605,-130.9802,-130.9802,130.7842,130.7842,0.0000,-1.0592,13826.5873,0.0000,0.9742,0.9742,0.9358,0.9358,0.0000,0.0000,95.5059,164.0292,0.5277,0.0000,75.7021,87.7994,-7.7065
4.5000,accel,21.1110,0.0000,0.0000,42.2575,11.7268,0.0000,0.0000,1.0000,0.0000,0.0000,2,2545.5037,2753.5050,2753.5050,4164.0966,4164.0966,-0.0843,-0.0843,0.0790,0.0790,0.0000,0.0000,0.0000,0.0000,-2629.1926,-2629.1926,3622.6948,3622.6948,0.0000,0.0000,0.0000,0.0000,0.0000,-21.6219,-21.6219,26.8089,26.8089,-132.5063,-132.5063,133.6649,133.6649,0.0000,-1.0673,13835.2033,0.0000,0.9549,0.9549,0.8700,0.8700,0.0000,0.0000,100.0739,173.0906,0.6000,0.0000,76.7997,95.6910,-4.3829
4.6000,accel,22.2834,0.0000,0.0000,42.1861,11.7276,0.0000,0.0000,1.0000,0.0000,0.0000,2,2504.1119,3634.1689,3634.1689,3280.4663,3280.4663,-0.0903,-0.0903,0.0638,0.0638,0.0000,0.0000,0.0000,0.0000,-3434.9633,-3434.9633,2694.7546,2694.7546,0.0000,0.0000,0.0000,0.0000,0.0000,-8.1815,-8.1815,13.2901,13.2901,32.3516,32.3516,-60.4292,-60.4292,0.0000,-0.4732,13829.2704,0.0000,0.9452,0.9452,0.8215,0.8215,0.0000,0.0000,99.9973,173.0906,0.6760,0.0000,77.0502,95.3645,-4.6328
4.7000,accel,23.4568,0.0000,0.0000,42.4534,11.7945,0.0000,0.0000,1.0000,0.0000,0.0000,2,2450.2691,2670.7081,2670.7081,4254.3916,4254.3916,-0.0914,-0.0914,0.0377,0.0377,0.0000,0.0000,0.0000,0.0000,-2609.5726,-2609.5726,2484.6491,2484.6491,0.0000,0.0000,0.0000,0.0000,0.0000,-5.4866,-5.4866,9.7237,9.7237,-271.4818,-271.4818,340.4939,340.4939,0.0000,-0.3352,13850.1994,0.0000,0.9771,0.9771,0.5840,0.5840,0.0000,0.0000,101.3730,174.6706,0.7522,0.0000,77.3360,96.5824,-4.7906
4.8000,accel,24.6502,0.0000,0.0000,43.3486,12.0410,0.0000,0.0000,1.0000,0.0000,0.0000,2,2565.6500,3116.7084,3116.7084,3804.4640,3804.4640,-0.0883,-0.0883,0.0618,0.0618,0.0000,0.0000,0.0000,0.0000,-2974.7543,-2974.7543,3034.8306,3034.8306,0.0000,0.0000,0.0000,0.0000,0.0000,-8.4272,-8.4272,12.4781,12.4781,-123.2958,-123.2958,132.4611,132.4611,0.0000,-0.4607,13842.3448,0.0000,0.9545,0.9545,0.7977,0.7977,0.0000,0.0000,105.7797,179.3359,0.8323,0.0000,77.7799,100.7236,-5.0561
4.9000,accel,25.8692,0.0000,0.0000,44.2694,12.2965,0.0000,0.0000,1.0000,0.0000,0.0000,2,2622.6519,3133.6557,3133.6557,3789.2428,3789.2428,-0.0851,-0.0851,0.0627,0.0627,0.0000,0.0000,0.0000,0.0000,-2961.6171,-2961.6171,3044.4327,3044.4327,0.0000,0.0000,0.0000,0.0000,0.0000,-9.8474,-9.8474,13.8374,13.8374,-108.5706,-108.5706,112.2309,112.2309,0.0000,-0.5219,13845.7970,0.0000,0.9451,0.9451,0.8034,0.8034,0.0000,0.0000,110.3315,184.1599,0.9178,0.0000,78.1681,105.0741,-5.2575
5.0000,accel,27.1139,0.0000,0.0000,45.2030,12.5559,0.0000,0.0000,1.0000,0.0000,0.0000,2,2672.1990,3128.3876,3128.3876,3796.7271,3796.7271,-0.0820,-0.0820,0.0607,0.0607,0.0000,0.0000,0.0000,0.0000,-2927.4874,-2927.4874,3003.3830,3003.3830,0.0000,0.0000,0.0000,0.0000,0.0000,-10.5348,-10.5348,14.5440,14.5440,-105.4367,-105.4367,107.5904,107.5904,0.0000,-0.5527,13850.2293,0.0000,0.9358,0.9358,0.7910,0.7910,0.0000,0.0000,115.0355,189.1452,1.0087,0.0000,78.5581,109.5784,-5.4571
5.1000,accel,28.3848,0.0000,0.0000,46.1482,12.8186,0.0000,0.0000,1.0000,0.0000,0.0000,2,2721.5040,3119.9469,3119.9469,3807.5642,3807.5642,-0.0790,-0.0790,0.0584,0.0584,0.0000,0.0000,0.0000,0.0000,-2888.2584,-2888.2584,2955.3920,2955.3920,0.0000,0.0000,0.0000,0.0000,0.0000,-10.9024,-10.9024,14.9636,14.9636,-105.5022,-105.5022,107.1413,107.1413,0.0000,-0.5700,13855.0223,0.0000,0.9257,0.9257,0.7762,0.7762,0.0000,0.0000,119.8965,194.2977,1.1056,0.0000,78.9581,114.2340,-5.6625
5.2000,accel,29.6822,0.0000,0.0000,47.1048,13.0844,0.0000,0.0000,1.0000,0.0000,0.0000,2,2771.7261,3111.6429,3111.6429,3818.3737,3818.3737,-0.0760,-0.0760,0.0563,0.0563,0.0000,0.0000,0.0000,0.0000,-2846.5390,-2846.5390,2907.7055,2907.7055,0.0000,0.0000,0.0000,0.0000,0.0000,-11.1351,-11.1351,15.2592,15.2592,-106.5018,-106.5018,107.9015,107.9015,0.0000,-0.5816,13860.0332,0.0000,0.9148,0.9148,0.7615,0.7615,0.0000,0.0000,124.9190,199.6231,1.2086,0.0000,79.3703,119.0442,-5.8748
5.3000,accel,31.0063,0.0000,0.0000,48.0731,13.3534,0.0000,0.0000,1.0000,0.0000,0.0000,2,2823.0384,3103.9277,3103.9277,3828.6869,3828.6869,-0.0731,-0.0731,0.0544,0.0544,0.0000,0.0000,0.0000,0.0000,-2802.4759,-2802.4759,2862.0459,2862.0459,0.0000,0.0000,0.0000,0.0000,0.0000,-11.3135,-11.3135,15.5009,15.5009,-107.7303,-107.7303,108.9827,108.9827,0.0000,-0.5909,13865.2293,0.0000,0.9029,0.9029,0.7475,0.7475,0.0000,0.0000,130.1080,205.1273,1.3181,0.0000,79.7955,124.0136,-6.0943
5.4000,accel,32.3575,0.0000,0.0000,49.0533,13.6257,0.0000,0.0000,1.0000,0.0000,0.0000,2,2875.5566,3097.0891,3097.0891,3838.2112,3838.2112,-0.0702,-0.0702,0.0527,0.0527,0.0000,0.0000,0.0000,0.0000,-2756.0280,-2756.0280,2819.8907,2819.8907,0.0000,0.0000,0.0000,0.0000,0.0000,-11.4728,-11.4728,15.7174,15.7174,-108.8548,-108.8548,109.9796,109.9796,0.0000,-0.5992,13870.6007,0.0000,0.8899,0.8899,0.7347,0.7347,0.0000,0.0000,135.4684,210.8164,1.4344,0.0000,80.2348,129.1472,-6.3211
5.5000,accel,33.7362,0.0000,0.0000,50.0457,13.9012,0.0000,0.0000,1.0000,0.0000,0.0000,2,2929.3658,3091.3720,3091.3720,3846.7014,3846.7014,-0.0673,-0.0673,0.0513,0.0513,0.0000,0.0000,0.0000,0.0000,-2707.0843,-2707.0843,2782.4714,2782.4714,0.0000,0.0000,0.0000,0.0000,0.0000,-11.6288,-11.6288,15.9199,15.9199,-109.6930,-109.6930,110.6815,110.6815,0.0000,-0.6071,13876.1467,0.0000,0.8757,0.8757,0.7233,0.7233,0.0000,0.0000,141.0052,216.6969,1.5580,0.0000,80.6889,134.4500,-6.5552
5.6000,accel,35.1425,0.0000,0.0000,51.0504,14.1801,0.0000,0.0000,1.0000,0.0000,0.0000,2,2984.5093,3086.9523,3086.9523,3853.9831,3853.9831,-0.0644,-0.0644,0.0502,0.0502,0.0000,0.0000,0.0000,0.0000,-2655.4580,-2655.4580,2750.5569,2750.5569,0.0000,0.0000,0.0000,0.0000,0.0000,-11.7888,-11.7888,16.1124,16.1124,-110.1418,-110.1418,110.9782,110.9782,0.0000,-0.6149,13881.8708,0.0000,0.8602,0.8602,0.7137,0.7137,0.0000,0.0000,146.7238,222.7753,1.6892,0.0000,81.1589,139.9271,-6.7966
5.7000,accel,36.5770,0.0000,0.0000,52.0671,14.4621,0.0000,0.0000,1.0000,0.0000,0.0000,2,3041.5427,3085.6645,3085.6645,3858.2075,3858.2075,-0.0615,-0.0615,0.0495,0.0495,0.0000,0.0000,0.0000,0.0000,-2602.1181,-2602.1181,2729.4620,2729.4620,0.0000,0.0000,0.0000,0.0000,0.0000,-11.9508,-11.9508,16.2869,16.2869,-109.6915,-109.6915,110.2106,110.2106,0.0000,-0.6223,13887.7438,0.0000,0.8433,0.8433,0.7074,0.7074,0.0000,0.0000,152.6246,229.0529,1.8285,0.0000,81.6437,145.5807,-7.0438
5.8000,accel,38.0399,0.0000,0.0000,53.0937,14.7469,0.0000,0.0000,1.0000,0.0000,0.0000,2,3099.5531,3086.7018,3086.7018,3860.1989,3860.1989,-0.0587,-0.0587,0.0489,0.0489,0.0000,0.0000,0.0000,0.0000,-2546.5357,-2546.5357,2711.5456,2711.5456,0.0000,0.0000,0.0000,0.0000,0.0000,-12.1101,-12.1101,16.4294,16.4294,-108.6067,-108.6067,108.8490,108.8490,0.0000,-0.6289,13893.8013,0.0000,0.8250,0.8250,0.7024,0.7024,0.0000,0.0000,158.7005,235.5233,1.9761,0.0000,82.1440,151.4032,-7.2972
5.9000,accel,39.5314,0.0000,0.0000,54.1281,15.0339,0.0000,0.0000,1.0000,0.0000,0.0000,2,3157.3861,3088.3278,3088.3278,3861.6969,3861.6969,-0.0559,-0.0559,0.0481,0.0481,0.0000,0.0000,0.0000,0.0000,-2488.1968,-2488.1968,2687.1483,2687.1483,0.0000,0.0000,0.0000,0.0000,0.0000,-12.2532,-12.2532,16.5431,16.5431,-107.4792,-107.4792,107.5569,107.5569,0.0000,-0.6346,13900.0496,0.0000,0.8057,0.8057,0.6958,0.6958,0.0000,0.0000,164.9418,242.1762,2.1326,0.0000,82.6589,157.3847,-7.5571
6.0000,accel,41.0517,0.0000,0.0000,55.1699,15.3228,0.0000,0.0000,1.0000,0.0000,0.0000,2,3215.9770,3091.1196,3091.1196,3862.1131,3862.1131,-0.0532,-0.0532,0.0475,0.0475,0.0000,0.0000,0.0000,0.0000,-2426.2867,-2426.2867,2666.0621,2666.0621,0.0000,0.0000,0.0000,0.0000,0.0000,-12.3869,-12.3869,16.6364,16.6364,-106.0946,-106.0946,106.0175,106.0175,0.0000,-0.6396,13906.4653,0.0000,0.7849,0.7849,0.6903,0.6903,0.0000,0.0000,171.3487,249.0122,2.2983,0.0000,83.1881,163.5258,-7.8229
6.1000,accel,42.6011,0.0000,0.0000,56.2191,15.6137,0.0000,0.0000,1.0000,0.0000,0.0000,2,3275.2886,3095.0847,3095.0847,3861.4404,3861.4404,-0.0505,-0.0505,0.0470,0.0470,0.0000,0.0000,0.0000,0.0000,-2360.4527,-2360.4527,2647.8720,2647.8720,0.0000,0.0000,0.0000,0.0000,0.0000,-12.5208,-12.5208,16.7163,16.7163,-104.3831,-104.3831,104.1555,104.1555,0.0000,-0.6443,13913.0503,0.0000,0.7626,0.7626,0.6857,0.6857,0.0000,0.0000,177.9239,256.0349,2.4738,0.0000,83.7320,169.8291,-8.0947
6.2000,accel,44.1796,0.0000,0.0000,57.2757,15.9066,0.0000,0.0000,1.0000,0.0000,0.0000,2,3335.2848,3100.2230,3100.2230,3859.6805,3859.6805,-0.0478,-0.0478,0.0466,0.0466,0.0000,0.0000,0.0000,0.0000,-2290.2902,-2290.2902,2632.1447,2632.1447,0.0000,0.0000,0.0000,0.0000,0.0000,-12.6589,-12.6589,16.7859,16.7859,-102.3166,-102.3166,101.9406,101.9406,0.0000,-0.6489,13919.8070,0.0000,0.7388,0.7388,0.6820,0.6820,0.0000,0.0000,184.6703,263.2482,2.6593,0.0000,84.2913,176.2976,-8.3727
6.3000,accel,45.7877,0.0000,0.0000,58.3399,16.2015,0.0000,0.0000,1.0000,0.0000,0.0000,2,3395.9329,3106.5444,3106.5444,3856.8246,3856.8246,-0.0451,-0.0451,0.0463,0.0463,0.0000,0.0000,0.0000,0.0000,-2215.3361,-2215.3361,2618.4610,2618.4610,0.0000,0.0000,0.0000,0.0000,0.0000,-12.8028,-12.8028,16.8466,16.8466,-99.8806,-99.8806,99.3564,99.3564,0.0000,-0.6534,13926.7381,0.0000,0.7131,0.7131,0.6789,0.6789,0.0000,0.0000,191.5909,270.6559,2.8554,0.0000,84.8662,182.9343,-8.6566
6.4000,accel,47.4254,0.0000,0.0000,59.4117,16.4984,0.0000,0.0000,1.0000,0.0000,0.0000,2,3457.2041,3114.0745,3114.0745,3852.8485,3852.8485,-0.0424,-0.0424,0.0460,0.0460,0.0000,0.0000,0.0000,0.0000,-2135.0545,-2135.0545,2606.4254,2606.4254,0.0000,0.0000,0.0000,0.0000,0.0000,-12.9532,-12.9532,16.8987,16.8987,-97.0627,-97.0627,96.3885,96.3885,0.0000,-0.6578,13933.8460,0.0000,0.6856,0.6856,0.6765,0.6765,0.0000,0.0000,198.6887,278.2618,3.0626,0.0000,85.4572,189.7420,-8.9466
6.5000,accel,49.0929,0.0000,0.0000,60.4910,16.7973,0.0000,0.0000,1.0000,0.0000,0.0000,2,3519.0731,3122.8584,3122.8584,3847.7081,3847.7081,-0.0397,-0.0397,0.0458,0.0458,0.0000,0.0000,0.0000,0.0000,-2048.8160,-2048.8160,2595.6674,2595.6674,0.0000,0.0000,0.0000,0.0000,0.0000,-13.1105,-13.1105,16.9422,16.9422,-93.8476,-93.8476,93.0191,93.0191,0.0000,-0.6623,13941.1331,0.0000,0.6561,0.6561,0.6746,0.6746,0.0000,0.0000,205.9666,286.0698,3.2813,0.0000,86.0646,196.7239,-9.2427
6.6000,accel,50.7905,0.0000,0.0000,61.5781,17.0983,0.0000,0.0000,1.0000,0.0000,0.0000,2,3581.5173,3132.9659,3132.9659,3841.3351,3841.3351,-0.0370,-0.0370,0.0456,0.0456,0.0000,0.0000,0.0000,0.0000,-1955.8698,-1955.8698,2585.8366,2585.8366,0.0000,0.0000,0.0000,0.0000,0.0000,-13.2750,-13.2750,16.9769,16.9769,-90.2132,-90.2132,89.2235,89.2235,0.0000,-0.6667,13948.6019,0.0000,0.6243,0.6243,0.6732,0.6732,0.0000,0.0000,213.4277,294.0838,3.5120,0.0000,86.6889,203.8828,-9.5448
6.7000,accel,52.5183,0.0000,0.0000,62.6729,17.4014,0.0000,0.0000,1.0000,0.0000,0.0000,2,3644.5164,3144.4958,3144.4958,3833.6315,3833.6315,-0.0343,-0.0343,0.0455,0.0455,0.0000,0.0000,0.0000,0.0000,-1855.3044,-1855.3044,2576.5945,2576.5945,0.0000,0.0000,0.0000,0.0000,0.0000,-13.4470,-13.4470,17.0021,17.0021,-86.1290,-86.1290,84.9676,84.9676,0.0000,-0.6710,13956.2547,0.0000,0.5900,0.5900,0.6721,0.6721,0.0000,0.0000,221.0750,302.3077,3.7553,0.0000,87.3304,211.2220,-9.8529
6.8000,accel,54.2767,0.0000,0.0000,63.7755,17.7065,0.0000,0.0000,1.0000,0.0000,0.0000,2,3708.0508,3157.5839,3157.5839,3824.4629,3824.4629,-0.0315,-0.0315,0.0454,0.0454,0.0000,0.0000,0.0000,0.0000,-1745.9951,-1745.9951,2567.6027,2567.6027,0.0000,0.0000,0.0000,0.0000,0.0000,-13.6271,-13.6271,17.0171,17.0171,-81.5532,-81.5532,80.2054,80.2054,0.0000,-0.6753,13964.0935,0.0000,0.5530,0.5530,0.6714,0.6714,0.0000,0.0000,228.9116,310.7458,4.0118,0.0000,87.9894,218.7446,-10.1670
6.9000,accel,56.0657,0.0000,0.0000,64.8860,18.0137,0.0000,0.0000,1.0000,0.0000,0.0000,2,3772.1009,3172.4120,3172.4120,3813.6481,3813.6481,-0.0286,-0.0286,0.0453,0.0453,0.0000,0.0000,0.0000,0.0000,-1626.5336,-1626.5336,2558.5096,2558.5096,0.0000,0.0000,0.0000,0.0000,0.0000,-13.8158,-13.8158,17.0208,17.0208,-76.4293,-76.4293,74.8753,74.8753,0.0000,-0.6795,13972.1201,0.0000,0.5127,0.5127,0.6709,0.6709,0.0000,0.0000,236.9407,319.4020,4.2818,0.0000,88.6662,226.4539,-10.4868
7.0000,brake,57.8857,0.0000,0.0000,66.0044,18.3229,0.0000,0.0000,0.0000,0.0000,0.0000,2,3836.6463,3189.2211,3189.2211,3800.9471,3800.9471,-0.0256,-0.0256,0.0453,0.0453,0.0000,0.0000,0.0000,0.0000,-1495.1394,-1495.1394,2548.9340,2548.9340,0.0000,0.0000,0.0000,0.0000,0.0000,-14.0141,-14.0141,17.0116,17.0116,-70.6827,-70.6827,68.8957,68.8957,0.0000,-0.6837,13980.3363,0.0000,0.4688,0.4688,0.6706,0.6706,0.0000,0.0000,245.1655,328.2804,4.5661,0.0000,89.3611,234.3532,-10.8123
7.1000,brake,59.7176,0.0000,0.0000,65.6614,18.2899,0.0000,0.0000,0.0000,0.3333,0.0000,2,3564.5564,3480.4806,3480.4806,3506.9000,3506.9000,-0.0486,-0.0486,-0.0251,-0.0251,0.0000,0.0000,0.0000,0.0000,-2568.0351,-2568.0351,-1601.2455,-1601.2455,0.0000,0.0000,0.0000,0.0000,0.0000,-3.0216,-3.0216,8.0176,8.0176,-65.9325,-65.9325,41.3237,41.3237,0.0000,-0.2433,13974.7613,0.0000,0.7378,0.7378,0.4566,0.4566,0.0000,0.0000,242.2480,328.2033,4.8561,2.5206,88.9255,231.9012,-10.3468
7.2000,brake,61.5282,0.0000,0.0000,64.5734,17.9901,0.0000,0.0000,0.0000,0.6667,0.0000,2,3480.2556,3934.9103,3934.9103,3047.1386,3047.1386,-0.0428,-0.0428,-0.0323,-0.0323,0.0000,0.0000,0.0000,0.0000,-2652.0891,-2652.0891,-1724.8121,-1724.8121,0.0000,0.0000,0.0000,0.0000,0.0000,8.1970,8.1970,-3.0724,-3.0724,-15.7716,-15.7716,-21.9442,-21.9442,0.0000,0.2483,13964.0977,0.0000,0.6740,0.6740,0.5660,0.5660,0.0000,0.0000,233.8998,328.1307,5.1361,10.3532,88.4060,224.2354,-9.6644
7.3000,brake,63.2971,0.0000,0.0000,62.8365,17.5019,0.0000,0.0000,0.0000,0.8000,0.0000,2,3386.1925,4317.1381,4317.1381,2660.2906,2660.2906,-0.0326,-0.0326,-0.0322,-0.0322,0.0000,0.0000,0.0000,0.0000,-2377.4871,-2377.4871,-1521.9447,-1521.9447,0.0000,0.0000,0.0000,0.0000,0.0000,17.5389,17.5389,-13.2019,-13.2019,38.4112,38.4112,-59.0273,-59.0273,0.0000,0.6774,13954.8574,0.0000,0.5507,0.5507,0.5721,0.5721,0.0000,0.0000,221.2336,328.0642,5.3972,22.3420,88.0571,212.2680,-8.9656
7.4000,brake,65.0150,0.0000,0.0000,60.9910,16.9892,0.0000,0.0000,0.0000,0.8000,0.0000,2,3288.0853,4315.3977,4315.3977,2655.4899,2655.4899,-0.0329,-0.0329,-0.0319,-0.0319,0.0000,0.0000,0.0000,0.0000,-2396.0579,-2396.0579,-1508.0206,-1508.0206,0.0000,0.0000,0.0000,0.0000,0.0000,21.5374,21.5374,-18.6584,-18.6584,-0.8793,-0.8793,-20.3096,-20.3096,0.0000,0.8858,13941.7752,0.0000,0.5552,0.5552,0.5679,0.5679,0.0000,0.0000,208.4336,328.0027,5.6363,34.4783,87.9788,199.9093,-8.5243
7.5000,brake,66.6817,0.0000,0.0000,59.1404,16.4799,0.0000,0.0000,0.0000,0.8000,0.0000,2,3182.7233,4245.6726,4245.6726,2720.3322,2720.3322,-0.0395,-0.0395,-0.0339,-0.0339,0.0000,0.0000,0.0000,0.0000,-2692.4360,-2692.4360,-1616.0103,-1616.0103,0.0000,0.0000,0.0000,0.0000,0.0000,23.1461,23.1461,-21.1452,-21.1452,-31.5750,-31.5750,23.8749,23.8749,0.0000,0.9760,13932.0097,0.0000,0.6342,0.6342,0.5940,0.5940,0.0000,0.0000,196.0299,327.9454,5.8547,46.2509,87.9537,187.8860,-8.1438
7.6000,brake,68.2973,0.0000,0.0000,57.2924,15.9723,0.0000,0.0000,0.0000,0.8000,0.0000,2,3072.3515,4152.9372,4152.9372,2808.1028,2808.1028,-0.0482,-0.0482,-0.0378,-0.0378,0.0000,0.0000,0.0000,0.0000,-2994.7068,-2994.7068,-1798.0339,-1798.0339,0.0000,0.0000,0.0000,0.0000,0.0000,24.0820,24.0820,-21.8114,-21.8114,-64.0645,-64.0645,67.0978,67.0978,0.0000,1.0113,13922.0800,0.0000,0.7211,0.7211,0.6403,0.6403,0.0000,0.0000,184.0218,327.8923,6.0537,57.6487,87.9425,176.2475,-7.7743
7.7000,brake,69.8619,0.0000,0.0000,55.4508,15.4636,0.0000,0.0000,0.0000,0.8000,0.0000,2,2966.2036,4107.1538,4107.1538,2848.1470,2848.1470,-0.0528,-0.0528,-0.0405,-0.0405,0.0000,0.0000,0.0000,0.0000,-3122.8645,-3122.8645,-1909.0764,-1909.0764,0.0000,0.0000,0.0000,0.0000,0.0000,24.6862,24.6862,-21.8823,-21.8823,-80.7891,-80.7891,85.2351,85.2351,0.0000,1.0262,13910.6016,0.0000,0.7603,0.7603,0.6703,0.6703,0.0000,0.0000,172.4079,327.8431,6.2344,68.6735,87.9198,165.0154,-7.3925
7.8000,brake,71.3755,0.0000,0.0000,53.6120,14.9553,0.0000,0.0000,0.0000,0.8000,0.0000,2,2859.9036,4066.6283,4066.6283,2883.0104,2883.0104,-0.0572,-0.0572,-0.0434,-0.0434,0.0000,0.0000,0.0000,0.0000,-3223.8999,-3223.8999,-2021.2646,-2021.2646,0.0000,0.0000,0.0000,0.0000,0.0000,25.0603,25.0603,-21.7364,-21.7364,-94.3906,-94.3906,99.0854,99.0854,0.0000,1.0313,13899.2774,0.0000,0.7928,0.7928,0.7011,0.7011,0.0000,0.0000,161.1861,327.7979,6.3979,79.3282,87.9066,154.1652,-7.0209
7.9000,brake,72.8382,0.0000,0.0000,51.7758,14.4476,0.0000,0.0000,0.0000,0.8000,0.0000,2,2752.9906,4028.8503,4028.8503,2915.2889,2915.2889,-0.0613,-0.0613,-0.0468,-0.0468,0.0000,0.0000,0.0000,0.0000,-3304.5611,-3304.5611,-2139.6543,-2139.6543,0.0000,0.0000,0.0000,0.0000,0.0000,25.3246,25.3246,-21.5112,-21.5112,-106.4450,-106.4450,111.0613,111.0613,0.0000,1.0321,13888.2785,0.0000,0.8202,0.8202,0.7339,0.7339,0.0000,0.0000,150.3547,327.7567,6.5456,89.6134,87.9041,143.6937,-6.6610
8.0000,brake,74.2500,0.0000,0.0000,49.9420,13.9404,0.0000,0.0000,0.0000,0.8000,0.0000,2,2645.3807,3992.7821,3992.7821,2946.0460,2946.0460,-0.0654,-0.0654,-0.0508,-0.0508,0.0000,0.0000,0.0000,0.0000,-3370.4073,-3370.4073,-2263.8672,-2263.8672,0.0000,0.0000,0.0000,0.0000,0.0000,25.5356,25.5356,-21.2597,-21.2597,-117.6526,-117.6526,122.1194,122.1194,0.0000,1.0312,13877.6563,0.0000,0.8441,0.8441,0.7684,0.7684,0.0000,0.0000,139.9119,327.7192,6.6784,99.5292,87.9131,133.5985,-6.3133
8.1000,brake,75.6111,0.0000,0.0000,48.1105,13.4338,0.0000,0.0000,0.0000,0.8000,0.0000,2,2537.2449,3958.3274,3958.3274,2975.3816,2975.3816,-0.0695,-0.0695,-0.0552,-0.0552,0.0000,0.0000,0.0000,0.0000,-3425.4666,-3425.4666,-2390.0670,-2390.0670,0.0000,0.0000,0.0000,0.0000,0.0000,25.7193,25.7193,-21.0037,-21.0037,-128.2271,-128.2271,132.5164,132.5164,0.0000,1.0296,13867.4180,0.0000,0.8654,0.8654,0.8033,0.8033,0.0000,0.0000,129.8560,327.6851,6.7973,109.0755,87.9342,123.8781,-5.9779
8.2000,brake,76.9214,0.0000,0.0000,46.2814,12.9277,0.0000,0.0000,0.0000,0.8000,0.0000,2,2428.9083,3925.8597,3925.8597,3002.9198,3002.9198,-0.0736,-0.0736,-0.0602,-0.0602,0.0000,0.0000,0.0000,0.0000,-3472.8104,-3472.8104,-2512.9849,-2512.9849,0.0000,0.0000,0.0000,0.0000,0.0000,25.8868,25.8868,-20.7539,-20.7539,-138.1396,-138.1396,142.2100,142.2100,0.0000,1.0278,13857.5590,0.0000,0.8846,0.8846,0.8368,0.8368,0.0000,0.0000,120.1854,327.6544,6.9034,118.2524,87.9676,114.5309,-5.6545
8.3000,brake,78.1810,0.0000,0.0000,44.4547,12.4221,0.0000,0.0000,0.0000,0.8000,0.0000,2,2320.7006,3895.8175,3895.8175,3028.2204,3028.2204,-0.0780,-0.0780,-0.0655,-0.0655,0.0000,0.0000,0.0000,0.0000,-3514.5279,-3514.5279,-2628.1287,-2628.1287,0.0000,0.0000,0.0000,0.0000,0.0000,26.0416,26.0416,-20.5169,-20.5169,-147.2901,-147.2901,151.0916,151.0916,0.0000,1.0260,13848.0758,0.0000,0.9021,0.9021,0.8679,0.8679,0.0000,0.0000,110.8986,327.6268,6.9977,127.0597,88.0140,105.5554,-5.3432
8.4000,brake,79.3900,0.0000,0.0000,42.6302,11.9169,0.0000,0.0000,0.0000,0.8000,0.0000,2,2212.8556,3868.4739,3868.4739,3051.0105,3051.0105,-0.0826,-0.0826,-0.0711,-0.0711,0.0000,0.0000,0.0000,0.0000,-3551.8347,-3551.8347,-2732.8429,-2732.8429,0.0000,0.0000,0.0000,0.0000,0.0000,26.1840,26.1840,-20.2973,-20.2973,-155.6032,-155.6032,159.0953,159.0953,0.0000,1.0243,13838.9687,0.0000,0.9181,0.9181,0.8957,0.8957,0.0000,0.0000,101.9939,327.6020,7.0811,135.4971,88.0739,96.9498,-5.0440
8.5000,brake,80.5485,0.0000,0.0000,40.8079,11.4122,0.0000,0.0000,0.0000,0.8000,0.0000,2,2105.5107,3843.9205,3843.9205,3071.1993,3071.1993,-0.0874,-0.0874,-0.0771,-0.0771,0.0000,0.0000,0.0000,0.0000,-3585.3803,-3585.3803,-2826.0397,-2826.0397,0.0000,0.0000,0.0000,0.0000,0.0000,26.3136,26.3136,-20.0972,-20.0972,-163.0497,-163.0497,166.2090,166.2090,0.0000,1.0227,13830.2397,0.0000,0.9327,0.9327,0.9202,0.9202,0.0000,0.0000,93.4699,327.5800,7.1545,143.5649,88.1480,88.7126,-4.7572
8.6000,brake,81.6564,0.0000,0.0000,38.9876,10.9079,0.0000,0.0000,0.0000,0.8000,0.0000,2,1998.7415,3822.0325,3822.0325,3088.9140,3088.9140,-0.0926,-0.0926,-0.0834,-0.0834,0.0000,0.0000,0.0000,0.0000,-3615.6540,-3615.6540,-2907.6774,-2907.6774,0.0000,0.0000,0.0000,0.0000,0.0000,26.4299,26.4299,-19.9176,-19.9176,-169.6615,-169.6615,172.4912,172.4912,0.0000,1.0214,13821.8930,0.0000,0.9460,0.9460,0.9413,0.9413,0.0000,0.0000,85.3252,327.5604,7.2187,151.2628,88.2368,80.8421,-4.4830
8.7000,brake,82.7139,0.0000,0.0000,37.1768,10.4069,0.0000,0.0000,0.0000,0.8000,0.0000,2,1895.4149,3751.2435,3751.2435,3156.3047,3156.3047,-0.1144,-0.1144,-0.0889,-0.0889,0.0000,0.0000,0.0000,0.0000,-3684.7725,-3684.7725,-3014.3538,-3014.3538,0.0000,0.0000,0.0000,0.0000,0.0000,26.4271,26.4271,-19.6233,-19.6233,-189.4184,-189.4184,197.4469,197.4469,0.0000,1.0148,13815.0964,0.0000,0.9823,0.9823,0.9550,0.9550,0.0000,0.0000,77.5590,327.5432,7.2745,158.5837,88.3188,73.3662,-4.1928
8.8000,brake,83.7211,0.0000,0.0000,35.4360,9.9114,0.0000,0.0000,0.0000,0.8000,0.0000,2,1905.8411,3650.5636,3650.5636,3255.1012,3255.1012,-0.2218,-0.2218,-0.0381,-0.0381,0.0000,0.0000,0.0000,0.0000,-3628.2536,-3628.2536,-2067.0495,-2067.0495,0.0000,0.0000,0.0000,0.0000,0.0000,25.6834,25.6834,-19.6635,-19.6635,-212.4489,-212.4489,238.2550,238.2550,0.0000,0.9993,13811.3297,0.0000,0.9939,0.9939,0.6350,0.6350,0.0000,0.0000,70.1896,327.5280,7.3227,165.4876,88.1998,66.5179,-3.6717
8.9000,brake,84.6782,0.0000,0.0000,33.6030,9.3635,0.0000,0.0000,0.0000,0.8000,0.0000,2,1888.0170,4797.1324,4797.1324,2102.4979,2102.4979,-0.0351,-0.0351,0.0086,0.0086,0.0000,0.0000,0.0000,0.0000,-2765.1985,-2765.1985,324.2705,324.2705,0.0000,0.0000,0.0000,0.0000,0.0000,27.1430,27.1430,-21.8766,-21.8766,147.2241,147.2241,-142.6600,-142.6600,0.0000,1.0802,13799.2607,0.0000,0.5764,0.5764,0.1542,0.1542,0.0000,0.0000,63.1662,327.5145,7.3641,171.9807,88.5076,59.6622,-3.5040
9.0000,brake,85.5846,0.0000,0.0000,31.7197,8.8920,0.0000,0.0000,0.0000,0.8000,0.0000,2,1594.5065,3809.7129,3809.7129,3088.2456,3088.2456,-0.1146,-0.1146,-0.1030,-0.1030,0.0000,0.0000,0.0000,0.0000,-3737.5650,-3737.5650,-3045.2376,-3045.2376,0.0000,0.0000,0.0000,0.0000,0.0000,25.6476,25.6476,-20.8525,-20.8525,-165.9168,-165.9168,185.0931,185.0931,0.0000,1.0247,13795.9170,0.0000,0.9811,0.9811,0.9861,0.9861,0.0000,0.0000,56.5134,327.5031,7.3992,178.1629,88.9469,52.9940,-3.5194
9.1000,brake,86.4416,0.0000,0.0000,30.0416,8.4135,0.0000,0.0000,0.0000,0.8000,0.0000,2,1611.4430,3431.4612,3431.4612,3466.9223,3466.9223,-0.3421,-0.3421,-0.0419,-0.0419,0.0000,0.0000,0.0000,0.0000,-3412.8818,-3412.8818,-2332.4692,-2332.4692,0.0000,0.0000,0.0000,0.0000,0.0000,25.1559,25.1559,-19.4718,-19.4718,-270.1292,-270.1292,323.4880,323.4880,0.0000,0.9835,13796.7670,0.0000,0.9946,0.9946,0.6728,0.6728,0.0000,0.0000,50.3049,327.4933,7.4289,183.7739,88.9179,47.3726,-2.9323
9.2000,brake,87.2488,0.0000,0.0000,28.2429,7.9137,0.0000,0.0000,0.0000,0.8000,0.0000,2,1514.8857,3410.2608,3410.2608,3484.9615,3484.9615,-0.3853,-0.3853,-0.0424,-0.0424,0.0000,0.0000,0.0000,0.0000,-3373.3282,-3373.3282,-2362.1932,-2362.1932,0.0000,0.0000,0.0000,0.0000,0.0000,25.4447,25.4447,-19.3011,-19.3011,-277.9063,-277.9063,329.7162,329.7162,0.0000,0.9861,13790.4447,0.0000,0.9892,0.9892,0.6778,0.6778,0.0000,0.0000,44.4219,327.4851,7.4538,188.9211,89.4272,41.6831,-2.7388
9.3000,brake,88.0060,0.0000,0.0000,26.4365,7.4124,0.0000,0.0000,0.0000,0.8000,0.0000,2,1416.2773,3410.7301,3410.7301,3481.4111,3481.4111,-0.4202,-0.4202,-0.0442,-0.0442,0.0000,0.0000,0.0000,0.0000,-3358.1357,-3358.1357,-2422.7302,-2422.7302,0.0000,0.0000,0.0000,0.0000,0.0000,25.7083,25.7083,-19.2676,-19.2676,-279.3325,-279.3325,328.6379,328.6379,0.0000,0.9911,13784.2825,0.0000,0.9846,0.9846,0.6959,0.6959,0.0000,0.0000,38.9035,327.4783,7.4742,193.6605,90.0232,36.3204,-2.5831
9.4000,brake,88.7131,0.0000,0.0000,24.6237,6.9104,0.0000,0.0000,0.0000,0.8000,0.0000,2,1314.6041,3439.4559,3439.4559,3449.5895,3449.5895,-0.4495,-0.4495,-0.0483,-0.0483,0.0000,0.0000,0.0000,0.0000,-3371.0794,-3371.0794,-2536.8490,-2536.8490,0.0000,0.0000,0.0000,0.0000,0.0000,25.9085,25.9085,-19.3250,-19.3250,-272.2531,-272.2531,317.1182,317.1182,0.0000,0.9968,13778.0909,0.0000,0.9801,0.9801,0.7354,0.7354,0.0000,0.0000,33.7499,327.4728,7.4909,198.0142,90.6746,31.2931,-2.4568
9.5000,brake,89.3700,0.0000,0.0000,22.8313,6.4127,0.0000,0.0000,0.0000,0.8000,0.0000,2,1217.0117,3342.5770,3342.5770,3545.0368,3545.0368,-0.5185,-0.5185,-0.0505,-0.0505,0.0000,0.0000,0.0000,0.0000,-3258.6408,-3258.6408,-2667.6193,-2667.6193,0.0000,0.0000,0.0000,0.0000,0.0000,25.8527,25.8527,-19.1383,-19.1383,-299.2557,-299.2557,354.0151,354.0151,0.0000,0.9915,13775.2276,0.0000,0.9749,0.9749,0.7525,0.7525,0.0000,0.0000,28.9870,327.4685,7.5043,201.9993,91.2937,26.6711,-2.3159
9.6000,brake,89.9767,0.0000,0.0000,21.0724,5.8840,0.0000,0.0000,0.0000,0.8000,0.0000,2,1272.4796,4750.9025,4750.9025,2127.8710,2127.8710,-0.4563,-0.4563,0.0754,0.0754,0.0000,0.0000,0.0000,0.0000,-4506.9526,-4506.9526,1951.0187,1951.0187,0.0000,0.0000,0.0000,0.0000,0.0000,26.8981,26.8981,-20.3501,-20.3501,134.3000,134.3000,-142.9718,-142.9718,0.0000,1.0412,13757.5469,0.0000,0.9487,0.9487,0.9169,0.9169,0.0000,0.0000,24.5294,327.4655,7.5149,205.6501,91.8252,22.4753,-2.0540
9.7000,brake,90.5326,0.0000,0.0000,19.1318,5.3549,0.0000,0.0000,0.0000,0.8000,0.0000,2,1000.0000,4929.6629,4929.6629,1948.8317,1948.8317,-0.0143,-0.0143,-0.1228,-0.1228,0.0000,0.0000,0.0000,0.0000,-1335.7705,-1335.7705,-2057.8984,-2057.8984,0.0000,0.0000,0.0000,0.0000,0.0000,27.9190,27.9190,-21.4514,-21.4514,195.9454,195.9454,-185.8844,-185.8844,0.0000,1.0880,13756.9891,0.0000,0.2710,0.2710,1.0560,1.0560,0.0000,0.0000,20.4348,327.4637,7.5230,209.0623,92.6482,18.2302,-2.2046
9.8000,brake,91.0391,0.0000,0.0000,17.4810,4.9046,0.0000,0.0000,0.0000,0.8000,0.0000,2,1000.0000,3360.9404,3360.9404,3520.1126,3520.1126,-0.6720,-0.6720,-0.0124,-0.0124,0.0000,0.0000,0.0000,0.0000,-3222.7068,-3222.7068,-865.7352,-865.7352,0.0000,0.0000,0.0000,0.0000,0.0000,25.8612,25.8612,-19.1113,-19.1113,-293.3528,-293.3528,345.2809,345.2809,0.0000,0.9911,13762.1059,0.0000,0.9589,0.9589,0.2459,0.2459,0.0000,0.0000,16.8486,327.4630,7.5291,211.9360,93.0619,14.9360,-1.9126
9.9000,brake,91.4954,0.0000,0.0000,15.6376,4.3772,0.0000,0.0000,0.0000,0.8000,0.0000,2,1000.0000,4905.0831,4905.0831,1970.4445,1970.4445,-0.5216,-0.5216,0.0734,0.0734,0.0000,0.0000,0.0000,0.0000,-4603.1142,-4603.1142,1804.3830,1804.3830,0.0000,0.0000,0.0000,0.0000,0.0000,26.6644,26.6644,-20.7660,-20.7660,199.2183,199.2183,-184.0061,-184.0061,0.0000,1.0452,13751.0553,0.0000,0.9384,0.9384,0.9157,0.9157,0.0000,0.0000,13.4816,327.4629,7.5336,214.5313,93.7825,11.6155,-1.8660
10.0000,brake,91.9015,0.0000,0.0000,13.9161,3.8360,0.0000,0.0000,0.0000,0.8000,0.0000,2,1000.0000,4566.2172,4566.2172,2302.7438,2302.7438,0.0635,0.0635,-0.0262,-0.0262,0.0000,0.0000,0.0000,0.0000,3620.9034,3620.9034,-1133.5591,-1133.5591,0.0000,0.0000,0.0000,0.0000,0.0000,28.4572,28.4572,-22.1017,-22.1017,46.0059,46.0059,-79.2421,-79.2421,0.0000,1.1142,13737.9219,0.0000,0.7930,0.7930,0.4923,0.4923,0.0000,0.0000,10.6370,327.4628,7.5368,216.7393,94.3517,8.8350,-1.8020
10.1000,brake,92.2573,0.0000,0.0000,12.0811,3.3256,0.0000,0.0000,0.0000,0.8000,0.0000,2,1000.0000,4807.5105,4807.5105,2062.5255,2062.5255,0.2245,0.2245,-0.0830,-0.0830,0.0000,0.0000,0.0000,0.0000,4560.7831,4560.7831,-2017.7000,-2017.7000,0.0000,0.0000,0.0000,0.0000,0.0000,28.9954,28.9954,-22.2234,-22.2234,137.3556,137.3556,-146.7766,-146.7766,0.0000,1.1287,13740.0722,0.0000,0.9487,0.9487,0.9783,0.9783,0.0000,0.0000,8.0405,327.4628,7.5389,218.6681,95.0306,6.2251,-1.8154
10.2000,brake,92.5652,0.0000,0.0000,10.2761,2.9337,0.0000,0.0000,0.0000,0.8000,0.0000,2,1000.0000,3266.5756,3266.5756,3609.1132,3609.1132,-0.8990,-0.8990,-0.1189,-0.1189,0.0000,0.0000,0.0000,0.0000,-3077.1841,-3077.1841,-3574.7443,-3574.7443,0.0000,0.0000,0.0000,0.0000,0.0000,25.3323,25.3323,-17.9824,-17.9824,-315.8876,-315.8876,370.9541,370.9541,0.0000,0.9545,13751.3776,0.0000,0.9420,0.9420,0.9905,0.9905,0.0000,0.0000,5.9533,327.4628,7.5403,220.2164,95.6911,4.0149,-1.9383
10.3000,brake,92.8316,0.0000,0.0000,8.9046,2.5529,0.0000,0.0000,0.0000,0.8000,0.0000,2,1000.0000,3488.1777,3488.1777,3383.7227,3383.7227,-0.8555,-0.8555,-0.2384,-0.2384,0.0000,0.0000,0.0000,0.0000,-3277.0123,-3277.0123,-3388.6678,-3388.6678,0.0000,0.0000,0.0000,0.0000,0.0000,22.4325,22.4325,-15.5936,-15.5936,-231.7722,-231.7722,257.0943,257.0943,0.0000,0.8380,13743.8007,0.0000,0.9395,0.9395,1.0015,1.0015,0.0000,0.0000,4.4618,327.4628,7.5412,221.6793,95.6693,2.5729,-1.8889
10.4000,brake,93.0599,0.0000,0.0000,7.5377,2.1730,0.0000,0.0000,0.0000,0.8000,0.0000,2,1000.0000,3494.9653,3494.9653,3376.0572,3376.0572,-0.7956,-0.7956,-0.3618,-0.3618,0.0000,0.0000,0.0000,0.0000,-3300.1562,-3300.1562,-3353.7185,-3353.7185,0.0000,0.0000,0.0000,0.0000,0.0000,21.1070,21.1070,-14.5191,-14.5191,-220.2895,-220.2895,243.4414,243.4414,0.0000,0.7851,13742.0450,0.0000,0.9443,0.9443,0.9934,0.9934,0.0000,0.0000,3.1988,327.4628,7.5418,222.9044,95.6786,1.3380,-1.8608
10.5000,brake,93.2523,0.0000,0.0000,6.2813,1.8250,0.0000,0.0000,0.0000,0.8000,0.0000,2,1000.0000,3065.9465,3065.9465,3807.7123,3807.7123,-0.6591,-0.6591,-0.1811,-0.1811,0.0000,0.0000,0.0000,0.0000,-2970.2821,-2970.2821,-3768.5251,-3768.5251,0.0000,0.0000,0.0000,0.0000,0.0000,20.4741,20.4741,-12.1521,-12.1521,-338.2876,-338.2876,392.5564,392.5564,0.0000,0.7190,13747.3175,0.0000,0.9688,0.9688,0.9897,0.9897,0.0000,0.0000,2.2777,327.4628,7.5421,223.8841,95.6659,0.3706,-1.9070
10.6000,brake,93.4164,0.0000,0.0000,5.7005,1.5106,0.0000,0.0000,0.0000,0.8000,0.0000,2,1000.0000,4908.6754,4908.6754,1959.1082,1959.1082,0.1099,0.1099,0.0562,0.0562,0.0000,0.0000,0.0000,0.0000,4524.0189,4524.0189,1595.4473,1595.4473,0.0000,0.0000,0.0000,0.0000,0.0000,20.7248,20.7248,-10.3569,-10.3569,261.0436,261.0436,-260.5318,-260.5318,0.0000,0.6849,13735.5671,0.0000,0.9216,0.9216,0.8144,0.8144,0.0000,0.0000,1.7552,327.4628,7.5423,224.5776,95.3873,-0.0445,-1.7997
10.7000,brake,93.5660,0.0000,0.0000,5.4062,1.4240,0.0000,0.0000,0.0000,0.8000,0.0000,2,1000.0000,4922.2397,4922.2397,1945.5006,1945.5006,0.1046,0.1046,0.1667,0.1667,0.0000,0.0000,0.0000,0.0000,4500.3554,4500.3554,2028.9371,2028.9371,0.0000,0.0000,0.0000,0.0000,0.0000,16.0344,16.0344,-3.6682,-3.6682,313.3882,313.3882,-312.1802,-312.1802,0.0000,0.4342,13735.4806,0.0000,0.9143,0.9143,1.0429,1.0429,0.0000,0.0000,1.5786,327.4628,7.5425,225.2783,94.9088,-0.2669,-1.8455
10.8000,brake,93.7092,0.0000,0.0000,5.2229,1.3753,0.0000,0.0000,0.0000,0.8000,0.0000,2,1000.0000,4928.5777,4928.5777,1939.0933,1939.0933,0.0863,0.0863,0.2300,0.2300,0.0000,0.0000,0.0000,0.0000,4323.4380,4323.4380,2015.7841,2015.7841,0.0000,0.0000,0.0000,0.0000,0.0000,13.2061,13.2061,0.4012,0.4012,344.2149,344.2149,-343.0698,-343.0698,0.0000,0.2822,13735.3420,0.0000,0.8772,0.8772,1.0395,1.0395,0.0000,0.0000,1.4734,327.4628,7.5426,225.9823,94.3587,-0.4209,-1.8942
10.9000,brake,93.8484,0.0000,0.0000,5.0954,1.3396,0.0000,0.0000,0.0000,0.8000,0.0000,2,1000.0000,4932.9291,4932.9291,1934.6924,1934.6924,0.0888,0.0888,0.2587,0.2587,0.0000,0.0000,0.0000,0.0000,4359.4941,4359.4941,2003.4238,2003.4238,0.0000,0.0000,0.0000,0.0000,0.0000,11.7235,11.7235,2.5557,2.5557,360.7868,360.7868,-359.7100,-359.7100,0.0000,0.2020,13735.2430,0.0000,0.8838,0.8838,1.0355,1.0355,0.0000,0.0000,1.4023,327.4628,7.5428,226.6867,93.7758,-0.5425,-1.9448
11.0000,brake,93.9844,0.0000,0.0000,4.9925,1.3102,0.0000,0.0000,0.0000,0.8000,0.0000,2,1000.0000,4935.1426,4935.1426,1932.4313,1932.4313,0.0960,0.0960,0.2784,0.2784,0.0000,0.0000,0.0000,0.0000,4439.4377,4439.4377,1995.3082,1995.3082,0.0000,0.0000,0.0000,0.0000,0.0000,10.9639,10.9639,3.6750,3.6750,369.2732,369.2732,-368.3460,-368.3460,0.0000,0.1606,13735.1478,0.0000,0.8996,0.8996,1.0325,1.0325,0.0000,0.0000,1.3463,327.4628,7.5429,227.3938,93.1761,-0.6500,-1.9962
11.1000,brake,94.1179,0.0000,0.0000,4.9056,1.2854,0.0000,0.0000,0.0000,0.8000,0.0000,2,1000.0000,4936.2684,4936.2684,1931.2652,1931.2652,0.1029,0.1029,0.2935,0.2935,0.0000,0.0000,0.0000,0.0000,4499.0524,4499.0524,1989.5446,1989.5446,0.0000,0.0000,0.0000,0.0000,0.0000,10.5475,10.5475,4.2954,4.2954,373.8913,373.8913,-373.1065,-373.1065,0.0000,0.1378,13735.0673,0.0000,0.9114,0.9114,1.0302,1.0302,0.0000,0.0000,1.2998,327.4628,7.5430,228.1032,92.5650,-0.7485,-2.0483
11.2000,brake,94.2490,0.0000,0.0000,4.8294,1.2638,0.0000,0.0000,0.0000,0.8000,0.0000,2,1000.0000,4937.1432,4937.1432,1930.3587,1930.3587,0.1092,0.1092,0.3060,0.3060,0.0000,0.0000,0.0000,0.0000,4543.2103,4543.2103,1984.8386,1984.8386,0.0000,0.0000,0.0000,0.0000,0.0000,10.3073,10.3073,4.6594,4.6594,376.6464,376.6464,-375.9625,-375.9625,0.0000,0.1245,13735.0037,0.0000,0.9202,0.9202,1.0282,1.0282,0.0000,0.0000,1.2597,327.4628,7.5431,228.8148,91.9459,-0.8410,-2.1007
11.3000,brake,94.3782,0.0000,0.0000,4.7647,1.2454,0.0000,0.0000,0.0000,0.8000,0.0000,2,1000.0000,4929.9952,4929.9952,1937.3972,1937.3972,0.1134,0.1134,0.1341,0.1341,0.0000,0.0000,0.0000,0.0000,4561.1160,4561.1160,2003.7624,2003.7624,0.0000,0.0000,0.0000,0.0000,0.0000,10.1286,10.1286,4.9177,4.9177,375.5764,375.5764,-375.7936,-375.7936,0.0000,0.1148,13734.7847,0.0000,0.9252,0.9252,1.0343,1.0343,0.0000,0.0000,1.2262,327.4628,7.5432,229.4858,91.3611,-0.9274,-2.1535
11.4000,brake,94.5056,0.0000,0.0000,4.7059,1.2286,0.0000,0.0000,0.0000,0.8000,0.0000,2,1000.0000,4931.8461,4931.8461,1935.5412,1935.5412,0.1188,0.1188,0.1474,0.1474,0.0000,0.0000,0.0000,0.0000,4588.6640,4588.6640,2012.6788,2012.6788,0.0000,0.0000,0.0000,0.0000,0.0000,10.0235,10.0235,5.0803,5.0803,377.3709,377.3709,-377.4825,-377.4825,0.0000,0.1089,13734.7745,0.0000,0.9304,0.9304,1.0399,1.0399,0.0000,0.0000,1.1961,327.4628,7.5433,230.1593,90.7707,-1.0105,-2.2066
11.5000,brake,94.6315,0.0000,0.0000,4.6511,1.2131,0.0000,0.0000,0.0000,0.8000,0.0000,2,1000.0000,4933.5086,4933.5086,1933.8712,1933.8712,0.1240,0.1240,0.1592,0.1592,0.0000,0.0000,0.0000,0.0000,4610.4583,4610.4583,2016.2674,2016.2674,0.0000,0.0000,0.0000,0.0000,0.0000,9.9583,9.9583,5.1890,5.1890,378.6902,378.6902,-378.7341,-378.7341,0.0000,0.1051,13734.7596,0.0000,0.9345,0.9345,1.0426,1.0426,0.0000,0.0000,1.1684,327.4628,7.5434,230.8352,90.1757,-1.0915,-2.2599
11.6000,brake,94.7559,0.0000,0.0000,4.5992,1.1984,0.0000,0.0000,0.0000,0.8000,0.0000,2,1000.0000,4935.0423,4935.0423,1932.3294,1932.3294,0.1289,0.1289,0.1700,0.1700,0.0000,0.0000,0.0000,0.0000,4628.0426,4628.0426,2017.0764,2017.0764,0.0000,0.0000,0.0000,0.0000,0.0000,9.9177,9.9177,5.2635,5.2635,379.7116,379.7116,-379.7041,-379.7041,0.0000,0.1026,13734.7434,0.0000,0.9378,0.9378,1.0439,1.0439,0.0000,0.0000,1.1425,327.4628,7.5435,231.5131,89.5771,-1.1710,-2.3134
11.7000,brake,94.8789,0.0000,0.0000,4.5491,1.1844,0.0000,0.0000,0.0000,0.8000,0.0000,2,1000.0000,4936.4883,4936.4883,1930.8754,1930.8754,0.1338,0.1338,0.1800,0.1800,0.0000,0.0000,0.0000,0.0000,4642.4327,4642.4327,2016.3155,2016.3155,0.0000,0.0000,0.0000,0.0000,0.0000,9.8930,9.8930,5.3152,5.3152,380.5385,380.5385,-380.4865,-380.4865,0.0000,0.1009,13734.7272,0.0000,0.9404,0.9404,1.0442,1.0442,0.0000,0.0000,1.1178,327.4628,7.5436,232.1930,88.9756,-1.2493,-2.3671
11.8000,brake,95.0005,0.0000,0.0000,4.5003,1.1707,0.0000,0.0000,0.0000,0.8000,0.0000,2,1000.0000,4937.8748,4937.8748,1929.4809,1929.4809,0.1386,0.1386,0.1895,0.1895,0.0000,0.0000,0.0000,0.0000,4654.3200,4654.3200,2014.6014,2014.6014,0.0000,0.0000,0.0000,0.0000,0.0000,9.8794,9.8794,5.3509,5.3509,381.2318,381.2318,-381.1382,-381.1382,0.0000,0.0998,13734.7116,0.0000,0.9426,0.9426,1.0441,1.0441,0.0000,0.0000,1.0939,327.4628,7.5437,232.8746,88.3715,-1.3270,-2.4208
11.9000,brake,95.1208,0.0000,0.0000,4.4522,1.1572,0.0000,0.0000,0.0000,0.8000,0.0000,2,1000.0000,4939.2226,4939.2226,1928.1256,1928.1256,0.1434,0.1434,0.1986,0.1986,0.0000,0.0000,0.0000,0.0000,4664.1874,4664.1874,2012.2709,2012.2709,0.0000,0.0000,0.0000,0.0000,0.0000,9.8737,9.8737,5.3749,5.3749,381.8291,381.8291,-381.6951,-381.6951,0.0000,0.0991,13734.6964,0.0000,0.9443,0.9443,1.0436,1.0436,0.0000,0.0000,1.0706,327.4628,7.5437,233.5578,87.7653,-1.4041,-2.4747
12.0000,brake,95.2397,0.0000,0.0000,4.4042,1.1438,0.0000,0.0000,0.0000,0.8000,0.0000,2,1000.0000,4940.5472,4940.5472,1926.7936,1926.7936,0.1482,0.1482,0.2074,0.2074,0.0000,0.0000,0.0000,0.0000,4672.3800,4672.3800,2009.5168,2009.5168,0.0000,0.0000,0.0000,0.0000,0.0000,9.8743,9.8743,5.3899,5.3899,382.3546,382.3546,-382.1805,-382.1805,0.0000,0.0988,13734.6816,0.0000,0.9457,0.9457,1.0429,1.0429,0.0000,0.0000,1.0477,327.4628,7.5438,234.2427,87.1573,-1.4810,-2.5287
12.1000,brake,95.3573,0.0000,0.0000,4.3561,1.1304,0.0000,0.0000,0.0000,0.8000,0.0000,2,1000.0000,4941.7081,4941.7081,1925.6239,1925.6239,0.1531,0.1531,0.2159,0.2159,0.0000,0.0000,0.0000,0.0000,4679.0157,4679.0157,2006.6460,2006.6460,0.0000,0.0000,0.0000,0.0000,0.0000,9.8796,9.8796,5.3978,5.3978,382.7679,382.7679,-382.5692,-382.5692,0.0000,0.0988,13734.6639,0.0000,0.9468,0.9468,1.0421,1.0421,0.0000,0.0000,1.0249,327.4628,7.5439,234.9291,86.5476,-1.5579,-2.5827
12.2000,brake,95.4735,0.0000,0.0000,4.3077,1.1170,0.0000,0.0000,0.0000,0.8000,0.0000,2,1000.0000,4942.1397,4942.1397,1925.1766,1925.1766,0.1581,0.1581,0.2232,0.2232,0.0000,0.0000,0.0000,0.0000,4683.7669,4683.7669,2004.4985,2004.4985,0.0000,0.0000,0.0000,0.0000,0.0000,9.8856,9.8856,5.4022,5.4022,382.8825,382.8825,-382.7264,-382.7264,0.0000,0.0988,13734.6328,0.0000,0.9477,0.9477,1.0412,1.0412,0.0000,0.0000,1.0023,327.4628,7.5440,235.6169,85.9364,-1.6346,-2.6369
12.3000,brake,95.5884,0.0000,0.0000,4.2590,1.1034,0.0000,0.0000,0.0000,0.8000,0.0000,2,1000.0000,4942.5749,4942.5749,1924.7272,1924.7272,0.1631,0.1631,0.2305,0.2305,0.0000,0.0000,0.0000,0.0000,4687.4048,4687.4048,2002.2258,2002.2258,0.0000,0.0000,0.0000,0.0000,0.0000,9.8932,9.8932,5.4028,5.4028,382.9822,382.9822,-382.8577,-382.8577,0.0000,0.0990,13734.6040,0.0000,0.9484,0.9484,1.0403,1.0403,0.0000,0.0000,0.9797,327.4628,7.5440,236.3061,85.3239,-1.7113,-2.6910
12.4000,brake,95.7019,0.0000,0.0000,4.2095,1.0897,0.0000,0.0000,0.0000,0.8000,0.0000,2,1000.0000,4943.0146,4943.0146,1924.2735,1924.2735,0.1683,0.1683,0.2377,0.2377,0.0000,0.0000,0.0000,0.0000,4690.0528,4690.0528,1999.8470,1999.8470,0.0000,0.0000,0.0000,0.0000,0.0000,9.9033,9.9033,5.3994,5.3994,383.0588,383.0588,-382.9612,-382.9612,0.0000,0.0993,13734.5763,0.0000,0.9488,0.9488,1.0393,1.0393,0.0000,0.0000,0.9571,327.4628,7.5441,236.9967,84.7101,-1.7881,-2.7452
12.5000,brake,95.8140,0.0000,0.0000,4.1592,1.0757,0.0000,0.0000,0.0000,0.8000,0.0000,2,1000.0000,4943.4387,4943.4387,1923.8358,1923.8358,0.1735,0.1735,0.2443,0.2443,0.0000,0.0000,0.0000,0.0000,4691.7803,4691.7803,1997.5772,1997.5772,0.0000,0.0000,0.0000,0.0000,0.0000,9.9153,9.9153,5.3928,5.3928,383.1109,383.1109,-383.0366,-383.0366,0.0000,0.0997,13734.5492,0.0000,0.9491,0.9491,1.0383,1.0383,0.0000,0.0000,0.9343,327.4628,7.5442,237.6884,84.0953,-1.8651,-2.7994
