time,phase,pos_x,pos_y,yaw_deg,speed_kph,vx_body,vy_body,yaw_rate_dps,throttle,brake,steer_deg,gear,rpm,fz_fl,fz_fr,fz_rl,fz_rr,sr_fl,sr_fr,sr_rl,sr_rr,sa_fl_deg,sa_fr_deg,sa_rl_deg,sa_rr_deg,fx_fl,fx_fr,fx_rl,fx_rr,fy_fl,fy_fr,fy_rl,fy_rr,lat_accel_g,susp_defl_fl_mm,susp_defl_fr_mm,susp_defl_rl_mm,susp_defl_rr_mm,susp_vel_fl,susp_vel_fr,susp_vel_rl,susp_vel_rr,roll_deg,pitch_deg,fz_total,understeer_deg,fc_util_fl,fc_util_fr,fc_util_rl,fc_util_rr,radius_m,yaw_rate_ref_dps,ke_total_kj,energy_engine_kj,energy_drag_kj,energy_brake_kj,energy_tire_loss_kj,energy_body_kj,integrator_err_kj
0.0000,accel,0.0000,0.0000,0.0000,0.0000,0.0000,0.0000,0.0000,0.0000,0.0000,0.0000,1,1000.0000,3776.8500,3776.8500,3090.1500,3090.1500,0.0000,0.0000,0.0000,0.0000,0.0000,0.0000,0.0000,0.0000,0.0000,0.0000,0.0000,0.0000,0.0000,0.0000,0.0000,0.0000,0.0000,0.0000,0.0000,0.0000,0.0000,0.0000,0.0000,0.0000,0.0000,0.0000,0.0000,13734.0000,0.0000,0.0000,0.0000,0.0000,0.0000,0.0000,0.0000,0.0000,0.0000,0.0000,0.0000,0.0000,0.0000,0.0000
0.1000,accel,0.0000,0.0000,0.0000,0.0189,0.0039,0.0000,0.0000,0.0667,0.0000,0.0000,1,1000.0000,3719.9820,3719.9820,3147.1162,3147.1162,0.0008,0.0008,0.0027,0.0027,0.0000,0.0000,0.0000,0.0000,-1.0390,-1.0390,112.8766,112.8766,0.0000,0.0000,0.0000,0.0000,0.0000,-0.1182,-0.1182,0.1926,0.1926,-4.1920,-4.1920,5.1647,5.1647,0.0000,-0.0068,13734.1964,0.0000,0.0003,0.0003,0.0359,0.0359,0.0000,0.0000,0.0002,0.0011,0.0000,0.0000,0.0011,0.0000,-0.0002
0.2000,accel,0.0018,0.0000,0.0000,0.1124,0.0284,0.0000,0.0000,0.1333,0.0000,0.0000,1,1000.0000,3697.7664,3697.7664,3169.3250,3169.3250,0.0008,0.0008,0.0048,0.0048,0.0000,0.0000,0.0000,0.0000,-2.8283,-2.8283,243.5822,243.5822,0.0000,0.0000,0.0000,0.0000,0.0000,-0.6791,-0.6791,0.8528,0.8528,-6.5330,-6.5330,7.4459,7.4459,0.0000,-0.0338,13734.1827,0.0000,0.0008,0.0008,0.0769,0.0769,0.0000,0.0000,0.0011,0.0064,0.0000,0.0000,0.0058,0.0006,-0.0004
0.3000,accel,0.0072,0.0000,0.0000,0.2748,0.0707,0.0000,0.0000,0.2000,0.0000,0.0000,1,1000.0000,3684.7050,3684.7050,3182.2586,3182.2586,0.0007,0.0007,0.0087,0.0087,0.0000,0.0000,0.0000,0.0000,-4.3055,-4.3055,478.3488,478.3488,0.0000,0.0000,0.0000,0.0000,0.0000,-1.3850,-1.3850,1.6275,1.6275,-5.2234,-5.2234,4.8724,4.8724,0.0000,-0.0664,13733.9272,0.0000,0.0012,0.0012,0.1503,0.1503,0.0000,0.0000,0.0046,0.0183,0.0000,0.0000,0.0143,0.0039,-0.0007
0.4000,accel,0.0179,0.0000,0.0000,0.5306,0.1312,0.0000,0.0000,0.2667,0.0000,0.0000,1,1000.0000,3278.2761,3278.2761,3591.1218,3591.1218,-0.0025,-0.0025,0.0258,0.0258,0.0000,0.0000,0.0000,0.0000,-204.1619,-204.1619,1565.0154,1565.0154,0.0000,0.0000,0.0000,0.0000,0.0000,-1.0208,-1.0208,3.6962,3.6962,-123.9474,-123.9474,147.7288,147.7288,0.0000,-0.1039,13738.7959,0.0000,0.0623,0.0623,0.4358,0.4358,0.0000,0.0000,0.0165,0.0454,0.0000,0.0000,0.0361,0.0092,-0.0072
0.5000,accel,0.0353,0.0000,0.0000,0.6907,0.2317,0.0000,0.0000,0.3333,0.0000,0.0000,1,1000.0000,3259.7101,3259.7101,3607.8348,3607.8348,0.0055,0.0055,-0.2021,-0.2021,0.0000,0.0000,0.0000,0.0000,291.3032,291.3032,-3640.5908,-3640.5908,0.0000,0.0000,0.0000,0.0000,0.0000,-1.8860,-1.8860,6.2691,6.2691,-123.0736,-123.0736,128.6819,128.6819,0.0000,-0.1797,13735.0899,0.0000,0.0894,0.0894,1.0091,1.0091,0.0000,0.0000,0.0695,0.1146,0.0000,0.0000,0.1042,0.0104,-0.0591
0.6000,accel,0.0628,0.0000,0.0000,1.2335,0.3002,0.0000,0.0000,0.4000,0.0000,0.0000,1,1000.0000,3814.8542,3814.8542,3049.9724,3049.9724,0.0868,0.0868,0.0029,0.0029,0.0000,0.0000,0.0000,0.0000,3440.0916,3440.0916,126.8243,126.8243,0.0000,0.0000,0.0000,0.0000,0.0000,-1.3533,-1.3533,6.0123,6.0123,44.4253,44.4253,-65.6416,-65.6416,0.0000,-0.1623,13729.6533,0.0000,0.9018,0.9018,0.0416,0.0416,0.0000,0.0000,0.1131,0.1925,0.0000,0.0000,0.1358,0.0567,-0.0563
0.7000,accel,0.1008,0.0000,0.0000,1.6591,0.3820,0.0000,0.0000,0.4667,0.0000,0.0000,1,1000.0000,4628.8789,4628.8789,2243.6168,2243.6168,0.2289,0.2289,0.4910,0.4910,0.0000,0.0000,0.0000,0.0000,4405.7905,4405.7905,2214.7606,2214.7606,0.0000,0.0000,0.0000,0.0000,0.0000,0.2391,0.2391,6.5568,6.5568,354.1078,354.1078,-299.9216,-299.9216,0.0000,-0.1392,13744.9914,0.0000,0.9518,0.9518,0.9871,0.9871,0.0000,0.0000,0.1905,0.3026,0.0000,0.0000,0.2034,0.0992,-0.0912
0.8000,accel,0.1512,0.0000,0.0000,2.0077,0.5077,0.0000,0.0000,0.5333,0.0000,0.0000,1,1032.4337,4882.9960,4882.9960,1992.1089,1992.1089,0.0287,0.0287,0.7408,0.7408,0.0000,0.0000,0.0000,0.0000,2260.7842,2260.7842,1938.2991,1938.2991,0.0000,0.0000,0.0000,0.0000,0.0000,0.0218,0.0218,7.4849,7.4849,457.9208,457.9208,-378.4173,-378.4173,0.0000,-0.1645,13750.2099,0.0000,0.4630,0.4630,0.9730,0.9730,0.0000,0.0000,0.3020,0.4878,0.0000,0.0000,0.3403,0.1475,-0.1545
0.9000,accel,0.2149,0.0000,0.0000,2.4543,0.6893,0.0000,0.0000,0.6000,0.0000,0.0000,1,1000.0000,3662.1947,3662.1947,3199.2834,3199.2834,-0.1264,-0.1264,0.6052,0.6052,0.0000,0.0000,0.0000,0.0000,-3643.9501,-3643.9501,3007.3004,3007.3004,0.0000,0.0000,0.0000,0.0000,0.0000,-2.4066,-2.4066,9.9115,9.9115,-4.3773,-4.3773,-50.8568,-50.8568,0.0000,-0.2715,13722.9563,0.0000,0.9950,0.9950,0.9400,0.9400,0.0000,0.0000,0.4126,0.8270,0.0000,0.0000,0.5948,0.2322,-0.1803
1.0000,accel,0.2946,0.0000,0.0000,3.0683,0.8929,0.0000,0.0000,0.6667,0.0000,0.0000,1,1000.0000,3499.5456,3499.5456,3362.0324,3362.0324,0.0009,0.0009,-0.1604,-0.1604,0.0000,0.0000,0.0000,0.0000,4.5038,4.5038,-3415.3979,-3415.3979,0.0000,0.0000,0.0000,0.0000,0.0000,-4.8857,-4.8857,12.4150,12.4150,-33.1541,-33.1541,-22.2598,-22.2598,0.0000,-0.3813,13723.1560,0.0000,0.0013,0.0013,1.0159,1.0159,0.0000,0.0000,0.6416,1.2670,0.0000,0.0000,0.8762,0.3907,-0.2509
1.1000,accel,0.3927,0.0000,0.0000,3.8232,1.0864,0.0000,0.0000,0.7333,0.0000,0.0000,1,1000.0000,3484.7002,3484.7002,3377.5840,3377.5840,0.0227,0.0227,-0.2469,-0.2469,0.0000,0.0000,0.0000,0.0000,1360.5244,1360.5244,-3412.3943,-3412.3943,0.0000,0.0000,0.0000,0.0000,0.0000,-6.3405,-6.3405,13.1249,13.1249,-27.0202,-27.0202,-22.9109,-22.9109,0.0000,-0.4290,13724.5684,0.0000,0.3904,0.3904,1.0103,1.0103,0.0000,0.0000,0.9165,1.8191,0.0001,0.0000,1.1644,0.6546,-0.2619
1.2000,accel,0.5107,0.0000,0.0000,4.5109,1.2893,0.0000,0.0000,0.8000,0.0000,0.0000,1,1000.0000,2594.8268,2594.8268,4276.5038,4276.5038,-0.2095,-0.2095,-0.0035,-0.0035,0.0000,0.0000,0.0000,0.0000,-2703.0249,-2703.0249,-340.2362,-340.2362,0.0000,0.0000,0.0000,0.0000,0.0000,-6.6951,-6.6951,14.2607,14.2607,-278.7573,-278.7573,316.0915,316.0915,0.0000,-0.4618,13742.6613,0.0000,1.0417,1.0417,0.0796,0.0796,0.0000,0.0000,1.2459,2.3888,0.0002,0.0000,1.4459,0.9427,-0.3031
1.3000,accel,0.6511,0.0000,0.0000,5.3253,1.4874,0.0000,0.0000,0.8667,0.0000,0.0000,1,1299.0558,3740.6227,3740.6227,3124.2835,3124.2835,-0.4472,-0.4472,0.5647,0.5647,0.0000,0.0000,0.0000,0.0000,-3637.1160,-3637.1160,2956.8393,2956.8393,0.0000,0.0000,0.0000,0.0000,0.0000,-6.9010,-6.9010,13.4947,13.4947,70.0850,70.0850,-97.9889,-97.9889,0.0000,-0.4495,13729.8124,0.0000,0.9723,0.9723,0.9464,0.9464,0.0000,0.0000,1.7310,3.1533,0.0003,0.0000,1.7931,1.3598,-0.3711
1.4000,accel,0.8155,0.0000,0.0000,6.4559,1.7154,0.0000,0.0000,0.9333,0.0000,0.0000,1,1334.7540,3807.4555,3807.4555,3058.0755,3058.0755,0.3556,0.3556,0.5200,0.5200,0.0000,0.0000,0.0000,0.0000,3626.7828,3626.7828,2915.2345,2915.2345,0.0000,0.0000,0.0000,0.0000,0.0000,-6.8863,-6.8863,14.0574,14.0574,96.6278,96.6278,-120.9710,-120.9710,0.0000,-0.4615,13731.0618,0.0000,0.9525,0.9525,0.9533,0.9533,0.0000,0.0000,2.4060,4.4972,0.0005,0.0000,2.4448,2.0519,-0.3541
1.5000,accel,1.0091,0.0000,0.0000,7.4706,1.9984,0.0000,0.0000,1.0000,0.0000,0.0000,1,1581.7078,4943.3175,4943.3175,1935.6239,1935.6239,0.4605,0.4605,0.5398,0.5398,0.0000,0.0000,0.0000,0.0000,4520.4915,4520.4915,1928.5350,1928.5350,0.0000,0.0000,0.0000,0.0000,0.0000,-7.1700,-7.1700,15.2104,15.2104,553.7482,553.7482,-449.9735,-449.9735,0.0000,-0.4932,13757.8829,0.0000,0.9145,0.9145,0.9963,0.9963,0.0000,0.0000,3.3514,6.2128,0.0009,0.0000,3.4277,2.7842,-0.5671
1.6000,accel,1.2350,0.0000,0.0000,8.8325,2.4351,0.0000,0.0000,1.0000,0.0000,0.0000,1,1043.8402,2574.1851,2574.1851,4297.2731,4297.2731,-0.4848,-0.4848,0.1562,0.1562,0.0000,0.0000,0.0000,0.0000,-2584.9758,-2584.9758,4129.5001,4129.5001,0.0000,0.0000,0.0000,0.0000,0.0000,-13.4498,-13.4498,20.6906,20.6906,-236.5861,-236.5861,259.7246,259.7246,0.0000,-0.7523,13742.9164,0.0000,1.0042,1.0042,0.9610,0.9610,0.0000,0.0000,4.3441,8.0906,0.0014,0.0000,4.1260,3.9632,-0.3809
1.7000,accel,1.4943,0.0000,0.0000,9.9947,2.6977,0.0000,0.0000,1.0000,0.0000,0.0000,1,1629.6466,3666.8775,3666.8775,3200.2050,3200.2050,0.3209,0.3209,0.4053,0.4053,0.0000,0.0000,0.0000,0.0000,3524.5403,3524.5403,3080.8812,3080.8812,0.0000,0.0000,0.0000,0.0000,0.0000,-11.3981,-11.3981,18.1755,18.1755,85.2603,85.2603,-110.0507,-110.0507,0.0000,-0.6517,13734.1651,0.0000,0.9612,0.9612,0.9627,0.9627,0.0000,0.0000,5.6996,10.4120,0.0022,0.0000,5.2871,5.1227,-0.5770
1.8000,accel,1.7893,0.0000,0.0000,11.3547,3.1380,0.0000,0.0000,1.0000,0.0000,0.0000,1,1935.4012,2616.4023,2616.4023,4255.5451,4255.5451,-0.4995,-0.4995,0.4220,0.4220,0.0000,0.0000,0.0000,0.0000,-2618.6595,-2618.6595,3971.0162,3971.0162,0.0000,0.0000,0.0000,0.0000,0.0000,-15.3493,-15.3493,22.4689,22.4689,-211.1204,-211.1204,224.9042,224.9042,0.0000,-0.8334,13743.8949,0.0000,1.0009,1.0009,0.9331,0.9331,0.0000,0.0000,7.4061,13.6570,0.0034,0.0000,6.9881,6.6655,-0.7405
1.9000,accel,2.1250,0.0000,0.0000,12.8508,3.5179,0.0000,0.0000,1.0000,0.0000,0.0000,1,1381.8912,3509.7600,3509.7600,3359.5185,3359.5185,0.0200,0.0200,0.0942,0.0942,0.0000,0.0000,0.0000,0.0000,1217.5706,1217.5706,3129.3849,3129.3849,0.0000,0.0000,0.0000,0.0000,0.0000,-16.1303,-16.1303,21.8589,21.8589,69.4349,69.4349,-91.1637,-91.1637,0.0000,-0.8372,13738.5570,0.0000,0.3469,0.3469,0.9315,0.9315,0.0000,0.0000,9.1931,16.3185,0.0052,0.0000,7.7091,8.6042,-0.5889
2.0000,accel,2.4990,0.0000,0.0000,14.1935,3.8821,0.0000,0.0000,1.0000,0.0000,0.0000,1,1945.6226,3863.0634,3863.0634,3010.9615,3010.9615,0.0344,0.0344,0.2907,0.2907,0.0000,0.0000,0.0000,0.0000,2122.2225,2122.2225,2966.4300,2966.4300,0.0000,0.0000,0.0000,0.0000,0.0000,-15.1561,-15.1561,21.1194,21.1194,200.8564,200.8564,-185.6387,-185.6387,0.0000,-0.7994,13748.0498,0.0000,0.5494,0.5494,0.9852,0.9852,0.0000,0.0000,11.3925,19.6146,0.0077,0.0000,9.0637,10.5432,-0.8493
2.1000,accel,2.9119,0.0000,0.0000,15.6734,4.2798,0.0000,0.0000,1.0000,0.0000,0.0000,1,2554.4657,3520.6376,3520.6376,3350.3630,3350.3630,0.0712,0.0712,0.4058,0.4058,0.0000,0.0000,0.0000,0.0000,3004.9826,3004.9826,3210.2209,3210.2209,0.0000,0.0000,0.0000,0.0000,0.0000,-15.6558,-15.6558,21.9627,21.9627,68.6921,68.6921,-94.8951,-94.8951,0.0000,-0.8290,13742.0012,0.0000,0.8535,0.8535,0.9582,0.9582,0.0000,0.0000,14.1142,23.8463,0.0110,0.0000,10.9282,12.9070,-1.2071
2.2000,accel,3.3713,0.0000,0.0000,17.2373,4.7740,0.0000,0.0000,1.0000,0.0000,0.0000,1,1631.6546,3580.3828,3580.3828,3294.1464,3294.1464,0.0779,0.0779,-0.0347,-0.0347,0.0000,0.0000,0.0000,0.0000,3148.1772,3148.1772,-1954.2833,-1954.2833,0.0000,0.0000,0.0000,0.0000,0.0000,-18.4075,-18.4075,24.2493,24.2493,119.8440,119.8440,-127.5719,-127.5719,0.0000,-0.9400,13749.0583,0.0000,0.8793,0.8793,0.5933,0.5933,0.0000,0.0000,16.9399,27.7859,0.0156,0.0000,12.1015,15.6688,-1.2710
2.3000,accel,3.8740,0.0000,0.0000,18.8127,5.2151,0.0000,0.0000,1.0000,0.0000,0.0000,1,2528.3838,3066.2072,3066.2072,3807.5553,3807.5553,-0.0730,-0.0730,0.2688,0.2688,0.0000,0.0000,0.0000,0.0000,-2770.5036,-2770.5036,3675.3262,3675.3262,0.0000,0.0000,0.0000,0.0000,0.0000,-19.0557,-19.0557,24.3246,24.3246,-56.8597,-56.8597,25.6215,25.6215,0.0000,-0.9560,13747.5251,0.0000,0.9036,0.9036,0.9653,0.9653,0.0000,0.0000,20.3647,32.9169,0.0216,0.0000,14.1771,18.7182,-1.6465
2.4000,accel,4.4251,0.0000,0.0000,20.5050,5.6865,0.0000,0.0000,1.0000,0.0000,0.0000,1,2272.4848,2897.9116,2897.9116,3979.7250,3979.7250,-0.2444,-0.2444,0.1131,0.1131,0.0000,0.0000,0.0000,0.0000,-2973.3511,-2973.3511,3761.4429,3761.4429,0.0000,0.0000,0.0000,0.0000,0.0000,-19.5311,-19.5311,24.7249,24.7249,-101.7641,-101.7641,90.0324,90.0324,0.0000,-0.9753,13755.2733,0.0000,1.0260,1.0260,0.9452,0.9452,0.0000,0.0000,23.7243,36.7739,0.0295,0.0000,14.4522,22.2921,-1.4321
2.5000,accel,5.0191,0.0000,0.0000,22.0822,6.1231,0.0000,0.0000,1.0000,0.0000,0.0000,1,2403.2872,2767.5361,2767.5361,4113.6860,4113.6860,-0.2325,-0.2325,0.0971,0.0971,0.0000,0.0000,0.0000,0.0000,-2857.0765,-2857.0765,3778.1951,3778.1951,0.0000,0.0000,0.0000,0.0000,0.0000,-19.3152,-19.3152,24.4752,24.4752,-140.7727,-140.7727,145.6595,145.6595,0.0000,-0.9650,13762.4442,0.0000,1.0324,1.0324,0.9184,0.9184,0.0000,0.0000,27.4830,40.9161,0.0394,0.0000,14.9746,25.9021,-1.5809
2.6000,accel,5.6577,0.0000,0.0000,23.7102,6.5738,0.0000,0.0000,1.0000,0.0000,0.0000,1,2594.4332,2711.8380,2711.8380,4172.0470,4172.0470,-0.2183,-0.2183,0.1022,0.1022,0.0000,0.0000,0.0000,0.0000,-2810.0807,-2810.0807,3863.3036,3863.3036,0.0000,0.0000,0.0000,0.0000,0.0000,-19.5336,-19.5336,24.7488,24.7488,-155.3668,-155.3668,165.7634,165.7634,0.0000,-0.9758,13767.7699,0.0000,1.0362,1.0362,0.9260,0.9260,0.0000,0.0000,31.6938,45.5442,0.0517,0.0000,15.5822,29.9103,-1.7834
2.7000,accel,6.3426,0.0000,0.0000,25.4112,7.0439,0.0000,0.0000,1.0000,0.0000,0.0000,1,2825.3139,2639.1101,2639.1101,4247.7262,4247.7262,-0.1948,-0.1948,0.1166,0.1166,0.0000,0.0000,0.0000,0.0000,-2747.7957,-2747.7957,4003.8682,4003.8682,0.0000,0.0000,0.0000,0.0000,0.0000,-20.1233,-20.1233,25.4462,25.4462,-172.2034,-172.2034,188.4960,188.4960,0.0000,-1.0042,13773.6726,0.0000,1.0412,1.0412,0.9426,0.9426,0.0000,0.0000,36.4425,50.8196,0.0669,0.0000,16.3492,34.4035,-2.0389
2.8000,accel,7.0761,0.0000,0.0000,27.1970,7.5387,0.0000,0.0000,1.0000,0.0000,0.0000,1,3152.6461,2626.5022,2626.5022,4262.8076,4262.8076,-0.1776,-0.1776,0.1528,0.1528,0.0000,0.0000,0.0000,0.0000,-2737.1754,-2737.1754,4096.9210,4096.9210,0.0000,0.0000,0.0000,0.0000,0.0000,-21.0351,-21.0351,26.4213,26.4213,-169.5955,-169.5955,184.1414,184.1414,0.0000,-1.0458,13778.6196,0.0000,1.0421,1.0421,0.9611,0.9611,0.0000,0.0000,41.8528,57.0061,0.0855,0.0000,17.4640,39.4566,-2.3961
2.9000,accel,7.8601,0.0000,0.0000,29.0282,8.0480,0.0000,0.0000,1.0000,0.0000,0.0000,1,3876.9886,2640.4035,2640.4035,4251.4231,4251.4231,-0.1623,-0.1623,0.2645,0.2645,0.0000,0.0000,0.0000,0.0000,-2747.6164,-2747.6164,4060.7294,4060.7294,0.0000,0.0000,0.0000,0.0000,0.0000,-21.7777,-21.7777,27.1835,27.1835,-160.6526,-160.6526,171.2653,171.2653,0.0000,-1.0790,13783.6531,0.0000,1.0406,1.0406,0.9551,0.9551,0.0000,0.0000,48.1576,64.8459,0.1083,0.0000,19.7417,44.9959,-3.1617
3.0000,accel,8.6945,0.0000,0.0000,30.8098,8.5450,0.0000,0.0000,1.0000,0.0000,0.0000,1,5712.9500,2679.4240,2679.4240,4214.9755,4214.9755,-0.1496,-0.1496,0.4701,0.4701,0.0000,0.0000,0.0000,0.0000,-2777.7628,-2777.7628,3912.6886,3912.6886,0.0000,0.0000,0.0000,0.0000,0.0000,-21.7131,-21.7131,27.1368,27.1368,-150.3122,-150.3122,156.4266,156.4266,0.0000,-1.0765,13788.7990,0.0000,1.0367,1.0367,0.9283,0.9283,0.0000,0.0000,56.0036,76.7849,0.1357,0.0000,25.9165,50.7326,-5.2709
3.1000,accel,9.5779,0.0000,0.0000,32.5604,9.0310,0.0000,0.0000,1.0000,0.0000,0.0000,2,2875.8237,2702.9994,2702.9994,4194.3420,4194.3420,-0.1364,-0.1364,0.3722,0.3722,0.0000,0.0000,0.0000,0.0000,-2786.9798,-2786.9798,3946.7143,3946.7143,0.0000,0.0000,0.0000,0.0000,0.0000,-21.4076,-21.4076,26.8494,26.8494,-146.1170,-146.1170,150.2933,150.2933,0.0000,-1.0634,13794.6828,0.0000,1.0311,1.0311,0.9410,0.9410,0.0000,0.0000,60.4846,87.1024,0.1683,0.0000,30.2302,56.7039,-3.7807
3.2000,accel,10.4889,0.0000,0.0000,32.7731,9.1116,0.0000,0.0000,1.0000,0.0000,0.0000,2,1994.6041,3645.1351,3645.1351,3249.8035,3249.8035,-0.1254,-0.1254,0.0868,0.0868,0.0000,0.0000,0.0000,0.0000,-3626.0649,-3626.0649,2978.5431,2978.5431,0.0000,0.0000,0.0000,0.0000,0.0000,-9.4045,-9.4045,14.8502,14.8502,52.1738,52.1738,-76.8990,-76.8990,0.0000,-0.5345,13789.8773,0.0000,0.9948,0.9948,0.9165,0.9165,0.0000,0.0000,60.3565,87.1024,0.2039,0.0000,29.4478,57.4507,-2.9058
3.3000,accel,11.4003,0.0000,0.0000,32.9451,9.1493,0.0000,0.0000,1.0000,0.0000,0.0000,2,1971.9520,3042.5704,3042.5704,3857.7530,3857.7530,-0.1288,-0.1288,0.0725,0.0725,0.0000,0.0000,0.0000,0.0000,-3087.9522,-3087.9522,3283.5417,3283.5417,0.0000,0.0000,0.0000,0.0000,0.0000,-4.8951,-4.8951,9.1236,9.1236,-167.1336,-167.1336,192.7262,192.7262,0.0000,-0.3089,13800.6467,0.0000,1.0149,1.0149,0.8512,0.8512,0.0000,0.0000,61.0415,87.8560,0.2396,0.0000,29.5571,58.0593,-2.9821
3.4000,accel,12.3277,0.0000,0.0000,33.7643,9.3824,0.0000,0.0000,1.0000,0.0000,0.0000,2,1955.9503,2750.7839,2750.7839,4152.5555,4152.5555,-0.1535,-0.1535,0.0411,0.0411,0.0000,0.0000,0.0000,0.0000,-2846.9390,-2846.9390,2584.0014,2584.0014,0.0000,0.0000,0.0000,0.0000,0.0000,-7.2010,-7.2010,12.7516,12.7516,-234.2116,-234.2116,273.9858,273.9858,0.0000,-0.4397,13806.6787,0.0000,1.0350,1.0350,0.6223,0.6223,0.0000,0.0000,64.0304,91.0773,0.2772,0.0000,29.8045,60.9956,-3.0348
3.5000,accel,13.2770,0.0000,0.0000,34.4792,9.5784,0.0000,0.0000,1.0000,0.0000,0.0000,2,2227.2947,3436.4313,3436.4313,3460.5113,3460.5113,-0.1252,-0.1252,0.1403,0.1403,0.0000,0.0000,0.0000,0.0000,-3437.8283,-3437.8283,3384.1012,3384.1012,0.0000,0.0000,0.0000,0.0000,0.0000,-7.4920,-7.4920,12.4645,12.4645,-36.3900,-36.3900,-0.2063,-0.2063,0.0000,-0.4398,13793.8851,0.0000,1.0004,1.0004,0.9779,0.9779,0.0000,0.0000,67.1393,94.3990,0.3176,0.0000,30.4610,63.6204,-3.5188
3.6000,accel,14.2494,0.0000,0.0000,35.3176,9.8338,0.0000,0.0000,1.0000,0.0000,0.0000,2,1992.2128,2808.8766,2808.8766,4096.9509,4096.9509,-0.1238,-0.1238,0.0132,0.0132,0.0000,0.0000,0.0000,0.0000,-2863.4421,-2863.4421,928.1256,928.1256,0.0000,0.0000,0.0000,0.0000,0.0000,-9.1497,-9.1497,14.1594,14.1594,-204.0589,-204.0589,236.9007,236.9007,0.0000,-0.5137,13811.6550,0.0000,1.0194,1.0194,0.2265,0.2265,0.0000,0.0000,70.3376,97.8010,0.3610,0.0000,30.6713,66.7687,-3.5688
3.7000,accel,15.2449,0.0000,0.0000,36.1642,10.0614,0.0000,0.0000,1.0000,0.0000,0.0000,2,2061.8483,2894.0047,2894.0047,4011.9267,4011.9267,-0.1283,-0.1283,0.0245,0.0245,0.0000,0.0000,0.0000,0.0000,-2950.8263,-2950.8263,1650.5087,1650.5087,0.0000,0.0000,0.0000,0.0000,0.0000,-9.0323,-9.0323,14.5763,14.5763,-180.7653,-180.7653,198.3233,198.3233,0.0000,-0.5203,13811.8628,0.0000,1.0196,1.0196,0.4114,0.4114,0.0000,0.0000,73.6462,101.2892,0.4075,0.0000,30.8566,70.0251,-3.6210
3.8000,accel,16.2631,0.0000,0.0000,37.0167,10.2843,0.0000,0.0000,1.0000,0.0000,0.0000,2,2177.1100,3044.3619,3044.3619,3862.2611,3862.2611,-0.1147,-0.1147,0.0557,0.0557,0.0000,0.0000,0.0000,0.0000,-3053.6573,-3053.6573,2920.3198,2920.3198,0.0000,0.0000,0.0000,0.0000,0.0000,-9.3308,-9.3308,14.0072,14.0072,-135.8646,-135.8646,143.7481,143.7481,0.0000,-0.5143,13813.2459,0.0000,1.0031,1.0031,0.7561,0.7561,0.0000,0.0000,77.0881,104.9230,0.4573,0.0000,31.0781,73.3876,-3.7005
3.9000,accel,17.3047,0.0000,0.0000,37.8481,10.5127,0.0000,0.0000,1.0000,0.0000,0.0000,2,2289.7052,3218.1955,3218.1955,3688.3076,3688.3076,-0.1132,-0.1132,0.0822,0.0822,0.0000,0.0000,0.0000,0.0000,-3205.1172,-3205.1172,3286.9364,3286.9364,0.0000,0.0000,0.0000,0.0000,0.0000,-9.3500,-9.3500,13.8036,13.8036,-86.2598,-86.2598,75.7832,75.7832,0.0000,-0.5102,13813.0062,0.0000,0.9959,0.9959,0.8912,0.8912,0.0000,0.0000,80.6511,108.6994,0.5106,0.0000,31.4472,76.7416,-3.9095
4.0000,accel,18.3698,0.0000,0.0000,38.6944,10.7471,0.0000,0.0000,1.0000,0.0000,0.0000,2,2365.4581,3255.9358,3255.9358,3652.4428,3652.4428,-0.1062,-0.1062,0.0917,0.0917,0.0000,0.0000,0.0000,0.0000,-3210.1140,-3210.1140,3353.7482,3353.7482,0.0000,0.0000,0.0000,0.0000,0.0000,-9.6847,-9.6847,13.5834,13.5834,-73.2959,-73.2959,63.1997,63.1997,0.0000,-0.5128,13816.7572,0.0000,0.9859,0.9859,0.9182,0.9182,0.0000,0.0000,84.3460,112.6244,0.5676,0.0000,31.8224,80.2344,-4.1116
4.1000,accel,19.4589,0.0000,0.0000,39.5582,10.9871,0.0000,0.0000,1.0000,0.0000,0.0000,2,2418.3730,3272.4920,3272.4920,3637.6100,3637.6100,-0.1028,-0.1028,0.0918,0.0918,0.0000,0.0000,0.0000,0.0000,-3207.6702,-3207.6702,3341.7464,3341.7464,0.0000,0.0000,0.0000,0.0000,0.0000,-9.8341,-9.8341,13.6932,13.6932,-67.7175,-67.7175,55.7083,55.7083,0.0000,-0.5185,13820.2039,0.0000,0.9802,0.9802,0.9187,0.9187,0.0000,0.0000,88.1650,116.6728,0.6285,0.0000,32.1661,83.8782,-4.2867
4.2000,accel,20.5723,0.0000,0.0000,40.4387,11.2317,0.0000,0.0000,1.0000,0.0000,0.0000,2,2455.8214,3251.4482,3251.4482,3660.8371,3660.8371,-0.0996,-0.0996,0.0857,0.0857,0.0000,0.0000,0.0000,0.0000,-3171.0603,-3171.0603,3303.9824,3303.9824,0.0000,0.0000,0.0000,0.0000,0.0000,-10.0174,-10.0174,13.8982,13.8982,-72.6487,-72.6487,62.4703,62.4703,0.0000,-0.5270,13824.5706,0.0000,0.9753,0.9753,0.9025,0.9025,0.0000,0.0000,92.1148,120.8569,0.6936,0.0000,32.4880,87.6753,-4.4394
4.3000,accel,21.7102,0.0000,0.0000,41.3291,11.4790,0.0000,0.0000,1.0000,0.0000,0.0000,2,2495.7503,3227.2393,3227.2393,3687.3650,3687.3650,-0.0958,-0.0958,0.0805,0.0805,0.0000,0.0000,0.0000,0.0000,-3126.4916,-3126.4916,3266.6487,3266.6487,0.0000,0.0000,0.0000,0.0000,0.0000,-10.2069,-10.2069,14.0790,14.0790,-78.4477,-78.4477,70.7785,70.7785,0.0000,-0.5352,13829.2087,0.0000,0.9688,0.9688,0.8859,0.8859,0.0000,0.0000,96.2013,125.1864,0.7631,0.0000,32.8227,91.6005,-4.6007
4.4000,accel,22.8730,0.0000,0.0000,42.2308,11.7296,0.0000,0.0000,1.0000,0.0000,0.0000,2,2533.4820,3196.3409,3196.3409,3720.7314,3720.7314,-0.0923,-0.0923,0.0745,0.0745,0.0000,0.0000,0.0000,0.0000,-3075.0497,-3075.0497,3209.6411,3209.6411,0.0000,0.0000,0.0000,0.0000,0.0000,-10.4101,-10.4101,14.2751,14.2751,-86.0690,-86.0690,81.6504,81.6504,0.0000,-0.5440,13834.1445,0.0000,0.9621,0.9621,0.8626,0.8626,0.0000,0.0000,100.4277,129.6641,0.8373,0.0000,33.1637,95.6632,-4.7644
4.5000,accel,24.0608,0.0000,0.0000,43.1430,11.9832,0.0000,0.0000,1.0000,0.0000,0.0000,2,2571.3485,3163.8882,3163.8882,3755.7276,3755.7276,-0.0890,-0.0890,0.0684,0.0684,0.0000,0.0000,0.0000,0.0000,-3021.2842,-3021.2842,3134.3073,3134.3073,0.0000,0.0000,0.0000,0.0000,0.0000,-10.6077,-10.6077,14.4832,14.4832,-94.1824,-94.1824,93.0380,93.0380,0.0000,-0.5529,13839.2316,0.0000,0.9549,0.9549,0.8345,0.8345,0.0000,0.0000,104.7979,134.2945,0.9163,0.0000,33.5158,99.8624,-4.9355
4.6000,accel,25.2741,0.0000,0.0000,44.0647,12.2395,0.0000,0.0000,1.0000,0.0000,0.0000,2,2614.1281,3142.1441,3142.1441,3779.9381,3779.9381,-0.0858,-0.0858,0.0640,0.0640,0.0000,0.0000,0.0000,0.0000,-2975.4452,-2975.4452,3065.8910,3065.8910,0.0000,0.0000,0.0000,0.0000,0.0000,-10.7741,-10.7741,14.6862,14.6862,-99.4669,-99.4669,100.1445,100.1445,0.0000,-0.5611,13844.1644,0.0000,0.9469,0.9469,0.8111,0.8111,0.0000,0.0000,109.3159,139.0820,1.0006,0.0000,33.8854,104.1960,-5.1199
4.7000,accel,26.5132,0.0000,0.0000,44.9963,12.4985,0.0000,0.0000,1.0000,0.0000,0.0000,2,2661.5323,3130.8212,3130.8212,3793.6608,3793.6608,-0.0827,-0.0827,0.0612,0.0612,0.0000,0.0000,0.0000,0.0000,-2936.5144,-2936.5144,3014.0774,3014.0774,0.0000,0.0000,0.0000,0.0000,0.0000,-10.9140,-10.9140,14.8828,14.8828,-101.9717,-101.9717,103.1028,103.1028,0.0000,-0.5685,13848.9640,0.0000,0.9379,0.9379,0.7945,0.7945,0.0000,0.0000,113.9858,144.0309,1.0903,0.0000,34.2707,108.6700,-5.3158
4.8000,accel,27.7783,0.0000,0.0000,45.9390,12.7605,0.0000,0.0000,1.0000,0.0000,0.0000,2,2710.5610,3121.9191,3121.9191,3805.0029,3805.0029,-0.0797,-0.0797,0.0589,0.0589,0.0000,0.0000,0.0000,0.0000,-2897.3248,-2897.3248,2965.8123,2965.8123,0.0000,0.0000,0.0000,0.0000,0.0000,-11.0465,-11.0465,15.0819,15.0819,-103.8469,-103.8469,105.0641,105.0641,0.0000,-0.5758,13853.8440,0.0000,0.9281,0.9281,0.7795,0.7795,0.0000,0.0000,118.8118,149.1461,1.1858,0.0000,34.6680,113.2922,-5.5195
4.9000,accel,29.0698,0.0000,0.0000,46.8931,13.0256,0.0000,0.0000,1.0000,0.0000,0.0000,2,2760.5665,3113.4686,3113.4686,3815.9659,3815.9659,-0.0767,-0.0767,0.0567,0.0567,0.0000,0.0000,0.0000,0.0000,-2856.0129,-2856.0129,2917.9985,2917.9985,0.0000,0.0000,0.0000,0.0000,0.0000,-11.1790,-11.1790,15.2838,15.2838,-105.6024,-105.6024,106.8281,106.8281,0.0000,-0.5832,13858.8691,0.0000,0.9173,0.9173,0.7647,0.7647,0.0000,0.0000,123.7983,154.4329,1.2874,0.0000,35.0774,118.0680,-5.7303
5.0000,accel,30.3880,0.0000,0.0000,47.8588,13.2939,0.0000,0.0000,1.0000,0.0000,0.0000,2,2811.6314,3105.5772,3105.5772,3826.4481,3826.4481,-0.0737,-0.0737,0.0548,0.0548,0.0000,0.0000,0.0000,0.0000,-2812.4217,-2812.4217,2871.8174,2871.8174,0.0000,0.0000,0.0000,0.0000,0.0000,-11.3142,-11.3142,15.4859,15.4859,-107.1876,-107.1876,108.3766,108.3766,0.0000,-0.5906,13864.0505,0.0000,0.9056,0.9056,0.7505,0.7505,0.0000,0.0000,128.9502,159.8971,1.3955,0.0000,35.4997,123.0020,-5.9482
5.1000,accel,31.7332,0.0000,0.0000,48.8363,13.5654,0.0000,0.0000,1.0000,0.0000,0.0000,2,2863.8766,3098.5137,3098.5137,3836.1834,3836.1834,-0.0708,-0.0708,0.0531,0.0531,0.0000,0.0000,0.0000,0.0000,-2766.4864,-2766.4864,2828.7943,2828.7943,0.0000,0.0000,0.0000,0.0000,0.0000,-11.4543,-11.4543,15.6862,15.6862,-108.5114,-108.5114,109.6247,109.6247,0.0000,-0.5981,13869.3943,0.0000,0.8928,0.8928,0.7374,0.7374,0.0000,0.0000,134.2724,165.5450,1.5103,0.0000,35.9358,128.0990,-6.1734
5.2000,accel,33.1058,0.0000,0.0000,49.8260,13.8402,0.0000,0.0000,1.0000,0.0000,0.0000,2,2917.3966,3092.5279,3092.5279,3844.9252,3844.9252,-0.0679,-0.0679,0.0516,0.0516,0.0000,0.0000,0.0000,0.0000,-2718.0971,-2718.0971,2790.2560,2790.2560,0.0000,0.0000,0.0000,0.0000,0.0000,-11.6010,-11.6010,15.8826,15.8826,-109.4902,-109.4902,110.4930,110.4930,0.0000,-0.6057,13874.9062,0.0000,0.8789,0.8789,0.7257,0.7257,0.0000,0.0000,139.7699,171.3828,1.6322,0.0000,36.3865,133.3640,-6.4058
5.3000,accel,34.5060,0.0000,0.0000,50.8279,14.1184,0.0000,0.0000,1.0000,0.0000,0.0000,2,2972.2448,3087.8097,3087.8097,3852.4866,3852.4866,-0.0650,-0.0650,0.0504,0.0504,0.0000,0.0000,0.0000,0.0000,-2667.0780,-2667.0780,2757.0934,2757.0934,0.0000,0.0000,0.0000,0.0000,0.0000,-11.7558,-11.7558,16.0735,16.0735,-110.0590,-110.0590,110.9229,110.9229,0.0000,-0.6133,13880.5926,0.0000,0.8637,0.8637,0.7157,0.7157,0.0000,0.0000,145.4480,177.4170,1.7617,0.0000,36.8529,138.8023,-6.6457
5.4000,accel,35.9343,0.0000,0.0000,51.8422,14.3998,0.0000,0.0000,1.0000,0.0000,0.0000,2,3028.7806,3085.5458,3085.5458,3857.6730,3857.6730,-0.0622,-0.0622,0.0496,0.0496,0.0000,0.0000,0.0000,0.0000,-2613.9419,-2613.9419,2732.7997,2732.7997,0.0000,0.0000,0.0000,0.0000,0.0000,-11.9170,-11.9170,16.2531,16.2531,-109.8915,-109.8915,110.4938,110.4938,0.0000,-0.6208,13886.4376,0.0000,0.8472,0.8472,0.7084,0.7084,0.0000,0.0000,151.3095,183.6515,1.8992,0.0000,37.3346,144.4177,-6.8917
5.5000,accel,37.3909,0.0000,0.0000,52.8668,14.6839,0.0000,0.0000,1.0000,0.0000,0.0000,2,3086.9182,3086.5076,3086.5076,3859.7157,3859.7157,-0.0593,-0.0593,0.0491,0.0491,0.0000,0.0000,0.0000,0.0000,-2558.9842,-2558.9842,2717.4103,2717.4103,0.0000,0.0000,0.0000,0.0000,0.0000,-12.0760,-12.0760,16.4006,16.4006,-108.8284,-108.8284,109.1063,109.1063,0.0000,-0.6275,13892.4465,0.0000,0.8291,0.8291,0.7040,0.7040,0.0000,0.0000,157.3473,190.0800,2.0449,0.0000,37.8314,150.2036,-7.1437
5.6000,accel,38.8761,0.0000,0.0000,53.8996,14.9705,0.0000,0.0000,1.0000,0.0000,0.0000,2,3144.5780,3087.8709,3087.8709,3861.4583,3861.4583,-0.0566,-0.0566,0.0483,0.0483,0.0000,0.0000,0.0000,0.0000,-2501.3456,-2501.3456,2692.2261,2692.2261,0.0000,0.0000,0.0000,0.0000,0.0000,-12.2231,-12.2231,16.5204,16.5204,-107.7444,-107.7444,107.8564,107.8564,0.0000,-0.6334,13898.6584,0.0000,0.8101,0.8101,0.6972,0.6972,0.0000,0.0000,163.5526,196.6931,2.1994,0.0000,38.3432,156.1504,-7.4022
5.7000,accel,40.3900,0.0000,0.0000,54.9397,15.2590,0.0000,0.0000,1.0000,0.0000,0.0000,2,3203.0050,3090.4036,3090.4036,3862.1150,3862.1150,-0.0538,-0.0538,0.0476,0.0476,0.0000,0.0000,0.0000,0.0000,-2440.2509,-2440.2509,2670.4439,2670.4439,0.0000,0.0000,0.0000,0.0000,0.0000,-12.3577,-12.3577,16.6172,16.6172,-106.4257,-106.4257,106.3819,106.3819,0.0000,-0.6385,13905.0372,0.0000,0.7896,0.7896,0.6914,0.6914,0.0000,0.0000,169.9228,203.4884,2.3631,0.0000,38.8692,162.2561,-7.6667
5.8000,accel,41.9330,0.0000,0.0000,55.9873,15.5494,0.0000,0.0000,1.0000,0.0000,0.0000,2,3262.1610,3094.1105,3094.1105,3861.6819,3861.6819,-0.0511,-0.0511,0.0471,0.0471,0.0000,0.0000,0.0000,0.0000,-2375.3141,-2375.3141,2651.6531,2651.6531,0.0000,0.0000,0.0000,0.0000,0.0000,-12.4911,-12.4911,16.6996,16.6996,-104.7898,-104.7898,104.5949,104.5949,0.0000,-0.6433,13911.5848,0.0000,0.7677,0.7677,0.6867,0.6867,0.0000,0.0000,176.4606,210.4696,2.5364,0.0000,39.4099,168.5234,-7.9372
5.9000,accel,43.5051,0.0000,0.0000,57.0423,15.8419,0.0000,0.0000,1.0000,0.0000,0.0000,2,3322.0093,3098.9899,3098.9899,3860.1618,3860.1618,-0.0484,-0.0484,0.0467,0.0467,0.0000,0.0000,0.0000,0.0000,-2306.1428,-2306.1428,2635.4199,2635.4199,0.0000,0.0000,0.0000,0.0000,0.0000,-12.6280,-12.6280,16.7714,16.7714,-102.8031,-102.8031,102.4596,102.4596,0.0000,-0.6479,13918.3035,0.0000,0.7442,0.7442,0.6827,0.6827,0.0000,0.0000,183.1691,217.6406,2.7196,0.0000,39.9657,174.9553,-8.2138
6.0000,accel,45.1066,0.0000,0.0000,58.1048,16.1363,0.0000,0.0000,1.0000,0.0000,0.0000,2,3382.5164,3105.0490,3105.0490,3857.5489,3857.5489,-0.0457,-0.0457,0.0463,0.0463,0.0000,0.0000,0.0000,0.0000,-2232.2877,-2232.2877,2621.3208,2621.3208,0.0000,0.0000,0.0000,0.0000,0.0000,-12.7705,-12.7705,16.8340,16.8340,-100.4496,-100.4496,99.9581,99.9581,0.0000,-0.6524,13925.1959,0.0000,0.7189,0.7189,0.6795,0.6795,0.0000,0.0000,190.0511,225.0052,2.9134,0.0000,40.5372,181.5546,-8.4964
6.1000,accel,46.7377,0.0000,0.0000,59.1749,16.4328,0.0000,0.0000,1.0000,0.0000,0.0000,2,3443.6526,3112.3097,3112.3097,3853.8227,3853.8227,-0.0430,-0.0430,0.0460,0.0460,0.0000,0.0000,0.0000,0.0000,-2153.2302,-2153.2302,2608.9547,2608.9547,0.0000,0.0000,0.0000,0.0000,0.0000,-12.9194,-12.9194,16.8880,16.8880,-97.7171,-97.7171,97.0761,97.0761,0.0000,-0.6569,13932.2646,0.0000,0.6918,0.6918,0.6770,0.6770,0.0000,0.0000,197.1095,232.5671,3.1181,0.0000,41.1246,188.3244,-8.7851
6.2000,accel,48.3987,0.0000,0.0000,60.2526,16.7313,0.0000,0.0000,1.0000,0.0000,0.0000,2,3505.3919,3120.8123,3120.8123,3848.9437,3848.9437,-0.0403,-0.0403,0.0458,0.0458,0.0000,0.0000,0.0000,0.0000,-2068.3638,-2068.3638,2597.9459,2597.9459,0.0000,0.0000,0.0000,0.0000,0.0000,-13.0752,-13.0752,16.9334,16.9334,-94.5910,-94.5910,93.7971,93.7971,0.0000,-0.6613,13939.5121,0.0000,0.6628,0.6628,0.6750,0.6750,0.0000,0.0000,204.3475,240.3302,3.3342,0.0000,41.7283,195.2676,-9.0798
6.3000,accel,50.0896,0.0000,0.0000,61.3379,17.0319,0.0000,0.0000,1.0000,0.0000,0.0000,2,3567.7112,3130.6208,3130.6208,3842.8495,3842.8495,-0.0376,-0.0376,0.0457,0.0457,0.0000,0.0000,0.0000,0.0000,-1976.9675,-1976.9675,2587.9403,2587.9403,0.0000,0.0000,0.0000,0.0000,0.0000,-13.2381,-13.2381,16.9700,16.9700,-91.0513,-91.0513,90.0979,90.0979,0.0000,-0.6657,13946.9407,0.0000,0.6315,0.6315,0.6734,0.6734,0.0000,0.0000,211.7679,248.2984,3.5622,0.0000,42.3489,202.3873,-9.3806
6.4000,accel,51.8108,0.0000,0.0000,62.4310,17.3345,0.0000,0.0000,1.0000,0.0000,0.0000,2,3630.5898,3141.8271,3141.8271,3835.4492,3835.4492,-0.0349,-0.0349,0.0455,0.0455,0.0000,0.0000,0.0000,0.0000,-1878.1689,-1878.1689,2578.5973,2578.5973,0.0000,0.0000,0.0000,0.0000,0.0000,-13.4084,-13.4084,16.9974,16.9974,-87.0694,-87.0694,85.9470,85.9470,0.0000,-0.6700,13954.5527,0.0000,0.5978,0.5978,0.6723,0.6723,0.0000,0.0000,219.3739,256.4758,3.8027,0.0000,42.9866,209.6865,-9.6874
6.5000,accel,53.5624,0.0000,0.0000,63.5319,17.6391,0.0000,0.0000,1.0000,0.0000,0.0000,2,3694.0078,3154.5580,3154.5580,3826.6172,3826.6172,-0.0321,-0.0321,0.0454,0.0454,0.0000,0.0000,0.0000,0.0000,-1770.8959,-1770.8959,2569.5799,2569.5799,0.0000,0.0000,0.0000,0.0000,0.0000,-13.5867,-13.5867,17.0147,17.0147,-82.6062,-82.6062,81.3010,81.3010,0.0000,-0.6744,13962.3503,0.0000,0.5614,0.5614,0.6715,0.6715,0.0000,0.0000,227.1686,264.8663,4.0562,0.0000,43.6417,217.1684,-10.0002
6.6000,accel,55.3447,0.0000,0.0000,64.6406,17.9458,0.0000,0.0000,1.0000,0.0000,0.0000,2,3757.9461,3168.9843,3168.9843,3816.1834,3816.1834,-0.0292,-0.0292,0.0453,0.0453,0.0000,0.0000,0.0000,0.0000,-1653.8095,-1653.8095,2560.5405,2560.5405,0.0000,0.0000,0.0000,0.0000,0.0000,-13.7735,-13.7735,17.0210,17.0210,-77.6088,-77.6088,76.1022,76.1022,0.0000,-0.6786,13970.3355,0.0000,0.5219,0.5219,0.6710,0.6710,0.0000,0.0000,235.1550,273.4741,4.3232,0.0000,44.3146,224.8363,-10.3187
6.7000,accel,57.1578,0.0000,0.0000,65.7573,18.2546,0.0000,0.0000,1.0000,0.0000,0.0000,2,3822.3842,3185.3328,3185.3328,3803.9221,3803.9221,-0.0263,-0.0263,0.0453,0.0453,0.0000,0.0000,0.0000,0.0000,-1525.2197,-1525.2197,2551.1060,2551.1060,0.0000,0.0000,0.0000,0.0000,0.0000,-13.9695,-13.9695,17.0148,17.0148,-72.0069,-72.0069,70.2739,70.2739,0.0000,-0.6828,13978.5098,0.0000,0.4788,0.4788,0.6707,0.6707,0.0000,0.0000,243.3364,282.3032,4.6043,0.0000,45.0054,232.6935,-10.6429
6.8000,accel,59.0020,0.0000,0.0000,66.8820,18.5655,0.0000,0.0000,1.0000,0.0000,0.0000,2,3887.3001,3203.8998,3203.8998,3789.5375,3789.5375,-0.0232,-0.0232,0.0452,0.0452,0.0000,0.0000,0.0000,0.0000,-1382.9900,-1382.9900,2540.8612,2540.8612,0.0000,0.0000,0.0000,0.0000,0.0000,-14.1759,-14.1759,16.9942,16.9942,-65.7084,-65.7084,63.7160,63.7160,0.0000,-0.6869,13986.8746,0.0000,0.4317,0.4317,0.6705,0.6705,0.0000,0.0000,251.7160,291.3580,4.9002,0.0000,45.7144,240.7434,-10.9726
6.9000,accel,60.8774,0.0000,0.0000,68.0147,18.8784,0.0000,0.0000,1.0000,0.0000,0.0000,2,3952.6688,3225.0598,3225.0598,3772.6557,3772.6557,-0.0200,-0.0200,0.0452,0.0452,0.0000,0.0000,0.0000,0.0000,-1224.4858,-1224.4858,2529.3391,2529.3391,0.0000,0.0000,0.0000,0.0000,0.0000,-14.3941,-14.3941,16.9570,16.9570,-58.5965,-58.5965,56.3026,56.3026,0.0000,-0.6909,13995.4310,0.0000,0.3797,0.3797,0.6704,0.6704,0.0000,0.0000,260.2970,300.6426,5.2113,0.0000,46.4416,248.9897,-11.3073
7.0000,brake,62.7844,0.0000,0.0000,69.1556,19.1934,0.0000,0.0000,0.0000,0.0000,0.0000,2,4018.4681,3249.3716,3249.3716,3752.7170,3752.7170,-0.0166,-0.0166,0.0452,0.0452,0.0000,0.0000,0.0000,0.0000,-1046.7833,-1046.7833,2516.0200,2516.0200,0.0000,0.0000,0.0000,0.0000,0.0000,-14.6255,-14.6255,16.8997,16.8997,-50.5011,-50.5011,47.8424,47.8424,0.0000,-0.6947,14004.1773,0.0000,0.3221,0.3221,0.6705,0.6705,0.0000,0.0000,269.0820,310.1606,5.5384,0.0000,47.1865,257.4358,-11.6462
7.1000,brake,64.7037,0.0000,0.0000,68.8139,19.1606,0.0000,0.0000,0.0000,0.3333,0.0000,2,3750.8655,3559.9697,3559.9697,3439.3449,3439.3449,-0.0424,-0.0424,-0.0208,-0.0208,0.0000,0.0000,0.0000,0.0000,-2406.6117,-2406.6117,-1339.3893,-1339.3893,0.0000,0.0000,0.0000,0.0000,0.0000,-3.5767,-3.5767,7.6175,7.6175,-40.6260,-40.6260,15.4258,15.4258,0.0000,-0.2467,13998.6291,0.0000,0.6760,0.6760,0.3894,0.3894,0.0000,0.0000,265.9892,310.0743,5.8718,2.6427,46.6797,254.8801,-11.1091
7.2000,brake,66.6016,0.0000,0.0000,67.7218,18.8601,0.0000,0.0000,0.0000,0.6667,0.0000,2,3663.3291,4008.3993,4008.3993,2986.2962,2986.2962,-0.0374,-0.0374,-0.0284,-0.0284,0.0000,0.0000,0.0000,0.0000,-2458.4940,-2458.4940,-1530.9163,-1530.9163,0.0000,0.0000,0.0000,0.0000,0.0000,7.7609,7.7609,-3.3891,-3.3891,9.7909,9.7909,-39.0857,-39.0857,0.0000,0.2457,13989.3911,0.0000,0.6133,0.6133,0.5126,0.5126,0.0000,0.0000,257.2053,309.9930,6.1943,10.8609,46.1223,246.8155,-10.3898
7.3000,brake,68.4577,0.0000,0.0000,65.9801,18.3720,0.0000,0.0000,0.0000,0.8000,0.0000,2,3560.0930,4368.9941,4368.9941,2620.7440,2620.7440,-0.0289,-0.0289,-0.0307,-0.0307,0.0000,0.0000,0.0000,0.0000,-2187.6242,-2187.6242,-1446.9474,-1446.9474,0.0000,0.0000,0.0000,0.0000,0.0000,17.3970,17.3970,-13.3615,-13.3615,58.7365,58.7365,-71.1528,-71.1528,0.0000,0.6778,13979.4761,0.0000,0.5007,0.5007,0.5521,0.5521,0.0000,0.0000,243.8827,309.9183,6.4959,23.4469,45.7514,234.2241,-9.6586
7.4000,brake,70.2627,0.0000,0.0000,64.1325,17.8577,0.0000,0.0000,0.0000,0.8000,0.0000,2,3462.7596,4381.3890,4381.3890,2601.3933,2601.3933,-0.0278,-0.0278,-0.0300,-0.0300,0.0000,0.0000,0.0000,0.0000,-2130.9142,-2130.9142,-1413.2730,-1413.2730,0.0000,0.0000,0.0000,0.0000,0.0000,21.5598,21.5598,-18.7857,-18.7857,23.1629,23.1629,-36.7635,-36.7635,0.0000,0.8891,13965.5646,0.0000,0.4864,0.4864,0.5433,0.5433,0.0000,0.0000,230.4037,309.8489,6.7733,36.2004,45.6508,221.2243,-9.1793
7.5000,brake,72.0164,0.0000,0.0000,62.2860,17.3446,0.0000,0.0000,0.0000,0.8000,0.0000,2,3363.4632,4379.0443,4379.0443,2597.5017,2597.5017,-0.0278,-0.0278,-0.0300,-0.0300,0.0000,0.0000,0.0000,0.0000,-2124.9475,-2124.9475,-1409.2380,-1409.2380,0.0000,0.0000,0.0000,0.0000,0.0000,23.0808,23.0808,-21.4309,-21.4309,8.0762,8.0762,-17.8426,-17.8426,0.0000,0.9809,13953.0920,0.0000,0.4853,0.4853,0.5425,0.5425,0.0000,0.0000,217.3252,309.7841,7.0277,48.5913,45.5648,208.6003,-8.7249
7.6000,brake,73.7188,0.0000,0.0000,60.4414,16.8323,0.0000,0.0000,0.0000,0.8000,0.0000,2,3263.9229,4374.3589,4374.3589,2596.1207,2596.1207,-0.0279,-0.0279,-0.0300,-0.0300,0.0000,0.0000,0.0000,0.0000,-2132.7158,-2132.7158,-1410.6870,-1410.6870,0.0000,0.0000,0.0000,0.0000,0.0000,23.6342,23.6342,-22.7210,-22.7210,1.6978,1.6978,-7.9195,-7.9195,0.0000,1.0215,13940.9593,0.0000,0.4875,0.4875,0.5434,0.5434,0.0000,0.0000,204.6454,309.7239,7.2605,60.6198,45.4855,196.3580,-8.2874
7.7000,brake,75.3701,0.0000,0.0000,58.5978,16.3210,0.0000,0.0000,0.0000,0.8000,0.0000,2,3163.6678,4360.5656,4360.5656,2603.9469,2603.9469,-0.0290,-0.0290,-0.0304,-0.0304,0.0000,0.0000,0.0000,0.0000,-2189.7467,-2189.7467,-1427.0948,-1427.0948,0.0000,0.0000,0.0000,0.0000,0.0000,23.8382,23.8382,-23.3375,-23.3375,-3.4729,-3.4729,-0.2120,-0.2120,0.0000,1.0396,13929.0251,0.0000,0.5022,0.5022,0.5481,0.5481,0.0000,0.0000,192.3622,309.6679,7.4729,72.2867,45.4192,184.4891,-7.8731
7.8000,brake,76.9701,0.0000,0.0000,56.7440,15.8140,0.0000,0.0000,0.0000,0.8000,0.0000,2,3055.8157,4255.6281,4255.6281,2703.9998,2703.9998,-0.0396,-0.0396,-0.0334,-0.0334,0.0000,0.0000,0.0000,0.0000,-2702.4696,-2702.4696,-1588.1261,-1588.1261,0.0000,0.0000,0.0000,0.0000,0.0000,23.9529,23.9529,-23.2972,-23.2972,-33.5907,-33.5907,40.7591,40.7591,0.0000,1.0412,13919.2557,0.0000,0.6350,0.6350,0.5873,0.5873,0.0000,0.0000,180.4721,309.6160,7.6661,83.5929,45.4327,172.9242,-7.5479
7.9000,brake,78.5193,0.0000,0.0000,54.8949,15.3100,0.0000,0.0000,0.0000,0.8000,0.0000,2,2933.8473,4093.6668,4093.6668,2860.7742,2860.7742,-0.0542,-0.0542,-0.0414,-0.0414,0.0000,0.0000,0.0000,0.0000,-3156.0833,-3156.0833,-1946.4856,-1946.4856,0.0000,0.0000,0.0000,0.0000,0.0000,24.5208,24.5208,-22.4379,-22.4379,-83.2625,-83.2625,96.2594,96.2594,0.0000,1.0348,13908.8820,0.0000,0.7710,0.7710,0.6804,0.6804,0.0000,0.0000,168.9759,309.5680,7.8415,94.5096,45.4604,161.7566,-7.2193
8.0000,brake,80.0175,0.0000,0.0000,53.0569,14.8018,0.0000,0.0000,0.0000,0.8000,0.0000,2,2827.6517,4055.0022,4055.0022,2893.3175,2893.3175,-0.0584,-0.0584,-0.0444,-0.0444,0.0000,0.0000,0.0000,0.0000,-3250.1395,-3250.1395,-2056.7562,-2056.7562,0.0000,0.0000,0.0000,0.0000,0.0000,25.0239,25.0239,-21.9219,-21.9219,-97.2607,-97.2607,105.4655,105.4655,0.0000,1.0345,13896.6394,0.0000,0.8015,0.8015,0.7109,0.7109,0.0000,0.0000,157.8722,309.5240,8.0002,105.0526,45.4499,151.0213,-6.8509
8.1000,brake,81.4648,0.0000,0.0000,51.2214,14.2943,0.0000,0.0000,0.0000,0.8000,0.0000,2,2720.5338,4017.7898,4017.7898,2924.8776,2924.8776,-0.0626,-0.0626,-0.0480,-0.0480,0.0000,0.0000,0.0000,0.0000,-3325.8142,-3325.8142,-2176.9067,-2176.9067,0.0000,0.0000,0.0000,0.0000,0.0000,25.3397,25.3397,-21.5419,-21.5419,-109.5285,-109.5285,115.5924,115.5924,0.0000,1.0331,13885.3347,0.0000,0.8278,0.8278,0.7443,0.7443,0.0000,0.0000,147.1584,309.4839,8.1432,115.2262,45.4508,140.6637,-6.4946
8.2000,brake,82.8613,0.0000,0.0000,49.3883,13.7873,0.0000,0.0000,0.0000,0.8000,0.0000,2,2612.7430,3982.1882,3982.1882,2955.1378,2955.1378,-0.0666,-0.0666,-0.0521,-0.0521,0.0000,0.0000,0.0000,0.0000,-3388.0203,-3388.0203,-2302.1214,-2302.1214,0.0000,0.0000,0.0000,0.0000,0.0000,25.5710,25.5710,-21.2268,-21.2268,-120.7544,-120.7544,125.8014,125.8014,0.0000,1.0313,13874.6520,0.0000,0.8508,0.8508,0.7790,0.7790,0.0000,0.0000,136.8327,309.4475,8.2717,125.0303,45.4635,130.6820,-6.1506
8.3000,brake,84.2070,0.0000,0.0000,47.5576,13.2808,0.0000,0.0000,0.0000,0.8000,0.0000,2,2504.5122,3948.2850,3948.2850,2983.9421,2983.9421,-0.0707,-0.0707,-0.0567,-0.0567,0.0000,0.0000,0.0000,0.0000,-3440.4696,-3440.4696,-2427.8323,-2427.8323,0.0000,0.0000,0.0000,0.0000,0.0000,25.7620,25.7620,-20.9461,-20.9461,-131.2295,-131.2295,135.7247,135.7247,0.0000,1.0293,13864.4541,0.0000,0.8714,0.8714,0.8136,0.8136,0.0000,0.0000,126.8934,309.4145,8.3867,134.4651,45.4882,121.0745,-5.8188
8.4000,brake,85.5020,0.0000,0.0000,45.7292,12.7749,0.0000,0.0000,0.0000,0.8000,0.0000,2,2396.1845,3916.5096,3916.5096,3010.8290,3010.8290,-0.0749,-0.0749,-0.0617,-0.0617,0.0000,0.0000,0.0000,0.0000,-3485.9384,-3485.9384,-2548.7727,-2548.7727,0.0000,0.0000,0.0000,0.0000,0.0000,25.9309,25.9309,-20.6887,-20.6887,-140.9610,-140.9610,145.0682,145.0682,0.0000,1.0273,13854.6772,0.0000,0.8901,0.8901,0.8465,0.8465,0.0000,0.0000,117.3389,309.3847,8.4891,143.5303,45.5255,111.8398,-5.4991
8.5000,brake,86.7463,0.0000,0.0000,43.9032,12.2694,0.0000,0.0000,0.0000,0.8000,0.0000,2,2288.0676,3887.2637,3887.2637,3035.3833,3035.3833,-0.0793,-0.0793,-0.0672,-0.0672,0.0000,0.0000,0.0000,0.0000,-3526.2280,-3526.2280,-2660.9490,-2660.9490,0.0000,0.0000,0.0000,0.0000,0.0000,26.0842,26.0842,-20.4520,-20.4520,-149.8804,-149.8804,153.6397,153.6397,0.0000,1.0255,13845.2940,0.0000,0.9071,0.9071,0.8766,0.8766,0.0000,0.0000,108.1677,309.3580,8.5800,152.2258,45.5759,102.9762,-5.1915
8.6000,brake,87.9400,0.0000,0.0000,42.0793,11.7644,0.0000,0.0000,0.0000,0.8000,0.0000,2,2180.3619,3860.7591,3860.7591,3057.3886,3057.3886,-0.0840,-0.0840,-0.0729,-0.0729,0.0000,0.0000,0.0000,0.0000,-3562.3456,-3562.3456,-2762.2472,-2762.2472,0.0000,0.0000,0.0000,0.0000,0.0000,26.2238,26.2238,-20.2361,-20.2361,-157.9401,-157.9401,161.3537,161.3537,0.0000,1.0238,13836.2953,0.0000,0.9227,0.9227,0.9035,0.9035,0.0000,0.0000,99.3782,309.3340,8.6603,160.5516,45.6400,94.4821,-4.8960
8.7000,brake,89.0832,0.0000,0.0000,40.2577,11.2598,0.0000,0.0000,0.0000,0.8000,0.0000,2,2073.1870,3837.0496,3837.0496,3076.7897,3076.7897,-0.0889,-0.0889,-0.0790,-0.0790,0.0000,0.0000,0.0000,0.0000,-3594.8327,-3594.8327,-2851.8931,-2851.8931,0.0000,0.0000,0.0000,0.0000,0.0000,26.3499,26.3499,-20.0414,-20.0414,-165.1269,-165.1269,168.1921,168.1921,0.0000,1.0223,13827.6786,0.0000,0.9369,0.9369,0.9269,0.9269,0.0000,0.0000,90.9689,309.3128,8.7308,168.5075,45.7185,86.3559,-4.6130
8.8000,brake,90.1759,0.0000,0.0000,38.4380,10.7556,0.0000,0.0000,0.0000,0.8000,0.0000,2,1966.5753,3816.2236,3816.2236,3093.4966,3093.4966,-0.0942,-0.0942,-0.0854,-0.0854,0.0000,0.0000,0.0000,0.0000,-3623.6869,-3623.6869,-2929.9605,-2929.9605,0.0000,0.0000,0.0000,0.0000,0.0000,26.4629,26.4629,-19.8683,-19.8683,-171.4183,-171.4183,174.1227,174.1227,0.0000,1.0210,13819.4404,0.0000,0.9495,0.9495,0.9471,0.9471,0.0000,0.0000,82.9386,309.2939,8.7924,176.0939,45.8119,78.5958,-4.3428
8.9000,brake,91.2181,0.0000,0.0000,36.6199,10.2435,0.0000,0.0000,0.0000,0.8000,0.0000,2,1854.0837,3942.2377,3942.2377,2961.9315,2961.9315,-0.0551,-0.0551,-0.0946,-0.0946,0.0000,0.0000,0.0000,0.0000,-3077.9231,-3077.9231,-2886.1120,-2886.1120,0.0000,0.0000,0.0000,0.0000,0.0000,26.8479,26.8479,-20.0950,-20.0950,-137.7130,-137.7130,124.7120,124.7120,0.0000,1.0345,13808.3383,0.0000,0.7808,0.7808,0.9744,0.9744,0.0000,0.0000,75.2858,309.2774,8.8458,183.3217,45.9103,71.1996,-4.0862
9.0000,brake,92.2104,0.0000,0.0000,34.8101,9.7280,0.0000,0.0000,0.0000,0.8000,0.0000,2,1914.1872,4693.9489,4693.9489,2206.5818,2206.5818,-0.0799,-0.0799,-0.0157,-0.0157,0.0000,0.0000,0.0000,0.0000,-4189.0203,-4189.0203,-700.4469,-700.4469,0.0000,0.0000,0.0000,0.0000,0.0000,26.9639,26.9639,-21.0879,-21.0879,107.3322,107.3322,-118.9934,-118.9934,0.0000,1.0589,13801.0614,0.0000,0.8924,0.8924,0.3174,0.3174,0.0000,0.0000,68.0167,309.2627,8.8919,190.0409,46.1344,64.1954,-3.8212
9.1000,brake,93.1524,0.0000,0.0000,32.9856,9.2239,0.0000,0.0000,0.0000,0.8000,0.0000,2,1786.8937,4373.0014,4373.0014,2521.4652,2521.4652,-0.0682,-0.0682,-0.0309,-0.0309,0.0000,0.0000,0.0000,0.0000,-3720.3086,-3720.3086,-1406.7661,-1406.7661,0.0000,0.0000,0.0000,0.0000,0.0000,26.5536,26.5536,-21.5463,-21.5463,-11.7018,-11.7018,-25.1505,-25.1505,0.0000,1.0600,13788.9331,0.0000,0.8507,0.8507,0.5579,0.5579,0.0000,0.0000,61.1103,309.2499,8.9313,196.3728,46.4534,57.4923,-3.6179
9.2000,brake,94.0445,0.0000,0.0000,31.3667,8.7157,0.0000,0.0000,0.0000,0.8000,0.0000,2,1542.8621,4245.4001,4245.4001,2646.4505,2646.4505,0.0377,0.0377,-0.1145,-0.1145,0.0000,0.0000,0.0000,0.0000,2478.5296,2478.5296,-2690.6892,-2690.6892,0.0000,0.0000,0.0000,0.0000,0.0000,26.6667,26.6667,-21.8806,-21.8806,-48.5837,-48.5837,18.9299,18.9299,0.0000,1.0698,13783.7012,0.0000,0.5838,0.5838,1.0167,1.0167,0.0000,0.0000,54.6636,309.2391,8.9649,202.2715,46.1578,51.8449,-2.8187
9.3000,brake,94.8857,0.0000,0.0000,29.5774,8.1995,0.0000,0.0000,0.0000,0.8000,0.0000,2,1562.3566,4538.0356,4538.0356,2351.6232,2351.6232,0.0495,0.0495,-0.0468,-0.0468,0.0000,0.0000,0.0000,0.0000,3158.6980,3158.6980,-1763.0033,-1763.0033,0.0000,0.0000,0.0000,0.0000,0.0000,26.9867,26.9867,-22.4592,-22.4592,46.3496,46.3496,-66.0316,-66.0316,0.0000,1.0896,13779.3176,0.0000,0.6960,0.6960,0.7497,0.7497,0.0000,0.0000,48.5334,309.2294,8.9930,207.8979,46.4048,45.9337,-2.5997
9.4000,brake,95.6776,0.0000,0.0000,27.7952,7.6979,0.0000,0.0000,0.0000,0.8000,0.0000,2,1438.8625,4892.3390,4892.3390,1997.6083,1997.6083,0.0598,0.0598,-0.0649,-0.0649,0.0000,0.0000,0.0000,0.0000,3744.8491,3744.8491,-1799.8749,-1799.8749,0.0000,0.0000,0.0000,0.0000,0.0000,27.7147,27.7147,-22.1075,-22.1075,181.2602,181.2602,-169.1890,-169.1890,0.0000,1.0979,13779.8946,0.0000,0.7655,0.7655,0.9010,0.9010,0.0000,0.0000,42.7753,309.2215,9.0164,212.9479,46.8747,40.3825,-2.3927
9.5000,brake,96.4197,0.0000,0.0000,25.9838,7.1986,0.0000,0.0000,0.0000,0.8000,0.0000,2,1327.2453,4940.2706,4940.2706,1947.1190,1947.1190,0.0517,0.0517,-0.0776,-0.0776,0.0000,0.0000,0.0000,0.0000,3496.1630,3496.1630,-1877.6256,-1877.6256,0.0000,0.0000,0.0000,0.0000,0.0000,28.0123,28.0123,-21.9807,-21.9807,197.8942,197.8942,-184.0513,-184.0513,0.0000,1.1017,13774.7792,0.0000,0.7077,0.7077,0.9643,0.9643,0.0000,0.0000,37.3590,309.2151,9.0357,217.5665,47.5200,35.0928,-2.2662
9.6000,brake,97.1115,0.0000,0.0000,24.1917,6.6947,0.0000,0.0000,0.0000,0.8000,0.0000,2,1217.3346,4903.2884,4903.2884,1980.9410,1980.9410,0.0748,0.0748,-0.0902,-0.0902,0.0000,0.0000,0.0000,0.0000,4118.6130,4118.6130,-1987.2064,-1987.2064,0.0000,0.0000,0.0000,0.0000,0.0000,28.2517,28.2517,-22.1079,-22.1079,181.1192,181.1192,-173.0384,-173.0384,0.0000,1.1098,13768.4587,0.0000,0.8400,0.8400,1.0032,1.0032,0.0000,0.0000,32.3374,309.2098,9.0513,221.8225,48.1277,30.2083,-2.1291
9.7000,brake,97.7530,0.0000,0.0000,22.1819,6.2444,0.0000,0.0000,0.0000,0.8000,0.0000,2,1000.0000,4229.2849,4229.2849,2647.3248,2647.3248,-0.2147,-0.2147,-0.2286,-0.2286,0.0000,0.0000,0.0000,0.0000,-4196.4236,-4196.4236,-2746.3456,-2746.3456,0.0000,0.0000,0.0000,0.0000,0.0000,26.3794,26.3794,-20.0098,-20.0098,-49.5834,-49.5834,3.8327,3.8327,0.0000,1.0223,13753.2195,0.0000,0.9922,0.9922,1.0374,1.0374,0.0000,0.0000,27.5224,309.2061,9.0638,225.7666,49.2332,25.1425,-2.3799
9.8000,brake,98.3445,0.0000,0.0000,20.4753,5.7612,0.0000,0.0000,0.0000,0.8000,0.0000,2,1080.6517,3357.3479,3357.3479,3526.9435,3526.9435,-0.5833,-0.5833,-0.0613,-0.0613,0.0000,0.0000,0.0000,0.0000,-3248.5579,-3248.5579,-2931.0175,-2931.0175,0.0000,0.0000,0.0000,0.0000,0.0000,25.8751,25.8751,-18.9541,-18.9541,-294.8623,-294.8623,345.6346,345.6346,0.0000,0.9879,13768.5829,0.0000,0.9676,0.9676,0.8310,0.8310,0.0000,0.0000,23.3161,309.2030,9.0736,229.2816,49.6664,21.1815,-2.1346
9.9000,brake,98.8858,0.0000,0.0000,18.7337,5.2325,0.0000,0.0000,0.0000,0.8000,0.0000,2,1150.6976,4746.5974,4746.5974,2129.3614,2129.3614,-0.5292,-0.5292,0.0904,0.0904,0.0000,0.0000,0.0000,0.0000,-4464.9954,-4464.9954,2058.1434,2058.1434,0.0000,0.0000,0.0000,0.0000,0.0000,26.8952,26.8952,-20.1952,-20.1952,133.0326,133.0326,-143.1957,-143.1957,0.0000,1.0377,13751.9176,0.0000,0.9407,0.9407,0.9666,0.9666,0.0000,0.0000,19.3375,309.2015,9.0811,232.4632,50.1888,17.4684,-1.8691
10.0000,brake,99.3765,0.0000,0.0000,16.8449,4.7582,0.0000,0.0000,0.0000,0.8000,0.0000,2,1000.0000,3078.0292,3078.0292,3805.4526,3805.4526,-0.6585,-0.6585,-0.0993,-0.0993,0.0000,0.0000,0.0000,0.0000,-2981.0085,-2981.0085,-3652.2487,-3652.2487,0.0000,0.0000,0.0000,0.0000,0.0000,25.9069,25.9069,-18.6984,-18.6984,-374.4517,-374.4517,455.4117,455.4117,0.0000,0.9830,13766.9635,0.0000,0.9685,0.9685,0.9597,0.9597,0.0000,0.0000,15.8172,309.2011,9.0867,235.3801,50.9303,13.8041,-2.0132
10.1000,brake,99.8169,0.0000,0.0000,14.9288,4.2286,0.0000,0.0000,0.0000,0.8000,0.0000,2,1000.0000,4188.0722,4188.0722,2681.5677,2681.5677,-0.1367,-0.1367,-0.3537,-0.3537,0.0000,0.0000,0.0000,0.0000,-4136.4611,-4136.4611,-2728.0709,-2728.0709,0.0000,0.0000,0.0000,0.0000,0.0000,26.5713,26.5713,-20.4523,-20.4523,-61.8427,-61.8427,23.8170,23.8170,0.0000,1.0363,13739.2798,0.0000,0.9877,0.9877,1.0173,1.0173,0.0000,0.0000,12.5219,309.2009,9.0907,238.0187,51.6007,10.4908,-2.0310
10.2000,brake,100.2082,0.0000,0.0000,13.2591,3.7622,0.0000,0.0000,0.0000,0.8000,0.0000,2,1000.0000,3125.0493,3125.0493,3754.5762,3754.5762,-0.8832,-0.8832,-0.1125,-0.1125,0.0000,0.0000,0.0000,0.0000,-2960.7095,-2960.7095,-3680.0515,-3680.0515,0.0000,0.0000,0.0000,0.0000,0.0000,25.7241,25.7241,-18.4248,-18.4248,-359.3551,-359.3551,433.0737,433.0737,0.0000,0.9729,13759.2510,0.0000,0.9474,0.9474,0.9802,0.9802,0.0000,0.0000,9.8032,309.2009,9.0935,240.0399,52.1518,7.9157,-1.8875
10.3000,brake,100.5492,0.0000,0.0000,11.6098,3.1948,0.0000,0.0000,0.0000,0.8000,0.0000,2,1000.0000,4923.5357,4923.5357,1947.5730,1947.5730,0.1257,0.1257,-0.2493,-0.2493,0.0000,0.0000,0.0000,0.0000,4608.0232,4608.0232,-2076.6680,-2076.6680,0.0000,0.0000,0.0000,0.0000,0.0000,28.3617,28.3617,-21.3335,-21.3335,190.1527,190.1527,-185.9230,-185.9230,0.0000,1.0951,13742.2174,0.0000,0.9359,0.9359,1.0663,1.0663,0.0000,0.0000,7.3811,309.2009,9.0954,241.7952,52.6398,5.6705,-1.7106
10.4000,brake,100.8473,0.0000,0.0000,10.2107,2.8200,0.0000,0.0000,0.0000,0.8000,0.0000,2,1000.0000,4194.6312,4194.6312,2670.2249,2670.2249,0.1897,0.1897,-0.4651,-0.4651,0.0000,0.0000,0.0000,0.0000,4047.7016,4047.7016,-2678.0944,-2678.0944,0.0000,0.0000,0.0000,0.0000,0.0000,24.7411,24.7411,-18.0663,-18.0663,-46.4785,-46.4785,-2.6462,-2.6462,0.0000,0.9433,13729.7123,0.0000,0.9650,0.9650,1.0029,1.0029,0.0000,0.0000,5.6909,309.2009,9.0967,243.3351,52.7688,4.0003,-1.6906
10.5000,brake,101.1069,0.0000,0.0000,8.8207,2.4330,0.0000,0.0000,0.0000,0.8000,0.0000,2,1000.0000,4251.2286,4251.2286,2613.0562,2613.0562,0.2984,0.2984,-0.5869,-0.5869,0.0000,0.0000,0.0000,0.0000,4039.3123,4039.3123,-2590.5977,-2590.5977,0.0000,0.0000,0.0000,0.0000,0.0000,23.3539,23.3539,-16.9109,-16.9109,-20.3140,-20.3140,-27.1050,-27.1050,0.0000,0.8873,13728.5697,0.0000,0.9502,0.9502,0.9914,0.9914,0.0000,0.0000,4.2301,309.2009,9.0975,244.6745,52.8790,2.5499,-1.6802
10.6000,brake,101.3282,0.0000,0.0000,7.4785,2.0753,0.0000,0.0000,0.0000,0.8000,0.0000,2,1000.0000,3854.0944,3854.0944,3012.6446,3012.6446,0.0630,0.0630,-0.6617,-0.6617,0.0000,0.0000,0.0000,0.0000,3098.1795,3098.1795,-2922.9663,-2922.9663,0.0000,0.0000,0.0000,0.0000,0.0000,21.7668,21.7668,-15.1998,-15.1998,-122.3771,-122.3771,104.9202,104.9202,0.0000,0.8146,13733.4780,0.0000,0.8039,0.8039,0.9702,0.9702,0.0000,0.0000,3.0405,309.2009,9.0980,245.8154,52.9396,1.3478,-1.6926
10.7000,brake,101.5171,0.0000,0.0000,6.5683,1.7451,0.0000,0.0000,0.0000,0.8000,0.0000,2,1000.0000,4910.7317,4910.7317,1959.0298,1959.0298,0.1423,0.1423,0.1510,0.1510,0.0000,0.0000,0.0000,0.0000,4638.1402,4638.1402,2036.5804,2036.5804,0.0000,0.0000,0.0000,0.0000,0.0000,21.2261,21.2261,-13.2615,-13.2615,256.8087,256.8087,-239.8554,-239.8554,0.0000,0.7600,13739.5230,0.0000,0.9445,0.9445,1.0396,1.0396,0.0000,0.0000,2.3303,309.2009,9.0983,246.7531,52.7279,0.6216,-1.7086
10.8000,brake,101.6798,0.0000,0.0000,5.5618,1.5314,0.0000,0.0000,0.0000,0.8000,0.0000,2,1000.0000,4059.2190,4059.2190,2802.0941,2802.0941,0.1999,0.1999,-0.4934,-0.4934,0.0000,0.0000,0.0000,0.0000,3927.7010,3927.7010,-2787.6093,-2787.6093,0.0000,0.0000,0.0000,0.0000,0.0000,17.8709,17.8709,-9.2431,-9.2431,-35.8594,-35.8594,-27.6387,-27.6387,0.0000,0.5975,13722.6261,0.0000,0.9676,0.9676,0.9948,0.9948,0.0000,0.0000,1.7100,309.2009,9.0985,247.6373,52.5303,-0.0652,-1.7751
10.9000,brake,101.8343,0.0000,0.0000,5.6068,1.5492,0.0000,0.0000,0.0000,0.8000,0.0000,2,1000.0000,3808.3184,3808.3184,3055.4575,3055.4575,0.2104,0.2104,-0.5032,-0.5032,0.0000,0.0000,0.0000,0.0000,3705.3890,3705.3890,-3010.4511,-3010.4511,0.0000,0.0000,0.0000,0.0000,0.0000,8.3724,8.3724,-2.9627,-2.9627,-39.7011,-39.7011,-0.1129,-0.1129,0.0000,0.2498,13727.5517,0.0000,0.9730,0.9730,0.9853,0.9853,0.0000,0.0000,1.7437,309.2009,9.0987,248.3604,51.7804,-0.0385,-1.7822
11.0000,brake,101.9906,0.0000,0.0000,5.6676,1.5657,0.0000,0.0000,0.0000,0.8000,0.0000,2,1000.0000,3823.7254,3823.7254,3041.7004,3041.7004,0.2032,0.2032,-0.5123,-0.5123,0.0000,0.0000,0.0000,0.0000,3721.3632,3721.3632,-2995.1060,-2995.1060,0.0000,0.0000,0.0000,0.0000,0.0000,3.7597,3.7597,-0.4988,-0.4988,-2.3538,-2.3538,-21.6459,-21.6459,0.0000,0.0938,13730.8515,0.0000,0.9732,0.9732,0.9847,0.9847,0.0000,0.0000,1.7802,309.2009,9.0989,249.0859,51.0181,-0.0019,-1.7821
11.1000,brake,102.1485,0.0000,0.0000,5.7171,1.5791,0.0000,0.0000,0.0000,0.8000,0.0000,2,1000.0000,3840.2293,3840.2293,3026.6947,3026.6947,0.1969,0.1969,-0.5196,-0.5196,0.0000,0.0000,0.0000,0.0000,3737.5821,3737.5821,-2979.2851,-2979.2851,0.0000,0.0000,0.0000,0.0000,0.0000,1.7456,1.7456,0.4865,0.4865,23.4455,23.4455,-32.9734,-32.9734,0.0000,0.0277,13733.8481,0.0000,0.9733,0.9733,0.9843,0.9843,0.0000,0.0000,1.8102,309.2009,9.0991,249.8092,50.2647,0.0280,-1.7822
11.2000,brake,102.3074,0.0000,0.0000,5.7524,1.5885,0.0000,0.0000,0.0000,0.8000,0.0000,2,1000.0000,3857.0036,3857.0036,3010.6131,3010.6131,0.1921,0.1921,-0.5248,-0.5248,0.0000,0.0000,0.0000,0.0000,3753.3266,3753.3266,-2963.2686,-2963.2686,0.0000,0.0000,0.0000,0.0000,0.0000,1.0475,1.0475,0.8262,0.8262,37.1343,37.1343,-39.9970,-39.9970,0.0000,0.0049,13735.2335,0.0000,0.9731,0.9731,0.9843,0.9843,0.0000,0.0000,1.8316,309.2009,9.0993,250.5302,49.5223,0.0492,-1.7823
11.3000,brake,102.4671,0.0000,0.0000,5.7728,1.5938,0.0000,0.0000,0.0000,0.8000,0.0000,2,1000.0000,3871.9554,3871.9554,2995.9450,2995.9450,0.1890,0.1890,-0.5278,-0.5278,0.0000,0.0000,0.0000,0.0000,3766.9303,3766.9303,-2949.2737,-2949.2737,0.0000,0.0000,0.0000,0.0000,0.0000,0.9095,0.9095,0.8889,0.8889,44.4943,44.4943,-44.6367,-44.6367,0.0000,0.0005,13735.8009,0.0000,0.9729,0.9729,0.9844,0.9844,0.0000,0.0000,1.8438,309.2009,9.0995,251.2490,48.7912,0.0612,-1.7826
11.4000,brake,102.6271,0.0000,0.0000,5.7811,1.5959,0.0000,0.0000,0.0000,0.8000,0.0000,2,1000.0000,3881.8859,3881.8859,2986.0968,2986.0968,0.1875,0.1875,-0.5290,-0.5290,0.0000,0.0000,0.0000,0.0000,3775.8199,3775.8199,-2940.1467,-2940.1467,0.0000,0.0000,0.0000,0.0000,0.0000,0.9720,0.9720,0.8534,0.8534,47.8407,47.8407,-47.1969,-47.1969,0.0000,0.0026,13735.9653,0.0000,0.9727,0.9727,0.9846,0.9846,0.0000,0.0000,1.8488,309.2009,9.0997,251.9663,48.0693,0.0656,-1.7831
11.5000,brake,102.7872,0.0000,0.0000,5.7831,1.5964,0.0000,0.0000,0.0000,0.8000,0.0000,2,1000.0000,3885.9361,3885.9361,2982.0374,2982.0374,0.1870,0.1870,-0.5292,-0.5292,0.0000,0.0000,0.0000,0.0000,3779.4187,3779.4187,-2936.4606,-2936.4606,0.0000,0.0000,0.0000,0.0000,0.0000,1.0597,1.0597,0.8078,0.8078,48.5840,48.5840,-48.0312,-48.0312,0.0000,0.0056,13735.9470,0.0000,0.9726,0.9726,0.9847,0.9847,0.0000,0.0000,1.8499,309.2009,9.0998,252.6828,47.3523,0.0660,-1.7838
11.6000,brake,102.9474,0.0000,0.0000,5.7831,1.5964,0.0000,0.0000,0.0000,0.8000,0.0000,2,1000.0000,3886.6279,3886.6279,2981.3176,2981.3176,0.1870,0.1870,-0.5292,-0.5292,0.0000,0.0000,0.0000,0.0000,3780.0308,3780.0308,-2935.8227,-2935.8227,0.0000,0.0000,0.0000,0.0000,0.0000,1.1133,1.1133,0.7808,0.7808,48.3247,48.3247,-48.0440,-48.0440,0.0000,0.0073,13735.8911,0.0000,0.9726,0.9726,0.9847,0.9847,0.0000,0.0000,1.8499,309.2009,9.1000,253.3990,46.6367,0.0652,-1.7847
11.7000,brake,103.1075,0.0000,0.0000,5.7830,1.5964,0.0000,0.0000,0.0000,0.8000,0.0000,2,1000.0000,3886.5137,3886.5137,2981.4145,2981.4145,0.1870,0.1870,-0.5292,-0.5292,0.0000,0.0000,0.0000,0.0000,3779.9296,3779.9296,-2935.9135,-2935.9135,0.0000,0.0000,0.0000,0.0000,0.0000,1.1366,1.1366,0.7692,0.7692,48.0456,48.0456,-47.9337,-47.9337,0.0000,0.0081,13735.8564,0.0000,0.9726,0.9726,0.9847,0.9847,0.0000,0.0000,1.8498,309.2009,9.1002,254.1151,45.9213,0.0643,-1.7855
11.8000,brake,103.2676,0.0000,0.0000,5.7830,1.5963,0.0000,0.0000,0.0000,0.8000,0.0000,2,1000.0000,3886.4366,3886.4366,2981.4845,2981.4845,0.1870,0.1870,-0.5292,-0.5292,0.0000,0.0000,0.0000,0.0000,3779.8617,3779.8617,-2935.9762,-2935.9762,0.0000,0.0000,0.0000,0.0000,0.0000,1.1456,1.1456,0.7648,0.7648,47.9248,47.9248,-47.8818,-47.8818,0.0000,0.0084,13735.8423,0.0000,0.9726,0.9726,0.9847,0.9847,0.0000,0.0000,1.8498,309.2009,9.1004,254.8313,45.2057,0.0634,-1.7864
11.9000,brake,103.4278,0.0000,0.0000,5.7830,1.5964,0.0000,0.0000,0.0000,0.8000,0.0000,2,1000.0000,3886.4277,3886.4277,2981.4909,2981.4909,0.1870,0.1870,-0.5292,-0.5292,0.0000,0.0000,0.0000,0.0000,3779.8540,3779.8540,-2935.9813,-2935.9813,0.0000,0.0000,0.0000,0.0000,0.0000,1.1492,1.1492,0.7629,0.7629,47.8850,47.8850,-47.8670,-47.8670,0.0000,0.0085,13735.8372,0.0000,0.9726,0.9726,0.9847,0.9847,0.0000,0.0000,1.8498,309.2009,9.1006,255.5475,44.4902,0.0626,-1.7872
12.0000,brake,103.5879,0.0000,0.0000,5.7830,1.5964,0.0000,0.0000,0.0000,0.8000,0.0000,2,1000.0000,3886.4316,3886.4316,2981.4860,2981.4860,0.1870,0.1870,-0.5292,-0.5292,0.0000,0.0000,0.0000,0.0000,3779.8575,3779.8575,-2935.9766,-2935.9766,0.0000,0.0000,0.0000,0.0000,0.0000,1.1508,1.1508,0.7621,0.7621,47.8707,47.8707,-47.8626,-47.8626,0.0000,0.0086,13735.8351,0.0000,0.9726,0.9726,0.9847,0.9847,0.0000,0.0000,1.8498,309.2009,9.1008,256.2637,43.7747,0.0617,-1.7880
12.1000,brake,103.7481,0.0000,0.0000,5.7830,1.5964,0.0000,0.0000,0.0000,0.8000,0.0000,2,1000.0000,3886.4332,3886.4332,2981.4839,2981.4839,0.1870,0.1870,-0.5292,-0.5292,0.0000,0.0000,0.0000,0.0000,3779.8590,3779.8590,-2935.9747,-2935.9747,0.0000,0.0000,0.0000,0.0000,0.0000,1.1515,1.1515,0.7618,0.7618,47.8642,47.8642,-47.8607,-47.8607,0.0000,0.0086,13735.8342,0.0000,0.9726,0.9726,0.9847,0.9847,0.0000,0.0000,1.8498,309.2009,9.1010,256.9799,43.0591,0.0609,-1.7889
12.2000,brake,103.9082,0.0000,0.0000,5.7830,1.5964,0.0000,0.0000,0.0000,0.8000,0.0000,2,1000.0000,3886.4334,3886.4334,2981.4835,2981.4835,0.1870,0.1870,-0.5292,-0.5292,0.0000,0.0000,0.0000,0.0000,3779.8592,3779.8592,-2935.9744,-2935.9744,0.0000,0.0000,0.0000,0.0000,0.0000,1.1518,1.1518,0.7616,0.7616,47.8612,47.8612,-47.8596,-47.8596,0.0000,0.0086,13735.8338,0.0000,0.9726,0.9726,0.9847,0.9847,0.0000,0.0000,1.8498,309.2009,9.1012,257.6961,42.3436,0.0600,-1.7897
12.3000,brake,104.0683,0.0000,0.0000,5.7830,1.5964,0.0000,0.0000,0.0000,0.8000,0.0000,2,1000.0000,3886.4333,3886.4333,2981.4835,2981.4835,0.1870,0.1870,-0.5292,-0.5292,0.0000,0.0000,0.0000,0.0000,3779.8591,3779.8591,-2935.9743,-2935.9743,0.0000,0.0000,0.0000,0.0000,0.0000,1.1520,1.1520,0.7615,0.7615,47.8598,47.8598,-47.8591,-47.8591,0.0000,0.0086,13735.8336,0.0000,0.9726,0.9726,0.9847,0.9847,0.0000,0.0000,1.8498,309.2009,9.1014,258.4123,41.6280,0.0592,-1.7906
12.4000,brake,104.2285,0.0000,0.0000,5.7830,1.5964,0.0000,0.0000,0.0000,0.8000,0.0000,2,1000.0000,3886.4333,3886.4333,2981.4835,2981.4835,0.1870,0.1870,-0.5292,-0.5292,0.0000,0.0000,0.0000,0.0000,3779.8591,3779.8591,-2935.9743,-2935.9743,0.0000,0.0000,0.0000,0.0000,0.0000,1.1520,1.1520,0.7615,0.7615,47.8592,47.8592,-47.8589,-47.8589,0.0000,0.0086,13735.8335,0.0000,0.9726,0.9726,0.9847,0.9847,0.0000,0.0000,1.8498,309.2009,9.1016,259.1285,40.9125,0.0583,-1.7914
12.5000,brake,104.3886,0.0000,0.0000,5.7830,1.5964,0.0000,0.0000,0.0000,0.8000,0.0000,2,1000.0000,3886.4333,3886.4333,2981.4835,2981.4835,0.1870,0.1870,-0.5292,-0.5292,0.0000,0.0000,0.0000,0.0000,3779.8591,3779.8591,-2935.9743,-2935.9743,0.0000,0.0000,0.0000,0.0000,0.0000,1.1521,1.1521,0.7615,0.7615,47.8589,47.8589,-47.8588,-47.8588,0.0000,0.0086,13735.8335,0.0000,0.9726,0.9726,0.9847,0.9847,0.0000,0.0000,1.8498,309.2009,9.1018,259.8447,40.1970,0.0575,-1.7923
