time,phase,pos_x,pos_y,yaw_deg,speed_kph,vx_body,vy_body,yaw_rate_dps,throttle,brake,steer_deg,gear,rpm,fz_fl,fz_fr,fz_rl,fz_rr,sr_fl,sr_fr,sr_rl,sr_rr,sa_fl_deg,sa_fr_deg,sa_rl_deg,sa_rr_deg,fx_fl,fx_fr,fx_rl,fx_rr,fy_fl,fy_fr,fy_rl,fy_rr,lat_accel_g,susp_defl_fl_mm,susp_defl_fr_mm,susp_defl_rl_mm,susp_defl_rr_mm,susp_vel_fl,susp_vel_fr,susp_vel_rl,susp_vel_rr,roll_deg,pitch_deg,fz_total,understeer_deg,fc_util_fl,fc_util_fr,fc_util_rl,fc_util_rr,radius_m,yaw_rate_ref_dps,ke_total_kj,energy_engine_kj,energy_drag_kj,energy_brake_kj,energy_tire_loss_kj,energy_body_kj,integrator_err_kj
0.0000,accel,0.0000,0.0000,0.0000,0.0000,0.0000,0.0000,0.0000,0.0000,0.0000,0.0000,1,1000.0000,3776.8500,3776.8500,3090.1500,3090.1500,0.0000,0.0000,0.0000,0.0000,0.0000,0.0000,0.0000,0.0000,0.0000,0.0000,0.0000,0.0000,0.0000,0.0000,0.0000,0.0000,0.0000,0.0000,0.0000,0.0000,0.0000,0.0000,0.0000,0.0000,0.0000,0.0000,0.0000,13734.0000,0.0000,0.0000,0.0000,0.0000,0.0000,0.0000,0.0000,0.0000,0.0000,0.0000,0.0000,0.0000,0.0000,0.0000
0.1000,accel,0.0001,0.0000,0.0000,0.0322,-0.0211,0.0000,0.0000,0.0667,0.0000,0.0000,1,1241.4110,4157.6656,4157.6656,2711.3116,2711.3116,0.0011,0.0011,0.9903,0.9903,0.0000,0.0000,0.0000,0.0000,20.5340,20.5340,2500.1909,2500.1909,0.0000,0.0000,0.0000,0.0000,0.0000,2.3876,2.3876,0.6927,0.6927,144.1461,144.1461,-124.3991,-124.3991,0.0000,0.0373,13737.9543,0.0000,0.0049,0.0049,0.9221,0.9221,0.0000,0.0000,1.5245,3.1339,0.0000,0.0000,3.1421,-0.0082,-0.3277
0.2000,accel,0.0002,0.0000,0.0000,0.0640,-0.0107,0.0000,0.0000,0.1333,0.0000,0.0000,1,1309.1284,4358.9922,4358.9922,2511.1618,2511.1618,0.0015,0.0015,0.9786,0.9786,0.0000,0.0000,0.0000,0.0000,55.8682,55.8682,2336.0728,2336.0728,0.0000,0.0000,0.0000,0.0000,0.0000,2.7355,2.7355,1.8331,1.8331,221.1984,221.1984,-189.7305,-189.7305,0.0000,0.0199,13740.3080,0.0000,0.0128,0.0128,0.9303,0.9303,0.0000,0.0000,1.7039,6.7002,0.0000,0.0000,6.7168,-0.0166,-0.5154
0.3000,accel,0.0002,0.0000,0.0000,0.0659,-0.0102,0.0000,0.0000,0.2000,0.0000,0.0000,1,1427.6375,4358.5582,4358.5582,2510.9634,2510.9634,0.0015,0.0015,0.9779,0.9779,0.0000,0.0000,0.0000,0.0000,56.0111,56.0111,2336.0496,2336.0496,0.0000,0.0000,0.0000,0.0000,0.0000,3.0793,3.0793,2.1801,2.1801,217.5867,217.5867,-192.2653,-192.2653,0.0000,0.0198,13739.0432,0.0000,0.0129,0.0129,0.9303,0.9303,0.0000,0.0000,2.0247,10.2602,0.0000,0.0000,10.2856,-0.0254,-0.8450
0.4000,accel,0.0014,0.0000,0.0000,0.3390,0.0569,0.0000,0.0000,0.2667,0.0000,0.0000,1,1156.0534,3377.0066,3377.0066,3488.8795,3488.8795,0.0003,0.0003,0.8962,0.8962,0.0000,0.0000,0.0000,0.0000,-31.6169,-31.6169,3161.4831,3161.4831,0.0000,0.0000,0.0000,0.0000,0.0000,0.5005,0.5005,4.7617,4.7617,-106.6046,-106.6046,96.1781,96.1781,0.0000,-0.0939,13731.7722,0.0000,0.0094,0.0094,0.9062,0.9062,0.0000,0.0000,1.6875,13.9254,0.0000,0.0000,13.9530,-0.0277,-0.5101
0.5000,accel,0.0131,0.0000,0.0000,0.3695,0.1463,0.0000,0.0000,0.3333,0.0000,0.0000,1,1376.3412,3235.2336,3235.2336,3631.7895,3631.7895,-0.0016,-0.0016,-0.4942,-0.4942,0.0000,0.0000,0.0000,0.0000,-146.2190,-146.2190,-3521.5970,-3521.5970,0.0000,0.0000,0.0000,0.0000,0.0000,-0.3868,-0.3868,5.9470,5.9470,-140.7740,-140.7740,141.4883,141.4883,0.0000,-0.1396,13734.0461,0.0000,0.0452,0.0452,0.9697,0.9697,0.0000,0.0000,2.1731,17.4837,0.0000,0.0000,17.5203,-0.0366,-1.0047
0.6000,accel,0.0298,0.0000,0.0000,0.5875,0.2446,0.0000,0.0000,0.4000,0.0000,0.0000,1,1453.6756,2980.1305,2980.1305,3889.0541,3889.0541,-0.1209,-0.1209,-0.3292,-0.3292,0.0000,0.0000,0.0000,0.0000,-3013.1798,-3013.1798,-3827.8055,-3827.8055,0.0000,0.0000,0.0000,0.0000,0.0000,-1.7919,-1.7919,7.8362,7.8362,-203.6259,-203.6259,225.4987,225.4987,0.0000,-0.2122,13738.3692,0.0000,1.0111,1.0111,0.9843,0.9843,0.0000,0.0000,2.4948,21.0467,0.0000,0.0000,21.0867,-0.0400,-1.3297
0.7000,accel,0.0539,0.0000,0.0000,0.9459,0.2530,0.0000,0.0000,0.4667,0.0000,0.0000,1,1828.7090,4694.0466,4694.0466,2178.2045,2178.2045,-0.0139,-0.0139,0.9445,0.9445,0.0000,0.0000,0.0000,0.0000,-1241.6699,-1241.6699,2061.8762,2061.8762,0.0000,0.0000,0.0000,0.0000,0.0000,1.2861,1.2861,6.4076,6.4076,369.7095,369.7095,-317.5399,-317.5399,0.0000,-0.1129,13744.5023,0.0000,0.2645,0.2645,0.9466,0.9466,0.0000,0.0000,3.3579,24.3038,0.0000,0.0000,24.3330,-0.0293,-2.1821
0.8000,accel,0.0931,0.0000,0.0000,1.5177,0.4292,0.0000,0.0000,0.5333,0.0000,0.0000,1,1897.2368,3616.4544,3616.4544,3246.7074,3246.7074,-0.2946,-0.2946,0.9096,0.9096,0.0000,0.0000,0.0000,0.0000,-3597.7286,-3597.7286,2960.1455,2960.1455,0.0000,0.0000,0.0000,0.0000,0.0000,-2.6736,-2.6736,7.8194,7.8194,-15.5268,-15.5268,-22.3455,-22.3455,0.0000,-0.2312,13726.3236,0.0000,0.9948,0.9948,0.9117,0.9117,0.0000,0.0000,3.7012,28.2737,0.0000,0.0000,28.2334,0.0403,-2.4558
0.9000,accel,0.1455,0.0000,0.0000,2.2345,0.6188,0.0000,0.0000,0.6000,0.0000,0.0000,1,1682.2613,3518.7009,3518.7009,3344.0931,3344.0931,-0.0621,-0.0621,0.6885,0.6885,0.0000,0.0000,0.0000,0.0000,-2942.1462,-2942.1462,3102.7075,3102.7075,0.0000,0.0000,0.0000,0.0000,0.0000,-5.0110,-5.0110,10.7376,10.7376,-26.7690,-26.7690,-15.3773,-15.3773,0.0000,-0.3470,13725.5881,0.0000,0.8361,0.8361,0.9278,0.9278,0.0000,0.0000,3.4431,32.0907,0.0000,0.0000,31.9221,0.1685,-2.0696
1.0000,accel,0.2257,0.0000,0.0000,3.4934,0.8926,0.0000,0.0000,0.6667,0.0000,0.0000,1,1739.3253,3885.5331,3885.5331,2981.2259,2981.2259,0.1929,0.1929,0.8561,0.8561,0.0000,0.0000,0.0000,0.0000,3778.1119,3778.1119,2754.8028,2754.8028,0.0000,0.0000,0.0000,0.0000,0.0000,-7.6643,-7.6643,13.7221,13.7221,135.7659,135.7659,-140.3982,-140.3982,0.0000,-0.4713,13733.5179,0.0000,0.9724,0.9724,0.9241,0.9241,0.0000,0.0000,3.6606,35.3687,0.0000,0.0000,34.8356,0.5331,-1.9224
1.1000,accel,0.3267,0.0000,0.0000,4.0529,1.1131,0.0000,0.0000,0.7333,0.0000,0.0000,1,1881.9224,2676.2174,2676.2174,4193.4812,4193.4812,-0.4112,-0.4112,0.7694,0.7694,0.0000,0.0000,0.0000,0.0000,-2701.8106,-2701.8106,3772.7586,3772.7586,0.0000,0.0000,0.0000,0.0000,0.0000,-7.0805,-7.0805,14.9939,14.9939,-252.7321,-252.7321,275.5884,275.5884,0.0000,-0.4864,13739.3973,0.0000,1.0096,1.0096,0.8997,0.8997,0.0000,0.0000,4.4311,38.8927,0.0001,0.0000,38.1593,0.7333,-2.4928
1.2000,accel,0.4477,0.0000,0.0000,4.3782,1.2091,0.0000,0.0000,0.8000,0.0000,0.0000,1,2185.9369,3859.0370,3859.0370,3007.2267,3007.2267,0.4963,0.4963,-0.1117,-0.1117,0.0000,0.0000,0.0000,0.0000,3602.9782,3602.9782,-3009.6493,-3009.6493,0.0000,0.0000,0.0000,0.0000,0.0000,-4.0910,-4.0910,9.2944,9.2944,89.3944,89.3944,-101.3842,-101.3842,0.0000,-0.2950,13732.5275,0.0000,0.9336,0.9336,1.0008,1.0008,0.0000,0.0000,6.3501,43.0358,0.0002,0.0000,42.1572,0.8784,-4.2666
1.3000,accel,0.5846,0.0000,0.0000,5.5855,1.5370,0.0000,0.0000,0.8667,0.0000,0.0000,1,2244.6543,2605.8159,2605.8159,4266.7389,4266.7389,-0.1590,-0.1590,0.5863,0.5863,0.0000,0.0000,0.0000,0.0000,-2678.6938,-2678.6938,3902.9614,3902.9614,0.0000,0.0000,0.0000,0.0000,0.0000,-10.1112,-10.1112,15.6849,15.6849,-251.2462,-251.2462,297.8825,297.8825,0.0000,-0.5685,13745.1096,0.0000,1.0280,1.0280,0.9147,0.9147,0.0000,0.0000,7.1764,47.4806,0.0003,0.0000,45.9694,1.5109,-4.4604
1.4000,accel,0.7571,0.0000,0.0000,6.9100,1.8398,0.0000,0.0000,0.9333,0.0000,0.0000,1,2494.8567,3550.8279,3550.8279,3314.6707,3314.6707,0.3370,0.3370,0.1855,0.1855,0.0000,0.0000,0.0000,0.0000,3415.8450,3415.8450,3276.4209,3276.4209,0.0000,0.0000,0.0000,0.0000,0.0000,-11.4931,-11.4931,16.6883,16.6883,40.0187,40.0187,-66.4778,-66.4778,0.0000,-0.6210,13730.9971,0.0000,0.9620,0.9620,0.9885,0.9885,0.0000,0.0000,8.9919,52.4306,0.0005,0.0000,50.0431,2.3870,-5.3999
1.5000,accel,0.9653,0.0000,0.0000,7.9748,2.1510,0.0000,0.0000,1.0000,0.0000,0.0000,1,2850.5794,3881.9774,3881.9774,2987.1904,2987.1904,0.3077,0.3077,0.0343,0.0343,0.0000,0.0000,0.0000,0.0000,3717.3204,3717.3204,1682.1504,1682.1504,0.0000,0.0000,0.0000,0.0000,0.0000,-10.5870,-10.5870,16.4133,16.4133,163.3450,163.3450,-158.1579,-158.1579,0.0000,-0.5950,13738.3355,0.0000,0.9576,0.9576,0.5631,0.5631,0.0000,0.0000,11.8375,57.2091,0.0010,0.0000,53.9842,3.2239,-7.4086
1.6000,accel,1.2100,0.0000,0.0000,9.5817,2.5842,0.0000,0.0000,1.0000,0.0000,0.0000,1,2971.9033,3756.8708,3756.8708,3112.4891,3112.4891,0.3818,0.3818,0.0959,0.0959,0.0000,0.0000,0.0000,0.0000,3569.9922,3569.9922,2933.1039,2933.1039,0.0000,0.0000,0.0000,0.0000,0.0000,-14.1083,-14.1083,20.0850,20.0850,148.3947,148.3947,-148.7136,-148.7136,0.0000,-0.7535,13738.7199,0.0000,0.9503,0.9503,0.9424,0.9424,0.0000,0.0000,14.0905,63.0269,0.0017,0.0000,58.2994,4.7258,-8.1596
1.7000,accel,1.4955,0.0000,0.0000,10.9695,3.0309,0.0000,0.0000,1.0000,0.0000,0.0000,1,3168.0388,2568.4779,2568.4779,4304.3704,4304.3704,-0.3455,-0.3455,0.4587,0.4587,0.0000,0.0000,0.0000,0.0000,-2627.2470,-2627.2470,3992.8683,3992.8683,0.0000,0.0000,0.0000,0.0000,0.0000,-16.6828,-16.6828,22.8985,22.8985,-215.2609,-215.2609,240.1969,240.1969,0.0000,-0.8722,13745.6967,0.0000,1.0229,1.0229,0.9276,0.9276,0.0000,0.0000,17.2782,69.3354,0.0028,0.0000,63.0845,6.2482,-9.8249
1.8000,accel,1.8210,0.0000,0.0000,12.5180,3.3987,0.0000,0.0000,1.0000,0.0000,0.0000,1,3385.1023,3630.6217,3630.6217,3239.3585,3239.3585,0.2157,0.2157,0.5823,0.5823,0.0000,0.0000,0.0000,0.0000,3547.6445,3547.6445,3048.6292,3048.6292,0.0000,0.0000,0.0000,0.0000,0.0000,-15.6953,-15.6953,21.8373,21.8373,113.4785,113.4785,-125.2892,-125.2892,0.0000,-0.8271,13739.9604,0.0000,0.9771,0.9771,0.9411,0.9411,0.0000,0.0000,21.2879,76.7144,0.0044,0.0000,68.5220,8.1879,-11.8949
1.9000,accel,2.1939,0.0000,0.0000,14.2886,3.8899,0.0000,0.0000,1.0000,0.0000,0.0000,1,3647.0294,3407.8883,3407.8883,3461.9101,3461.9101,0.1426,0.1426,0.3939,0.3939,0.0000,0.0000,0.0000,0.0000,3340.7949,3340.7949,3311.5116,3311.5116,0.0000,0.0000,0.0000,0.0000,0.0000,-18.1938,-18.1938,23.7720,23.7720,49.1601,49.1601,-75.7474,-75.7474,0.0000,-0.9248,13739.5969,0.0000,0.9803,0.9803,0.9566,0.9566,0.0000,0.0000,25.2100,83.4002,0.0069,0.0000,72.6631,10.7302,-13.2747
2.0000,accel,2.6154,0.0000,0.0000,15.9762,4.3942,0.0000,0.0000,1.0000,0.0000,0.0000,1,3956.0024,3553.9497,3553.9497,3319.7900,3319.7900,0.0093,0.0093,0.6248,0.6248,0.0000,0.0000,0.0000,0.0000,566.5790,566.5790,3102.4752,3102.4752,0.0000,0.0000,0.0000,0.0000,0.0000,-19.8429,-19.8429,25.1962,25.1962,123.8298,123.8298,-126.7894,-126.7894,0.0000,-0.9925,13747.4794,0.0000,0.1594,0.1594,0.9345,0.9345,0.0000,0.0000,29.9396,90.6733,0.0104,0.0000,77.1928,13.4701,-15.2644
2.1000,accel,3.0856,0.0000,0.0000,17.7759,4.8589,0.0000,0.0000,1.0000,0.0000,0.0000,1,3910.1715,3597.6568,3597.6568,3278.2565,3278.2565,0.2073,0.2073,0.5160,0.5160,0.0000,0.0000,0.0000,0.0000,3521.7589,3521.7589,3104.5995,3104.5995,0.0000,0.0000,0.0000,0.0000,0.0000,-19.4155,-19.4155,24.4980,24.4980,136.7855,136.7855,-133.9399,-133.9399,0.0000,-0.9677,13751.8266,0.0000,0.9789,0.9789,0.9470,0.9470,0.0000,0.0000,34.3989,100.0393,0.0153,0.0000,83.2953,16.7287,-16.4652
2.2000,accel,3.6052,0.0000,0.0000,19.5681,5.3574,0.0000,0.0000,1.0000,0.0000,0.0000,1,4344.8503,3643.6240,3643.6240,3234.6688,3234.6688,0.1492,0.1492,0.0933,0.0933,0.0000,0.0000,0.0000,0.0000,3554.9814,3554.9814,3018.3137,3018.3137,0.0000,0.0000,0.0000,0.0000,0.0000,-19.7954,-19.7954,25.0720,25.0720,158.6714,158.6714,-150.8144,-150.8144,0.0000,-0.9887,13756.5854,0.0000,0.9757,0.9757,0.9331,0.9331,0.0000,0.0000,40.4403,107.2255,0.0219,0.0000,86.8817,20.3218,-18.9135
2.3000,accel,4.1744,0.0000,0.0000,21.3544,5.8640,0.0000,0.0000,1.0000,0.0000,0.0000,1,4348.3646,3568.3496,3568.3496,3311.2224,3311.2224,0.0500,0.0500,0.5044,0.5044,0.0000,0.0000,0.0000,0.0000,2562.2435,2562.2435,3136.9156,3136.9156,0.0000,0.0000,0.0000,0.0000,0.0000,-20.3562,-20.3562,25.7204,25.7204,133.8354,133.8354,-133.9316,-133.9316,0.0000,-1.0154,13759.1439,0.0000,0.7180,0.7180,0.9474,0.9474,0.0000,0.0000,46.2420,117.7410,0.0307,0.0000,93.4611,24.2492,-20.7878
2.4000,accel,4.7926,0.0000,0.0000,23.1356,6.3542,0.0000,0.0000,1.0000,0.0000,0.0000,1,4711.7806,3512.7966,3512.7966,3368.2938,3368.2938,0.0624,0.0624,0.3606,0.3606,0.0000,0.0000,0.0000,0.0000,2838.0708,2838.0708,3246.2660,3246.2660,0.0000,0.0000,0.0000,0.0000,0.0000,-20.3348,-20.3348,25.6998,25.6998,111.0486,111.0486,-117.8552,-117.8552,0.0000,-1.0145,13762.1809,0.0000,0.8079,0.8079,0.9638,0.9638,0.0000,0.0000,53.1337,126.3512,0.0418,0.0000,97.8013,28.5080,-23.4206
2.5000,accel,5.4604,0.0000,0.0000,24.9168,6.8441,0.0000,0.0000,1.0000,0.0000,0.0000,1,5062.3238,3610.2489,3610.2489,3274.3352,3274.3352,0.0872,0.0872,0.1424,0.1424,0.0000,0.0000,0.0000,0.0000,3277.8002,3277.8002,3222.7175,3222.7175,0.0000,0.0000,0.0000,0.0000,0.0000,-20.1952,-20.1952,25.5547,25.5547,148.2528,148.2528,-144.0719,-144.0719,0.0000,-1.0082,13769.1682,0.0000,0.9079,0.9079,0.9842,0.9842,0.0000,0.0000,60.6179,135.5451,0.0559,0.0000,102.3797,33.1095,-26.3034
2.6000,accel,6.1776,0.0000,0.0000,26.6989,7.3402,0.0000,0.0000,1.0000,0.0000,0.0000,1,5042.3072,3602.1804,3602.1804,3284.9283,3284.9283,0.0886,0.0886,0.4668,0.4668,0.0000,0.0000,0.0000,0.0000,3284.9427,3284.9427,3128.8524,3128.8524,0.0000,0.0000,0.0000,0.0000,0.0000,-20.2903,-20.2903,25.6246,25.6246,145.5629,145.5629,-141.9879,-141.9879,0.0000,-1.0118,13774.2174,0.0000,0.9119,0.9119,0.9525,0.9525,0.0000,0.0000,67.5503,147.7528,0.0733,0.0000,109.6228,38.0567,-28.2886
2.7000,accel,6.9444,0.0000,0.0000,28.4828,7.8355,0.0000,0.0000,1.0000,0.0000,0.0000,1,5356.8867,3589.1814,3589.1814,3300.5230,3300.5230,0.0837,0.0837,0.3293,0.3293,0.0000,0.0000,0.0000,0.0000,3224.5368,3224.5368,3202.4262,3202.4262,0.0000,0.0000,0.0000,0.0000,0.0000,-20.3105,-20.3105,25.6504,25.6504,140.1235,140.1235,-138.1902,-138.1902,0.0000,-1.0128,13779.4088,0.0000,0.8984,0.8984,0.9703,0.9703,0.0000,0.0000,75.3242,157.5618,0.0946,0.0000,114.1150,43.3522,-30.7669
2.8000,accel,7.7608,0.0000,0.0000,30.2690,8.3317,0.0000,0.0000,1.0000,0.0000,0.0000,1,5647.2074,3610.1043,3610.1043,3282.7785,3282.7785,0.0806,0.0806,0.1354,0.1354,0.0000,0.0000,0.0000,0.0000,3205.3997,3205.3997,3220.5586,3220.5586,0.0000,0.0000,0.0000,0.0000,0.0000,-20.3261,-20.3261,25.6803,25.6803,148.1766,148.1766,-143.9789,-143.9789,0.0000,-1.0138,13785.7655,0.0000,0.8879,0.8879,0.9810,0.9810,0.0000,0.0000,83.5266,167.8971,0.1203,0.0000,118.7777,48.9991,-33.3224
2.9000,accel,8.6270,0.0000,0.0000,32.0623,8.8329,0.0000,0.0000,1.0000,0.0000,0.0000,1,5568.8263,3585.4696,3585.4696,3310.3301,3310.3301,0.0683,0.0683,0.4211,0.4211,0.0000,0.0000,0.0000,0.0000,3005.9892,3005.9892,3169.1868,3169.1868,0.0000,0.0000,0.0000,0.0000,0.0000,-20.5211,-20.5211,25.8658,25.8658,139.7673,139.7673,-137.9738,-137.9738,0.0000,-1.0222,13791.5994,0.0000,0.8384,0.8384,0.9574,0.9574,0.0000,0.0000,91.0588,181.4648,0.1510,0.0000,126.2981,55.0157,-34.8380
3.0000,accel,9.5430,0.0000,0.0000,33.8526,9.3315,0.0000,0.0000,1.0000,0.0000,0.0000,1,5830.1620,3566.2328,3566.2328,3332.6657,3332.6657,0.0598,0.0598,0.2836,0.2836,0.0000,0.0000,0.0000,0.0000,2818.6089,2818.6089,3253.2813,3253.2813,0.0000,0.0000,0.0000,0.0000,0.0000,-20.5757,-20.5757,25.9194,25.9194,132.0861,132.0861,-132.5457,-132.5457,0.0000,-1.0246,13797.7970,0.0000,0.7904,0.7904,0.9762,0.9762,0.0000,0.0000,99.4787,192.1792,0.1872,0.0000,130.6236,61.3684,-36.9052
3.1000,accel,10.5089,0.0000,0.0000,35.6378,9.8304,0.0000,0.0000,1.0000,0.0000,0.0000,1,6071.1232,3580.6947,3580.6947,3321.8789,3321.8789,0.0563,0.0563,0.0907,0.0907,0.0000,0.0000,0.0000,0.0000,2744.3105,2744.3105,3071.3561,3071.3561,0.0000,0.0000,0.0000,0.0000,0.0000,-20.6214,-20.6214,25.9765,25.9765,137.7658,137.7658,-136.6380,-136.6380,0.0000,-1.0269,13805.1472,0.0000,0.7664,0.7664,0.9246,0.9246,0.0000,0.0000,108.3259,203.3623,0.2298,0.0000,135.0846,68.0480,-39.0729
3.2000,accel,11.5244,0.0000,0.0000,37.4280,10.3282,0.0000,0.0000,1.0000,0.0000,0.0000,1,5946.9747,3558.6143,3558.6143,3347.3953,3347.3953,0.0501,0.0501,0.3730,0.3730,0.0000,0.0000,0.0000,0.0000,2556.5688,2556.5688,3222.4281,3222.4281,0.0000,0.0000,0.0000,0.0000,0.0000,-20.6649,-20.6649,25.9968,25.9968,128.7781,128.7781,-130.1248,-130.1248,0.0000,-1.0283,13812.0191,0.0000,0.7184,0.7184,0.9627,0.9627,0.0000,0.0000,116.4647,217.9838,0.2792,0.0000,142.6126,75.0920,-40.1676
3.3000,accel,12.5894,0.0000,0.0000,39.1891,10.8210,0.0000,0.0000,1.0000,0.0000,0.0000,1,6280.5676,3567.8903,3567.8903,3342.0802,3342.0802,0.0517,0.0517,0.0708,0.0708,0.0000,0.0000,0.0000,0.0000,2611.1220,2611.1220,2861.0785,2861.0785,0.0000,0.0000,0.0000,0.0000,0.0000,-20.5901,-20.5901,25.8431,25.8431,131.1277,131.1277,-131.2019,-131.2019,0.0000,-1.0232,13819.9409,0.0000,0.7318,0.7318,0.8561,0.8561,0.0000,0.0000,125.8615,228.3090,0.3362,0.0000,145.6133,82.3595,-42.2969
3.4000,accel,13.7034,0.0000,0.0000,40.8778,11.3140,0.0000,0.0000,1.0000,0.0000,0.0000,1,6385.6304,3554.2567,3554.2567,3359.6237,3359.6237,0.0476,0.0476,0.0169,0.0169,0.0000,0.0000,0.0000,0.0000,2476.3381,2476.3381,992.4851,992.4851,0.0000,0.0000,0.0000,0.0000,0.0000,-20.6343,-20.6343,25.7965,25.7965,125.4748,125.4748,-126.5443,-126.5443,0.0000,-1.0232,13827.7607,0.0000,0.6967,0.6967,0.2954,0.2954,0.0000,0.0000,135.0243,240.7944,0.4014,0.0000,150.7486,89.6444,-44.1749
3.5000,accel,14.8625,0.0000,0.0000,42.3537,11.6987,0.0000,0.0000,1.0000,0.0000,0.0000,2,6610.8169,4751.7258,4751.7258,2177.8687,2177.8687,0.0538,0.0538,0.0982,0.0982,0.0000,0.0000,0.0000,0.0000,3453.5724,3453.5724,2138.5188,2138.5188,0.0000,0.0000,0.0000,0.0000,0.0000,-16.5867,-16.5867,22.6067,22.6067,563.4655,563.4655,-441.9616,-441.9616,0.0000,-0.8637,13859.1890,0.0000,0.7268,0.7268,0.9819,0.9819,0.0000,0.0000,143.3553,249.0766,0.4749,0.0000,152.3454,96.2563,-45.8940
3.6000,accel,16.0359,0.0000,0.0000,42.3580,11.7082,0.0000,0.0000,1.0000,0.0000,0.0000,2,6610.8169,4394.1292,4394.1292,2525.5040,2525.5040,0.0661,0.0661,0.0312,0.0312,0.0000,0.0000,0.0000,0.0000,3558.9784,3558.9784,1342.2912,1342.2912,0.0000,0.0000,0.0000,0.0000,0.0000,-3.7796,-3.7796,12.3373,12.3373,292.3436,292.3436,-269.2985,-269.2985,0.0000,-0.3552,13839.2664,0.0000,0.8099,0.8099,0.5315,0.5315,0.0000,0.0000,143.2778,249.0766,0.5511,0.0000,152.2751,96.2504,-45.8224
3.7000,accel,17.2089,0.0000,0.0000,42.2864,11.7097,0.0000,0.0000,1.0000,0.0000,0.0000,2,6709.6793,4504.3007,4504.3007,2413.9408,2413.9408,0.0152,0.0152,0.0571,0.0571,0.0000,0.0000,0.0000,0.0000,1159.3652,1159.3652,1939.6353,1939.6353,0.0000,0.0000,0.0000,0.0000,0.0000,1.8638,1.8638,8.0571,8.0571,279.9759,279.9759,-270.6034,-270.6034,0.0000,-0.1365,13836.4829,0.0000,0.2574,0.2574,0.8035,0.8035,0.0000,0.0000,144.4801,249.0766,0.6272,0.0000,152.5537,95.8957,-47.3794
3.8000,accel,18.3891,0.0000,0.0000,42.9932,11.8848,0.0000,0.0000,1.0000,0.0000,0.0000,2,6912.4292,3688.9578,3688.9578,3224.3365,3224.3365,0.0534,0.0534,0.0437,0.0437,0.0000,0.0000,0.0000,0.0000,2740.4675,2740.4675,2147.1154,2147.1154,0.0000,0.0000,0.0000,0.0000,0.0000,-2.9432,-2.9432,10.4052,10.4052,1.6657,1.6657,-56.0942,-56.0942,0.0000,-0.2942,13826.5887,0.0000,0.7429,0.7429,0.6659,0.6659,0.0000,0.0000,150.9277,253.0386,0.7048,0.0000,153.1970,99.1368,-50.5858
3.9000,accel,19.6072,0.0000,0.0000,44.7091,12.3522,0.0000,0.0000,1.0000,0.0000,0.0000,2,6030.8507,3530.6765,3530.6765,3388.9180,3388.9180,0.0463,0.0463,0.1102,0.1102,0.0000,0.0000,0.0000,0.0000,2421.1854,2421.1854,3244.4292,3244.4292,0.0000,0.0000,0.0000,0.0000,0.0000,-12.7244,-12.7244,18.7058,18.7058,35.4990,35.4990,-69.0746,-69.0746,0.0000,-0.6926,13839.1889,0.0000,0.6858,0.6858,0.9574,0.9574,0.0000,0.0000,148.4376,262.9117,0.7900,0.0000,154.8754,107.2463,-39.9863
4.0000,accel,20.8749,0.0000,0.0000,46.5037,12.8512,0.0000,0.0000,1.0000,0.0000,0.0000,2,5244.0794,3525.7427,3525.7427,3400.3595,3400.3595,0.0445,0.0445,0.1139,0.1139,0.0000,0.0000,0.0000,0.0000,2357.3149,2357.3149,3268.7258,3268.7258,0.0000,0.0000,0.0000,0.0000,0.0000,-17.5781,-17.5781,22.8823,22.8823,81.3234,81.3234,-96.4299,-96.4299,0.0000,-0.8916,13852.2044,0.0000,0.6686,0.6686,0.9613,0.9613,0.0000,0.0000,148.9387,273.5084,0.8861,0.0000,156.5545,116.0678,-31.6659
4.1000,accel,22.1925,0.0000,0.0000,48.2995,13.3507,0.0000,0.0000,1.0000,0.0000,0.0000,2,4529.8350,3518.7942,3518.7942,3412.9225,3412.9225,0.0427,0.0427,0.1145,0.1145,0.0000,0.0000,0.0000,0.0000,2286.1802,2286.1802,3281.7906,3281.7906,0.0000,0.0000,0.0000,0.0000,0.0000,-19.7059,-19.7059,24.6496,24.6496,99.0521,99.0521,-106.2884,-106.2884,0.0000,-0.9775,13863.4334,0.0000,0.6497,0.6497,0.9616,0.9616,0.0000,0.0000,151.6606,284.5341,0.9940,0.0000,158.2968,125.2433,-25.2123
4.2000,accel,23.5599,0.0000,0.0000,50.0942,13.8501,0.0000,0.0000,1.0000,0.0000,0.0000,2,3807.6222,3509.3266,3509.3266,3427.7142,3427.7142,0.0406,0.0406,0.1144,0.1144,0.0000,0.0000,0.0000,0.0000,2204.8341,2204.8341,3294.3275,3294.3275,0.0000,0.0000,0.0000,0.0000,0.0000,-20.6685,-20.6685,25.3737,25.3737,104.0927,104.0927,-108.0901,-108.0901,0.0000,-1.0146,13874.0816,0.0000,0.6283,0.6283,0.9611,0.9611,0.0000,0.0000,155.6853,295.9745,1.1147,0.0000,160.0978,134.7621,-19.7182
4.3000,accel,24.9769,0.0000,0.0000,51.8230,14.3321,0.0000,0.0000,1.0000,0.0000,0.0000,2,3125.8108,3573.9961,3573.9961,3368.9647,3368.9647,0.0438,0.0438,0.0792,0.0792,0.0000,0.0000,0.0000,0.0000,2358.4603,2358.4603,2996.8018,2996.8018,0.0000,0.0000,0.0000,0.0000,0.0000,-20.5400,-20.5400,24.9602,24.9602,127.8766,127.8766,-122.7779,-122.7779,0.0000,-1.0027,13885.9216,0.0000,0.6599,0.6599,0.8895,0.8895,0.0000,0.0000,160.5740,306.8536,1.2489,0.0000,161.3437,144.2610,-15.1079
4.4000,accel,26.4236,0.0000,0.0000,52.6413,14.5584,0.0000,0.0000,1.0000,0.0000,0.0000,2,3359.4282,3521.9428,3521.9428,3420.2573,3420.2573,0.0395,0.0395,0.1118,0.1118,0.0000,0.0000,0.0000,0.0000,2167.1327,2167.1327,3277.7340,3277.7340,0.0000,0.0000,0.0000,0.0000,0.0000,-13.8734,-13.8734,18.9953,18.9953,40.0052,40.0052,-65.9281,-65.9281,0.0000,-0.7243,13884.4003,0.0000,0.6153,0.6153,0.9583,0.9583,0.0000,0.0000,167.2619,313.4354,1.3917,0.0000,163.1747,148.8690,-17.1879
4.5000,accel,27.9004,0.0000,0.0000,53.3919,14.7730,0.0000,0.0000,1.0000,0.0000,0.0000,2,3631.5836,4569.8939,4569.8939,2384.0519,2384.0519,0.0348,0.0348,0.1679,0.1679,0.0000,0.0000,0.0000,0.0000,2493.1637,2493.1637,2435.7767,2435.7767,0.0000,0.0000,0.0000,0.0000,0.0000,-7.9050,-7.9050,14.7643,14.7643,399.1312,399.1312,-332.1624,-332.1624,0.0000,-0.4996,13907.8915,0.0000,0.5456,0.5456,1.0217,1.0217,0.0000,0.0000,174.3251,319.9433,1.5436,0.0000,165.2523,153.1474,-19.9727
4.6000,accel,29.4016,0.0000,0.0000,54.8492,15.1804,0.0000,0.0000,1.0000,0.0000,0.0000,2,3377.2411,3472.1399,3472.1399,3476.1118,3476.1118,0.0345,0.0345,0.0610,0.0610,0.0000,0.0000,0.0000,0.0000,1934.2319,1934.2319,2782.0545,2782.0545,0.0000,0.0000,0.0000,0.0000,0.0000,-13.9125,-13.9125,19.2046,19.2046,19.3868,19.3868,-52.6301,-52.6301,0.0000,-0.7298,13896.5034,0.0000,0.5571,0.5571,0.8003,0.8003,0.0000,0.0000,180.5136,329.5498,1.7032,0.0000,166.1943,161.6523,-17.6563
4.7000,accel,30.9349,0.0000,0.0000,55.5362,15.3823,0.0000,0.0000,1.0000,0.0000,0.0000,2,3851.2185,3533.9885,3533.9885,3415.1026,3415.1026,0.0326,0.0326,0.0346,0.0346,0.0000,0.0000,0.0000,0.0000,1877.6065,1877.6065,1910.3296,1910.3296,0.0000,0.0000,0.0000,0.0000,0.0000,-9.0880,-9.0880,15.4974,15.4974,-3.2011,-3.2011,-43.9702,-43.9702,0.0000,-0.5418,13898.1822,0.0000,0.5313,0.5313,0.5594,0.5594,0.0000,0.0000,188.2135,335.2596,1.8733,0.0000,167.6556,165.7307,-21.2777
4.8000,accel,32.4988,0.0000,0.0000,56.8199,15.7120,0.0000,0.0000,1.0000,0.0000,0.0000,2,3853.4181,3747.4938,3747.4938,3209.4847,3209.4847,0.0573,0.0573,0.1429,0.1429,0.0000,0.0000,0.0000,0.0000,2884.4893,2884.4893,3165.9003,3165.9003,0.0000,0.0000,0.0000,0.0000,0.0000,-10.9695,-10.9695,15.8603,15.8603,99.1330,99.1330,-105.9558,-105.9558,0.0000,-0.5912,13913.9571,0.0000,0.7697,0.7697,0.9864,0.9864,0.0000,0.0000,195.1805,343.6271,2.0536,0.0000,168.0658,173.5077,-20.4678
4.9000,accel,34.0909,0.0000,0.0000,58.0908,16.0783,0.0000,0.0000,1.0000,0.0000,0.0000,2,3519.1153,3508.5722,3508.5722,3450.7363,3450.7363,0.0327,0.0327,0.0794,0.0794,0.0000,0.0000,0.0000,0.0000,1874.2279,1874.2279,3063.9441,3063.9441,0.0000,0.0000,0.0000,0.0000,0.0000,-13.9597,-13.9597,18.8023,18.8023,32.7819,32.7819,-58.7748,-58.7748,0.0000,-0.7220,13918.6171,0.0000,0.5342,0.5342,0.8879,0.8879,0.0000,0.0000,201.8375,353.9912,2.2440,0.0000,170.3688,181.3784,-19.2540
5.0000,accel,35.7120,0.0000,0.0000,58.8983,16.3024,0.0000,0.0000,1.0000,0.0000,0.0000,2,3811.5017,3456.8047,3456.8047,3503.2259,3503.2259,0.0293,0.0293,0.0967,0.0967,0.0000,0.0000,0.0000,0.0000,1690.1540,1690.1540,3267.5069,3267.5069,0.0000,0.0000,0.0000,0.0000,0.0000,-10.5552,-10.5552,16.6666,16.6666,-15.9979,-15.9979,-28.9804,-28.9804,0.0000,-0.5999,13920.0612,0.0000,0.4889,0.4889,0.9327,0.9327,0.0000,0.0000,209.7464,361.2047,2.4450,0.0000,172.3006,186.4592,-22.0822
5.1000,accel,37.3629,0.0000,0.0000,59.9564,16.5975,0.0000,0.0000,1.0000,0.0000,0.0000,2,3870.9050,3448.5630,3448.5630,3516.0861,3516.0861,0.0255,0.0255,0.1134,0.1134,0.0000,0.0000,0.0000,0.0000,1493.1594,1493.1594,3366.8294,3366.8294,0.0000,0.0000,0.0000,0.0000,0.0000,-11.4593,-11.4593,16.1869,16.1869,-12.3027,-12.3027,-22.4909,-22.4909,0.0000,-0.6092,13929.2982,0.0000,0.4330,0.4330,0.9576,0.9576,0.0000,0.0000,217.4598,369.9856,2.6572,0.0000,174.0862,193.2422,-23.0125
5.2000,accel,39.0471,0.0000,0.0000,61.0046,16.8970,0.0000,0.0000,1.0000,0.0000,0.0000,2,4026.1213,3661.2605,3661.2605,3309.3480,3309.3480,0.0447,0.0447,0.0314,0.0314,0.0000,0.0000,0.0000,0.0000,2443.1256,2443.1256,1719.4170,1719.4170,0.0000,0.0000,0.0000,0.0000,0.0000,-10.9766,-10.9766,15.1721,15.1721,62.4382,62.4382,-74.9427,-74.9427,0.0000,-0.5762,13941.2169,0.0000,0.6673,0.6673,0.5196,0.5196,0.0000,0.0000,225.4097,377.9879,2.8825,0.0000,175.0246,200.0808,-24.1238
5.3000,accel,40.7611,0.0000,0.0000,62.1720,17.2037,0.0000,0.0000,1.0000,0.0000,0.0000,2,4184.1054,3670.6114,3670.6114,3304.4241,3304.4241,0.0431,0.0431,0.1381,0.1381,0.0000,0.0000,0.0000,0.0000,2392.6739,2392.6739,3243.6640,3243.6640,0.0000,0.0000,0.0000,0.0000,0.0000,-11.2762,-11.2762,14.9457,14.9457,68.5596,68.5596,-75.3916,-75.3916,0.0000,-0.5778,13950.0710,0.0000,0.6518,0.6518,0.9816,0.9816,0.0000,0.0000,233.5753,386.2818,3.1200,0.0000,175.3245,207.8373,-24.5329
5.4000,accel,42.5037,0.0000,0.0000,63.4467,17.5786,0.0000,0.0000,1.0000,0.0000,0.0000,2,3832.3957,3455.9147,3455.9147,3522.2833,3522.2833,0.0238,0.0238,0.0484,0.0484,0.0000,0.0000,0.0000,0.0000,1409.1825,1409.1825,2481.1007,2481.1007,0.0000,0.0000,0.0000,0.0000,0.0000,-14.4500,-14.4500,18.1013,18.1013,13.6518,13.6518,-36.5073,-36.5073,0.0000,-0.7173,13956.3959,0.0000,0.4078,0.4078,0.7044,0.7044,0.0000,0.0000,241.0527,397.9782,3.3696,0.0000,178.1370,216.4715,-23.3761
5.5000,accel,44.2777,0.0000,0.0000,64.4014,17.8862,0.0000,0.0000,1.0000,0.0000,0.0000,2,3975.0697,3391.2995,3391.2995,3590.6042,3590.6042,0.0193,0.0193,-0.0113,-0.0113,0.0000,0.0000,0.0000,0.0000,1141.0205,1141.0205,-808.5380,-808.5380,0.0000,0.0000,0.0000,0.0000,0.0000,-14.5853,-14.5853,18.0974,18.0974,-8.2018,-8.2018,-17.6462,-17.6462,0.0000,-0.7202,13963.8074,0.0000,0.3365,0.3365,0.2252,0.2252,0.0000,0.0000,249.5891,406.8017,3.6329,0.0000,180.1135,223.0553,-25.3288
5.6000,accel,46.0757,0.0000,0.0000,65.2958,18.0824,0.0000,0.0000,1.0000,0.0000,0.0000,2,4267.3941,3385.7182,3385.7182,3598.3935,3598.3935,0.0207,0.0207,0.1439,0.1439,0.0000,0.0000,0.0000,0.0000,1215.4856,1215.4856,3509.7410,3509.7410,0.0000,0.0000,0.0000,0.0000,0.0000,-11.3474,-11.3474,15.5109,15.5109,-33.2208,-33.2208,3.6532,3.6532,0.0000,-0.5919,13968.2235,0.0000,0.3590,0.3590,0.9754,0.9754,0.0000,0.0000,258.7521,415.6480,3.9071,0.0000,182.4327,229.3081,-28.2389
5.7000,accel,47.9118,0.0000,0.0000,66.3888,18.4646,0.0000,0.0000,1.0000,0.0000,0.0000,2,4347.9550,3484.9901,3484.9901,3505.0308,3505.0308,0.0179,0.0179,-0.0633,-0.0633,0.0000,0.0000,0.0000,0.0000,1085.2943,1085.2943,-2955.4898,-2955.4898,0.0000,0.0000,0.0000,0.0000,0.0000,-13.5637,-13.5637,17.1339,17.1339,14.5422,14.5422,-36.5381,-36.5381,0.0000,-0.6765,13980.0418,0.0000,0.3114,0.3114,0.8432,0.8432,0.0000,0.0000,267.5079,425.2422,4.1990,0.0000,183.9721,237.0711,-29.2317
5.8000,accel,49.7751,0.0000,0.0000,67.8420,18.7982,0.0000,0.0000,1.0000,0.0000,0.0000,2,4142.0277,3333.4494,3333.4494,3660.5940,3660.5940,0.0122,0.0122,0.0857,0.0857,0.0000,0.0000,0.0000,0.0000,708.1595,708.1595,3303.9419,3303.9419,0.0000,0.0000,0.0000,0.0000,0.0000,-15.0208,-15.0208,18.7380,18.7380,-23.0246,-23.0246,-4.3326,-4.3326,0.0000,-0.7439,13988.0868,0.0000,0.2124,0.2124,0.9026,0.9026,0.0000,0.0000,275.9042,437.2194,4.5042,0.0000,185.1228,247.5924,-27.1067
5.9000,accel,51.6726,0.0000,0.0000,68.9290,19.1019,0.0000,0.0000,1.0000,0.0000,0.0000,2,4207.9265,3339.0180,3339.0180,3659.0566,3659.0566,0.0134,0.0134,0.0699,0.0699,0.0000,0.0000,0.0000,0.0000,783.0576,783.0576,3088.3837,3088.3837,0.0000,0.0000,0.0000,0.0000,0.0000,-14.1490,-14.1490,18.1269,18.1269,-28.1445,-28.1445,-1.1324,-1.1324,0.0000,-0.7113,13996.1492,0.0000,0.2345,0.2345,0.8440,0.8440,0.0000,0.0000,285.0254,447.2349,4.8264,0.0000,186.7999,255.6086,-28.2118
6.0000,accel,53.6014,0.0000,0.0000,70.0219,19.4055,0.0000,0.0000,1.0000,0.0000,0.0000,2,4298.8708,3302.0495,3302.0495,3701.4178,3701.4178,0.0084,0.0084,0.0916,0.0916,0.0000,0.0000,0.0000,0.0000,475.4804,475.4804,3393.3385,3393.3385,0.0000,0.0000,0.0000,0.0000,0.0000,-13.9262,-13.9262,17.3372,17.3372,-40.7889,-40.7889,22.2258,22.2258,0.0000,-0.6889,14006.9347,0.0000,0.1440,0.1440,0.9168,0.9168,0.0000,0.0000,294.3395,457.2611,5.1649,0.0000,188.2951,263.8011,-29.3334
6.1000,accel,55.5591,0.0000,0.0000,70.8245,19.6213,0.0000,0.0000,1.0000,0.0000,0.0000,2,4617.6572,3458.6037,3458.6037,3546.8760,3546.8760,0.0167,0.0167,0.1425,0.1425,0.0000,0.0000,0.0000,0.0000,1009.8265,1009.8265,3462.8425,3462.8425,0.0000,0.0000,0.0000,0.0000,0.0000,-10.1362,-10.1362,14.0967,14.0967,-23.4844,-23.4844,-5.6635,-5.6635,0.0000,-0.5340,14010.9594,0.0000,0.2920,0.2920,0.9763,0.9763,0.0000,0.0000,304.3757,466.1782,5.5187,0.0000,190.7641,269.8953,-33.2753
6.2000,accel,57.5508,0.0000,0.0000,72.1546,20.0853,0.0000,0.0000,1.0000,0.0000,0.0000,2,4482.0862,3297.0602,3297.0602,3716.2593,3716.2593,0.0030,0.0030,-0.1035,-0.1035,0.0000,0.0000,0.0000,0.0000,139.0159,139.0159,-3601.5926,-3601.5926,0.0000,0.0000,0.0000,0.0000,0.0000,-16.3500,-16.3500,19.1888,19.1888,-26.0294,-26.0294,7.2783,7.2783,0.0000,-0.7832,14026.6390,0.0000,0.0422,0.0422,0.9691,0.9691,0.0000,0.0000,313.4941,478.1690,5.8914,0.0000,192.1228,280.1548,-32.1342
6.3000,accel,59.5733,0.0000,0.0000,73.2031,20.2995,0.0000,0.0000,1.0000,0.0000,0.0000,2,4846.9741,3279.2811,3279.2811,3737.9994,3737.9994,-0.0088,-0.0088,0.1290,0.1290,0.0000,0.0000,0.0000,0.0000,-597.2882,-597.2882,3605.9536,3605.9536,0.0000,0.0000,0.0000,0.0000,0.0000,-11.8280,-11.8280,15.4320,15.4320,-63.7724,-63.7724,52.7795,52.7795,0.0000,-0.6007,14034.5610,0.0000,0.1821,0.1821,0.9647,0.9647,0.0000,0.0000,323.8392,486.6781,6.2816,0.0000,192.0196,288.3769,-34.2572
6.4000,accel,61.6260,0.0000,0.0000,74.6129,20.6910,0.0000,0.0000,1.0000,0.0000,0.0000,2,4637.6223,3413.3804,3413.3804,3608.7681,3608.7681,-0.0007,-0.0007,0.0745,0.0745,0.0000,0.0000,0.0000,0.0000,-95.7752,-95.7752,3123.5343,3123.5343,0.0000,0.0000,0.0000,0.0000,0.0000,-15.6572,-15.6572,18.6019,18.6019,1.7068,1.7068,-22.8769,-22.8769,0.0000,-0.7550,14044.2969,0.0000,0.0281,0.0281,0.8655,0.8655,0.0000,0.0000,333.1293,499.5864,6.6896,0.0000,193.2752,299.6216,-32.3026
6.5000,accel,63.7053,0.0000,0.0000,75.4962,20.9293,0.0000,0.0000,1.0000,0.0000,0.0000,2,4712.2491,3202.3262,3202.3262,3824.8079,3824.8079,0.0011,0.0011,0.1067,0.1067,0.0000,0.0000,0.0000,0.0000,18.8982,18.8982,3599.3466,3599.3466,0.0000,0.0000,0.0000,0.0000,0.0000,-13.3526,-13.3526,17.1485,17.1485,-75.9598,-75.9598,68.0469,68.0469,0.0000,-0.6721,14054.2683,0.0000,0.0059,0.0059,0.9411,0.9411,0.0000,0.0000,343.1471,511.0416,7.1136,0.0000,197.1562,306.7718,-35.1702
6.6000,accel,65.8200,0.0000,0.0000,76.3334,21.2295,0.0000,0.0000,1.0000,0.0000,0.0000,2,5036.4890,3269.1245,3269.1245,3762.2474,3762.2474,0.0056,0.0056,-0.0382,-0.0382,0.0000,0.0000,0.0000,0.0000,301.5764,301.5764,-2357.9138,-2357.9138,0.0000,0.0000,0.0000,0.0000,0.0000,-12.4221,-12.4221,16.1319,16.1319,-64.0524,-64.0524,52.0733,52.0733,0.0000,-0.6292,14062.7437,0.0000,0.0922,0.0922,0.6267,0.6267,0.0000,0.0000,353.9091,520.3249,7.5596,0.0000,199.1375,313.6278,-39.0762
6.7000,accel,67.9652,0.0000,0.0000,77.9553,21.6181,0.0000,0.0000,1.0000,0.0000,0.0000,2,4848.2187,3317.8971,3317.8971,3718.7109,3718.7109,0.0003,0.0003,0.0727,0.0727,0.0000,0.0000,0.0000,0.0000,-31.0649,-31.0649,3180.2791,3180.2791,0.0000,0.0000,0.0000,0.0000,0.0000,-15.9846,-15.9846,18.9869,18.9869,-25.3704,-25.3704,4.6398,4.6398,0.0000,-0.7707,14073.2159,0.0000,0.0094,0.0094,0.8552,0.8552,0.0000,0.0000,363.4690,533.6347,8.0252,0.0000,198.4776,327.1318,-35.1322
6.8000,accel,70.1371,0.0000,0.0000,78.8298,21.8563,0.0000,0.0000,1.0000,0.0000,0.0000,2,4887.3311,3203.2494,3203.2494,3838.4505,3838.4505,0.0003,0.0003,0.1008,0.1008,0.0000,0.0000,0.0000,0.0000,-29.8745,-29.8745,3575.8928,3575.8928,0.0000,0.0000,0.0000,0.0000,0.0000,-13.5549,-13.5549,17.3582,17.3582,-75.9172,-75.9172,67.9095,67.9095,0.0000,-0.6812,14083.3999,0.0000,0.0093,0.0093,0.9316,0.9316,0.0000,0.0000,373.7014,545.6475,8.5084,0.0000,202.6133,334.5257,-37.9706
6.9000,accel,72.3434,0.0000,0.0000,79.6276,22.1406,0.0000,0.0000,1.0000,0.0000,0.0000,2,5240.3707,3260.9764,3260.9764,3785.1080,3785.1080,0.0043,0.0043,-0.0292,-0.0292,0.0000,0.0000,0.0000,0.0000,219.3652,219.3652,-1937.6295,-1937.6295,0.0000,0.0000,0.0000,0.0000,0.0000,-12.0938,-12.0938,15.8766,15.8766,-70.3853,-70.3853,60.2848,60.2848,0.0000,-0.6164,14092.1687,0.0000,0.0673,0.0673,0.5119,0.5119,0.0000,0.0000,384.8392,554.9942,9.0149,0.0000,204.6356,341.3437,-42.2905
7.0000,accel,74.5800,0.0000,0.0000,81.2360,22.5297,0.0000,0.0000,1.0000,0.0000,0.0000,2,5047.1899,3338.7246,3338.7246,3712.5425,3712.5425,0.0002,0.0002,0.0723,0.0723,0.0000,0.0000,0.0000,0.0000,-39.8310,-39.8310,3168.9029,3168.9029,0.0000,0.0000,0.0000,0.0000,0.0000,-15.8542,-15.8542,18.8477,18.8477,-22.0420,-22.0420,0.0148,0.0148,0.0000,-0.7647,14102.5342,0.0000,0.0119,0.0119,0.8536,0.8536,0.0000,0.0000,394.6654,568.7586,9.5427,0.0000,203.9093,355.3065,-38.1539
7.1000,accel,76.8437,0.0000,0.0000,82.1392,22.7767,0.0000,0.0000,1.0000,0.0000,0.0000,2,5049.9420,3214.6222,3214.6222,3842.1713,3842.1713,-0.0002,-0.0002,0.0925,0.0925,0.0000,0.0000,0.0000,0.0000,-60.1024,-60.1024,3516.5643,3516.5643,0.0000,0.0000,0.0000,0.0000,0.0000,-13.7933,-13.7933,17.4728,17.4728,-72.6902,-72.6902,64.6285,64.6285,0.0000,-0.6890,14113.5870,0.0000,0.0187,0.0187,0.9153,0.9153,0.0000,0.0000,405.0700,581.2456,10.0898,0.0000,207.8904,363.2653,-40.5996
7.2000,accel,79.1410,0.0000,0.0000,82.8900,23.0513,0.0000,0.0000,1.0000,0.0000,0.0000,2,5413.7092,3254.0396,3254.0396,3807.4945,3807.4945,0.0030,0.0030,-0.0346,-0.0346,0.0000,0.0000,0.0000,0.0000,134.5586,134.5586,-2219.2565,-2219.2565,0.0000,0.0000,0.0000,0.0000,0.0000,-12.1539,-12.1539,15.7634,15.7634,-73.6667,-73.6667,66.7413,66.7413,0.0000,-0.6152,14123.0682,0.0000,0.0414,0.0414,0.5829,0.5829,0.0000,0.0000,416.5296,590.6810,10.6617,0.0000,210.0704,369.9490,-45.3755
7.3000,accel,81.4678,0.0000,0.0000,84.3536,23.4302,0.0000,0.0000,1.0000,0.0000,0.0000,2,5071.3869,3298.3270,3298.3270,3768.7543,3768.7543,-0.0004,-0.0004,0.0052,0.0052,0.0000,0.0000,0.0000,0.0000,-73.5130,-73.5130,313.6540,313.6540,0.0000,0.0000,0.0000,0.0000,0.0000,-15.6327,-15.6327,18.6506,18.6506,-36.9041,-36.9041,20.8203,20.8203,0.0000,-0.7555,14134.1626,0.0000,0.0223,0.0223,0.0832,0.0832,0.0000,0.0000,426.3166,606.0084,11.2558,0.0000,211.5933,383.1593,-41.9523
7.4000,accel,83.8250,0.0000,0.0000,85.1527,23.6890,0.0000,0.0000,1.0000,0.0000,0.0000,2,5393.4595,3310.6220,3310.6220,3761.2356,3761.2356,-0.0020,-0.0020,-0.0462,-0.0462,0.0000,0.0000,0.0000,0.0000,-173.1849,-173.1849,-2672.1913,-2672.1913,0.0000,0.0000,0.0000,0.0000,0.0000,-13.5033,-13.5033,16.7281,16.7281,-49.1137,-49.1137,35.9619,35.9619,0.0000,-0.6662,14143.7154,0.0000,0.0523,0.0523,0.7105,0.7105,0.0000,0.0000,437.7488,615.8768,11.8735,0.0000,213.5381,390.4652,-46.0785
7.5000,accel,86.2090,0.0000,0.0000,86.5204,23.9982,0.0000,0.0000,1.0000,0.0000,0.0000,2,5186.7628,3357.5187,3357.5187,3718.6920,3718.6920,0.0001,0.0001,0.0704,0.0704,0.0000,0.0000,0.0000,0.0000,-43.3839,-43.3839,3141.9915,3141.9915,0.0000,0.0000,0.0000,0.0000,0.0000,-14.6263,-14.6263,18.0225,18.0225,-28.3123,-28.3123,4.7000,4.7000,0.0000,-0.7195,14152.4214,0.0000,0.0129,0.0129,0.8449,0.8449,0.0000,0.0000,447.9255,630.4576,12.5126,0.0000,214.8086,403.1364,-43.5841
7.6000,accel,88.6248,0.0000,0.0000,87.1807,24.2327,0.0000,0.0000,1.0000,0.0000,0.0000,2,5631.7496,3227.5543,3227.5543,3854.9824,3854.9824,0.0004,0.0004,-0.0158,-0.0158,0.0000,0.0000,0.0000,0.0000,-24.4005,-24.4005,-1166.5129,-1166.5129,0.0000,0.0000,0.0000,0.0000,0.0000,-11.6687,-11.6687,15.3656,15.3656,-87.0454,-87.0454,84.7877,84.7877,0.0000,-0.5958,14165.0733,0.0000,0.0076,0.0076,0.3026,0.3026,0.0000,0.0000,459.8092,639.4807,13.1775,0.0000,216.9807,409.3225,-49.2817
7.7000,accel,91.0695,0.0000,0.0000,88.4343,24.5897,0.0000,0.0000,1.0000,0.0000,0.0000,2,5440.1448,3312.2637,3312.2637,3775.3955,3775.3955,-0.0009,-0.0009,-0.0270,-0.0270,0.0000,0.0000,0.0000,0.0000,-106.7977,-106.7977,-1818.5772,-1818.5772,0.0000,0.0000,0.0000,0.0000,0.0000,-14.4833,-14.4833,17.6523,17.6523,-43.4706,-43.4706,28.5485,28.5485,0.0000,-0.7082,14175.3184,0.0000,0.0322,0.0322,0.4817,0.4817,0.0000,0.0000,470.2081,653.9814,13.8667,0.0000,218.9119,421.2028,-47.8002
7.8000,accel,93.5450,0.0000,0.0000,89.4884,24.8838,0.0000,0.0000,1.0000,0.0000,0.0000,2,5488.8885,3314.3689,3314.3689,3779.1270,3779.1270,-0.0009,-0.0009,-0.0290,-0.0290,0.0000,0.0000,0.0000,0.0000,-105.1727,-105.1727,-1927.6159,-1927.6159,0.0000,0.0000,0.0000,0.0000,0.0000,-14.3854,-14.3854,17.1259,17.1259,-44.1799,-44.1799,34.0223,34.0223,0.0000,-0.6944,14186.9918,0.0000,0.0317,0.0317,0.5101,0.5101,0.0000,0.0000,481.2924,666.2371,14.5821,0.0000,220.3301,431.3249,-48.7625
7.9000,accel,96.0474,0.0000,0.0000,90.4338,25.0877,0.0000,0.0000,1.0000,0.0000,0.0000,2,5617.2111,4274.7028,4274.7028,2829.3151,2829.3151,0.0033,0.0033,0.0980,0.0980,0.0000,0.0000,0.0000,0.0000,196.3685,196.3685,2704.3631,2704.3631,0.0000,0.0000,0.0000,0.0000,0.0000,-10.6180,-10.6180,14.2892,14.2892,284.0086,284.0086,-227.4530,-227.4530,0.0000,-0.5489,14208.0359,0.0000,0.0459,0.0459,0.9558,0.9558,0.0000,0.0000,492.6066,678.1067,15.3213,0.0000,222.2813,440.5041,-50.8974
8.0000,brake,98.5777,0.0000,0.0000,91.6934,25.4627,0.0000,0.0000,0.0000,0.0000,0.0000,2,5491.4829,3293.9582,3293.9582,3809.9194,3809.9194,-0.0001,-0.0001,0.0130,0.0130,0.0000,0.0000,0.0000,0.0000,-56.6750,-56.6750,857.5950,857.5950,0.0000,0.0000,0.0000,0.0000,0.0000,-14.8086,-14.8086,18.0155,18.0155,-48.2128,-48.2128,34.8723,34.8723,0.0000,-0.7233,14207.7551,0.0000,0.0172,0.0172,0.2251,0.2251,0.0000,0.0000,503.2579,692.3319,16.0853,0.0000,223.3619,452.8847,-49.1681
8.1000,brake,101.1258,0.0000,0.0000,91.5270,25.4674,0.0000,0.0000,0.0000,0.2000,0.0000,2,5325.1792,3456.8891,3456.8891,3646.5716,3646.5716,-0.0070,-0.0070,-0.0592,-0.0592,0.0000,0.0000,0.0000,0.0000,-508.6564,-508.6564,-2972.7621,-2972.7621,0.0000,0.0000,0.0000,0.0000,0.0000,-4.9668,-4.9668,9.5868,9.5868,-71.9699,-71.9699,53.7987,53.7987,0.0000,-0.3207,14206.9213,0.0000,0.1471,0.1471,0.8152,0.8152,0.0000,0.0000,499.9056,694.9826,16.8656,2.1394,224.7491,451.2284,-47.4722
8.2000,brake,103.6608,0.0000,0.0000,90.8680,25.2894,0.0000,0.0000,0.0000,0.4000,0.0000,2,5299.7590,3655.8331,3655.8331,3443.7779,3443.7779,-0.0092,-0.0092,-0.0845,-0.0845,0.0000,0.0000,0.0000,0.0000,-684.5600,-684.5600,-3219.0542,-3219.0542,0.0000,0.0000,0.0000,0.0000,0.0000,3.7320,3.7320,1.5755,1.5755,-76.8833,-76.8833,53.5913,53.5913,0.0000,0.0475,14199.2220,0.0000,0.1873,0.1873,0.9347,0.9347,0.0000,0.0000,492.1697,696.4404,17.6339,8.8233,225.2578,444.7254,-46.2392
8.3000,brake,106.1717,0.0000,0.0000,89.8635,25.0123,0.0000,0.0000,0.0000,0.5000,0.0000,2,5175.8033,3795.3816,3795.3816,3299.4714,3299.4714,-0.0116,-0.0116,-0.0964,-0.0964,0.0000,0.0000,0.0000,0.0000,-874.3045,-874.3045,-3193.4384,-3193.4384,0.0000,0.0000,0.0000,0.0000,0.0000,9.8655,9.8655,-4.7653,-4.7653,-80.2373,-80.2373,60.5060,60.5060,0.0000,0.3224,14189.7060,0.0000,0.2304,0.2304,0.9679,0.9679,0.0000,0.0000,480.2949,698.6175,18.3805,19.3957,225.9314,434.9099,-44.1799
8.4000,brake,108.6525,0.0000,0.0000,88.7534,24.7040,0.0000,0.0000,0.0000,0.5000,0.0000,2,5071.0915,3812.5517,3812.5517,3277.7182,3277.7182,-0.0113,-0.0113,-0.1055,-0.1055,0.0000,0.0000,0.0000,0.0000,-856.9403,-856.9403,-3225.9689,-3225.9689,0.0000,0.0000,0.0000,0.0000,0.0000,13.1441,13.1441,-8.3152,-8.3152,-98.1068,-98.1068,88.6555,88.6555,0.0000,0.4729,14180.5398,0.0000,0.2248,0.2248,0.9842,0.9842,0.0000,0.0000,467.9740,700.6235,19.1006,30.4414,226.8923,424.1893,-42.5796
8.5000,brake,111.1019,0.0000,0.0000,87.6156,24.3875,0.0000,0.0000,0.0000,0.5000,0.0000,2,4989.5703,3832.2296,3832.2296,3252.7546,3252.7546,-0.0109,-0.0109,-0.1079,-0.1079,0.0000,0.0000,0.0000,0.0000,-833.1425,-833.1425,-3214.7140,-3214.7140,0.0000,0.0000,0.0000,0.0000,0.0000,14.7353,14.7353,-10.1009,-10.1009,-103.1972,-103.1972,97.8978,97.8978,0.0000,0.5473,14169.9684,0.0000,0.2174,0.2174,0.9883,0.9883,0.0000,0.0000,455.8718,702.4427,19.7937,41.3273,227.9812,413.3405,-41.3263
8.6000,brake,113.5196,0.0000,0.0000,86.4708,24.0691,0.0000,0.0000,0.0000,0.5000,0.0000,2,4917.9404,3839.8459,3839.8459,3239.7096,3239.7096,-0.0105,-0.0105,-0.1101,-0.1101,0.0000,0.0000,0.0000,0.0000,-804.1302,-804.1302,-3212.6237,-3212.6237,0.0000,0.0000,0.0000,0.0000,0.0000,15.4562,15.4562,-10.9553,-10.9553,-105.5228,-105.5228,102.5846,102.5846,0.0000,0.5820,14159.1110,0.0000,0.2094,0.2094,0.9916,0.9916,0.0000,0.0000,443.9614,704.1815,20.4603,52.0621,229.0935,402.5656,-40.1908
8.7000,brake,115.9055,0.0000,0.0000,85.3251,23.7504,0.0000,0.0000,0.0000,0.5000,0.0000,2,4849.5486,3844.7195,3844.7195,3229.3536,3229.3536,-0.0100,-0.0100,-0.1124,-0.1124,0.0000,0.0000,0.0000,0.0000,-769.9646,-769.9646,-3212.2414,-3212.2414,0.0000,0.0000,0.0000,0.0000,0.0000,15.7647,15.7647,-11.3674,-11.3674,-105.6937,-105.6937,103.9072,103.9072,0.0000,0.5979,14148.1463,0.0000,0.2003,0.2003,0.9947,0.9947,0.0000,0.0000,432.2317,705.8915,21.1008,62.6492,230.2167,391.9247,-39.1019
8.8000,brake,118.2595,0.0000,0.0000,84.1805,23.4319,0.0000,0.0000,0.0000,0.5000,0.0000,2,4782.1951,3849.9600,3849.9600,3218.6390,3218.6390,-0.0094,-0.0094,-0.1147,-0.1147,0.0000,0.0000,0.0000,0.0000,-729.9347,-729.9347,-3210.6530,-3210.6530,0.0000,0.0000,0.0000,0.0000,0.0000,15.8828,15.8828,-11.5813,-11.5813,-104.4090,-104.4090,103.0860,103.0860,0.0000,0.6052,14137.1979,0.0000,0.1896,0.1896,0.9975,0.9975,0.0000,0.0000,420.6786,707.5890,21.7161,73.0895,231.3480,381.4354,-38.0382
8.9000,brake,120.5818,0.0000,0.0000,83.0378,23.1139,0.0000,0.0000,0.0000,0.5000,0.0000,2,4715.1113,3856.3596,3856.3596,3206.8114,3206.8114,-0.0087,-0.0087,-0.1169,-0.1169,0.0000,0.0000,0.0000,0.0000,-683.1246,-683.1246,-3207.4813,-3207.4813,0.0000,0.0000,0.0000,0.0000,0.0000,15.9112,15.9112,-11.7106,-11.7106,-102.1616,-102.1616,100.9536,100.9536,0.0000,0.6087,14126.3419,0.0000,0.1771,0.1771,1.0002,1.0002,0.0000,0.0000,409.3002,709.2796,22.3067,83.3834,232.4851,371.1045,-36.9907
9.0000,brake,122.8722,0.0000,0.0000,81.8973,22.7963,0.0000,0.0000,0.0000,0.5000,0.0000,2,4647.9685,3864.3299,3864.3299,3193.4777,3193.4777,-0.0079,-0.0079,-0.1193,-0.1193,0.0000,0.0000,0.0000,0.0000,-628.4198,-628.4198,-3202.5120,-3202.5120,0.0000,0.0000,0.0000,0.0000,0.0000,15.8948,15.8948,-11.8082,-11.8082,-99.1548,-99.1548,97.8818,97.8818,0.0000,0.6105,14115.6151,0.0000,0.1626,0.1626,1.0028,1.0028,0.0000,0.0000,398.0949,710.9653,22.8735,93.5308,233.6265,360.9344,-35.9554
9.1000,brake,125.1310,0.0000,0.0000,80.7591,22.4793,0.0000,0.0000,0.0000,0.5000,0.0000,2,4580.6133,3874.1866,3874.1866,3178.3305,3178.3305,-0.0070,-0.0070,-0.1217,-0.1217,0.0000,0.0000,0.0000,0.0000,-564.6778,-564.6778,-3195.5036,-3195.5036,0.0000,0.0000,0.0000,0.0000,0.0000,15.8531,15.8531,-11.8992,-11.8992,-95.4378,-95.4378,93.9992,93.9992,0.0000,0.6116,14105.0342,0.0000,0.1458,0.1458,1.0054,1.0054,0.0000,0.0000,387.0618,712.6466,23.4171,103.5318,234.7715,350.9262,-34.9306
9.2000,brake,127.3582,0.0000,0.0000,79.6235,22.1628,0.0000,0.0000,0.0000,0.5000,0.0000,2,4512.9709,3886.1644,3886.1644,3161.1391,3161.1391,-0.0060,-0.0060,-0.1242,-0.1242,0.0000,0.0000,0.0000,0.0000,-491.0376,-491.0376,-3186.2383,-3186.2383,0.0000,0.0000,0.0000,0.0000,0.0000,15.7942,15.7942,-11.9960,-11.9960,-91.0014,-91.0014,89.3372,89.3372,0.0000,0.6124,14094.6070,0.0000,0.1264,0.1264,1.0079,1.0079,0.0000,0.0000,376.1997,714.3234,23.9381,113.3863,235.9196,341.0795,-33.9152
9.3000,brake,129.5539,0.0000,0.0000,78.4907,21.8469,0.0000,0.0000,0.0000,0.5000,0.0000,2,4444.7879,3900.6425,3900.6425,3141.5254,3141.5254,-0.0048,-0.0048,-0.1268,-0.1268,0.0000,0.0000,0.0000,0.0000,-408.2099,-408.2099,-3169.5691,-3169.5691,0.0000,0.0000,0.0000,0.0000,0.0000,15.7189,15.7189,-12.1041,-12.1041,-85.7430,-85.7430,83.7980,83.7980,0.0000,0.6131,14084.3357,0.0000,0.1047,0.1047,1.0089,1.0089,0.0000,0.0000,365.5076,715.9965,24.4373,123.0938,237.0685,331.3969,-32.9057
9.4000,brake,131.7180,0.0000,0.0000,77.3608,21.5317,0.0000,0.0000,0.0000,0.5000,0.0000,2,4375.9167,3917.4594,3917.4594,3119.6564,3119.6564,-0.0035,-0.0035,-0.1296,-0.1296,0.0000,0.0000,0.0000,0.0000,-317.4447,-317.4447,-3149.7044,-3149.7044,0.0000,0.0000,0.0000,0.0000,0.0000,15.6278,15.6278,-12.2266,-12.2266,-79.7131,-79.7131,77.4815,77.4815,0.0000,0.6138,14074.2317,0.0000,0.0810,0.0810,1.0096,1.0096,0.0000,0.0000,354.9847,717.6655,24.9154,132.6540,238.2188,321.8773,-31.9023
9.5000,brake,133.8507,0.0000,0.0000,76.2333,21.2170,0.0000,0.0000,0.0000,0.5000,0.0000,2,4306.7751,3936.0216,3936.0216,3096.1285,3096.1285,-0.0022,-0.0022,-0.1324,-0.1324,0.0000,0.0000,0.0000,0.0000,-220.1306,-220.1306,-3128.3172,-3128.3172,0.0000,0.0000,0.0000,0.0000,0.0000,15.5274,15.5274,-12.3660,-12.3660,-73.1280,-73.1280,70.6512,70.6512,0.0000,0.6147,14064.3001,0.0000,0.0559,0.0559,1.0104,1.0104,0.0000,0.0000,344.6309,719.3273,25.3729,142.0666,239.3723,312.5155,-30.9103
9.6000,brake,135.9521,0.0000,0.0000,75.1077,20.9029,0.0000,0.0000,0.0000,0.5000,0.0000,2,4237.6536,3955.5748,3955.5748,3071.6976,3071.6976,-0.0008,-0.0008,-0.1353,-0.1353,0.0000,0.0000,0.0000,0.0000,-119.4880,-119.4880,-3106.0920,-3106.0920,0.0000,0.0000,0.0000,0.0000,0.0000,15.4212,15.4212,-12.5193,-12.5193,-66.2270,-66.2270,63.5791,63.5791,0.0000,0.6157,14054.5448,0.0000,0.0302,0.0302,1.0112,1.0112,0.0000,0.0000,334.4457,720.9798,25.8106,151.3316,240.5305,303.3072,-29.9335
9.7000,brake,138.0221,0.0000,0.0000,73.9837,20.5892,0.0000,0.0000,0.0000,0.5000,0.0000,2,4168.7370,3975.3588,3975.3588,3047.1244,3047.1244,0.0005,0.0005,-0.1382,-0.1382,0.0000,0.0000,0.0000,0.0000,-18.9155,-18.9155,-3083.7195,-3083.7195,0.0000,0.0000,0.0000,0.0000,0.0000,15.3122,15.3122,-12.6813,-12.6813,-59.2487,-59.2487,56.5171,56.5171,0.0000,0.6169,14044.9663,0.0000,0.0048,0.0048,1.0120,1.0120,0.0000,0.0000,324.4288,722.6219,26.2289,160.4489,241.6949,294.2492,-28.9745
9.8000,brake,140.0609,0.0000,0.0000,72.8611,20.2759,0.0000,0.0000,0.0000,0.5000,0.0000,2,4100.1601,3994.6910,3994.6910,3023.0905,3023.0905,0.0019,0.0019,-0.1411,-0.1411,0.0000,0.0000,0.0000,0.0000,78.5492,78.5492,-3061.8205,-3061.8205,0.0000,0.0000,0.0000,0.0000,0.0000,15.2033,15.2033,-12.8462,-12.8462,-52.4101,-52.4101,49.6821,49.6821,0.0000,0.6181,14035.5630,0.0000,0.0197,0.0197,1.0128,1.0128,0.0000,0.0000,314.5791,724.2528,26.6286,169.4187,242.8666,285.3388,-28.0352
9.9000,brake,142.0684,0.0000,0.0000,71.7398,19.9630,0.0000,0.0000,0.0000,0.5000,0.0000,2,4032.0098,4013.1474,4013.1474,3000.0172,3000.0172,0.0031,0.0031,-0.1441,-0.1441,0.0000,0.0000,0.0000,0.0000,171.3250,171.3250,-3040.7805,-3040.7805,0.0000,0.0000,0.0000,0.0000,0.0000,15.0974,15.0974,-13.0093,-13.0093,-45.8518,-45.8518,43.1939,43.1939,0.0000,0.6194,14026.3291,0.0000,0.0427,0.0427,1.0136,1.0136,0.0000,0.0000,304.8960,725.8721,27.0102,178.2412,244.0465,276.5741,-27.1168
10.0000,corner,144.0448,0.0000,0.0000,70.6195,19.6505,0.0000,0.0000,0.3500,0.0000,0.0000,2,3964.3179,4030.5458,4030.5458,2978.0834,2978.0834,0.0042,0.0042,-0.1471,-0.1471,0.0000,0.0000,0.0000,0.0000,258.8345,258.8345,-3020.7645,-3020.7645,0.0000,0.0000,0.0000,0.0000,0.0000,14.9960,14.9960,-13.1670,-13.1670,-39.6364,-39.6364,37.0897,37.0897,0.0000,0.6206,14017.2584,0.0000,0.0642,0.0642,1.0143,1.0143,0.0000,0.0000,295.3784,727.4799,27.3743,186.9167,245.2347,267.9540,-26.2193
10.1000,corner,146.0029,0.0000,0.0002,70.4168,19.5767,0.0001,0.0070,0.3500,0.0000,0.1000,2,4434.6517,3556.0188,3556.5391,3453.9857,3454.3708,0.0261,0.0263,-0.0606,-0.0608,-0.1076,-0.0748,0.0000,0.0000,1565.3529,1578.3021,-2861.4033,-2865.8084,5.4184,2.6100,0.0000,0.0000,0.0010,8.4627,8.4672,-5.8241,-5.8207,-128.4271,-128.3106,154.2767,154.3972,0.0001,0.3148,14020.9144,0.0912,0.4402,0.4438,0.8284,0.8296,161203.5455,0.0000,299.1640,729.1348,27.7284,186.9167,248.0820,266.4076,-31.5513
10.2000,corner,147.9689,0.0001,0.0035,70.7988,19.7008,0.0021,0.0927,0.3500,0.0000,0.2000,2,4396.7009,3377.8551,3387.0174,3624.7795,3631.5504,0.0008,0.0081,-0.0524,-0.0727,-0.2165,-0.1480,0.0020,0.0020,-40.3689,437.7245,-2777.4047,-3223.4324,123.0203,35.7206,-0.0004,-0.0003,0.0116,1.6601,1.7699,2.4887,2.5741,-130.9458,-129.1126,139.0364,140.8908,0.0036,-0.0180,14021.2024,0.1803,0.0383,0.1297,0.7662,0.8876,12175.2265,0.0000,302.1286,733.9890,28.0868,186.9167,249.6706,269.3149,-31.6086
10.3000,corner,149.9415,0.0015,0.0402,71.3022,19.7745,0.0102,0.7635,0.3500,0.0000,0.3000,2,4302.7130,3355.2657,3437.8393,3582.8175,3643.7396,0.0002,0.0004,0.0367,0.1250,-0.2841,-0.1798,-0.0073,-0.0073,-49.9591,-47.7833,2087.7333,3514.2964,208.1998,120.6964,0.0276,0.0579,0.0239,-1.1583,0.1457,5.1734,6.2006,-117.3908,-103.1126,95.1484,109.2444,0.0431,-0.1365,14019.6622,0.2247,0.0638,0.0378,0.5827,0.9645,1483.8550,0.0000,304.9934,739.2935,28.4488,186.9167,250.7577,273.1703,-30.6180
10.4000,corner,151.9257,0.0053,0.1644,71.6281,19.8665,-0.0033,1.7037,0.3500,0.0000,0.4000,2,4620.4202,4315.7863,4576.3728,2474.8529,2664.5751,0.0037,0.0035,0.1269,0.1031,-0.3774,-0.2375,-0.1244,-0.1241,71.8739,118.8029,2485.6385,2586.1084,283.9578,175.1979,1.5950,2.3622,0.0338,-3.5064,1.4345,4.8416,8.6902,243.1275,297.9527,-246.4581,-219.7419,0.1625,-0.1719,14031.5872,0.1832,0.0679,0.0463,1.0044,0.9706,668.1183,0.0000,308.6053,741.8315,28.8172,186.9167,250.4206,275.6769,-31.7233
10.5000,corner,153.9193,0.0126,0.4101,71.8101,19.9795,-0.0445,3.1429,0.3500,0.0000,0.5000,2,4544.5394,3074.5608,3564.8262,3512.4076,3873.4091,0.0007,-0.0000,-0.0506,-0.0411,-0.5312,-0.3555,-0.3436,-0.3422,-42.7825,-53.4776,-2626.6315,-2514.2444,387.6293,284.4119,19.3070,25.1997,0.0521,-7.4159,3.4407,3.6417,12.0434,-153.2377,-90.7090,81.5819,141.9652,0.3559,-0.2166,14025.2037,0.1005,0.1268,0.0812,0.7478,0.6491,364.2314,0.0000,311.6233,747.1791,29.1910,186.9167,253.9913,277.0801,-33.3381
10.6000,corner,155.9233,0.0255,0.8018,72.4979,20.0996,-0.1101,4.7814,0.3500,0.0000,0.6000,2,4465.5676,2872.8272,3621.6364,3492.3988,4043.3786,0.0010,0.0005,0.0869,0.0871,-0.7454,-0.5334,-0.6413,-0.6374,-38.9239,-52.9057,3148.9184,3594.0346,509.8174,434.5936,71.7056,83.7223,0.0801,-12.7660,5.9663,1.8200,16.1543,-172.8631,-92.7200,91.3705,168.4191,0.6112,-0.2730,14030.2410,0.0000,0.1780,0.1209,0.9019,0.8891,240.8534,0.0000,314.4422,752.2839,29.5706,186.9167,253.3585,282.4381,-30.7991
10.7000,corner,157.9387,0.0474,1.3590,72.8983,20.2178,-0.1988,6.3983,0.3500,0.0000,0.7000,2,4531.7823,3095.8382,4085.5087,3060.3866,3785.9184,0.0016,0.0019,0.0422,0.1410,-1.0311,-0.7820,-0.9933,-0.9853,-38.6657,-42.5329,1830.4999,3638.6684,679.1909,658.8458,221.2249,311.8833,0.1363,-18.1926,10.0272,-1.4159,20.1397,-70.5858,14.8501,-35.3561,25.1577,0.9200,-0.2963,14027.6519,-0.0828,0.2197,0.1616,0.6025,0.9646,181.0482,0.0000,317.6696,756.5679,29.9567,186.9167,254.1121,285.5823,-30.8823
10.8000,corner,159.9622,0.0828,2.1005,72.9146,20.2779,-0.3022,8.0862,0.3500,0.0000,0.8000,2,4590.2246,2660.8648,4026.5807,3171.2302,4175.2537,0.0033,0.0022,-0.0191,-0.0701,-1.3108,-1.0235,-1.4464,-1.4305,-17.5470,-41.6664,-690.4872,-3377.2244,858.3512,931.2306,482.7102,360.5614,0.1918,-22.3268,17.1944,-6.8072,22.9761,-165.4383,-57.5277,48.5325,152.3090,1.2809,-0.2347,14033.9293,-0.2714,0.3227,0.2315,0.2657,0.8135,143.6820,0.0000,320.8913,760.9983,30.3477,186.9167,258.0227,285.7112,-33.9751
10.9000,corner,161.9960,0.1375,3.0400,73.4320,20.4063,-0.4191,9.9607,0.3500,0.0000,0.9000,2,4413.4107,2493.9060,4186.2915,3056.9894,4300.3284,0.0023,0.0021,0.0141,-0.0391,-1.6457,-1.3188,-1.9053,-1.8797,-29.0449,-48.6354,253.2561,-2031.4039,970.3846,1207.1534,736.6706,872.4735,0.2759,-29.8588,21.6862,-10.1496,28.8937,-159.5635,-44.2035,35.7920,142.6944,1.6743,-0.2966,14037.5153,-0.4103,0.3893,0.2886,0.2548,0.5141,117.3805,0.0000,323.5428,766.8839,30.7449,186.9167,259.4171,289.8051,-32.5326
11.0000,corner,164.0383,0.2184,4.1475,73.7277,20.4592,-0.5255,12.1483,0.3500,0.0000,1.0000,2,4504.9855,2392.9289,4346.5497,2932.6868,4367.5175,0.0046,0.0034,0.0179,0.0520,-1.9727,-1.6056,-2.3123,-2.2765,-8.9905,-33.5939,330.5949,2423.3055,1181.2769,1565.9407,962.9655,926.3617,0.3379,-34.2076,29.0507,-16.0004,31.4459,-157.4463,-51.1144,44.3802,143.8495,2.0461,-0.2270,14039.6829,-0.5052,0.4937,0.3604,0.3472,0.5940,96.4932,0.0000,326.5656,770.9461,31.1475,186.9167,260.7165,292.1653,-33.1953
11.1000,corner,166.0881,0.3326,5.3889,73.9763,20.5620,-0.6133,12.8069,0.3500,0.0000,1.1000,2,4579.9963,2302.4075,4454.4507,2853.5138,4433.2022,0.0045,0.0039,-0.0350,-0.0477,-2.2679,-1.8609,-2.6292,-2.5849,-13.1187,-30.0184,-1021.7500,-2244.2043,1277.3898,1831.4160,1099.2324,1306.7787,0.4019,-40.3544,33.2782,-19.5935,35.5637,-139.5856,-50.6628,48.2606,128.5640,2.3804,-0.2539,14043.5742,-0.5426,0.5548,0.4112,0.5259,0.5858,91.9911,0.0000,329.4721,775.0411,31.5556,186.9167,262.4247,294.1440,-34.1230
11.2000,corner,168.1442,0.4864,6.7419,74.4468,20.6448,-0.6860,13.9755,0.3500,0.0000,1.2000,2,4411.7010,2213.8691,4536.8423,2795.6265,4500.4911,0.0046,0.0043,0.0835,0.0532,-2.5298,-2.0832,-2.8922,-2.8400,-13.2882,-28.4341,2158.3821,2300.7677,1360.3759,2071.1360,1005.3370,1651.4915,0.4437,-45.0059,37.5203,-22.8513,38.5625,-131.8041,-57.5704,57.3748,125.1830,2.6604,-0.2556,14046.8290,-0.5596,0.6145,0.4566,0.8517,0.6293,84.6382,0.0000,331.8606,780.8413,31.9691,186.9167,264.0412,297.9143,-32.7413
11.3000,corner,170.2051,0.6844,8.2013,74.5909,20.7370,-0.7607,14.7026,0.3500,0.0000,1.3000,2,4596.9545,2095.2334,4607.2510,2752.1877,4595.6748,0.0044,0.0043,-0.0439,-0.0865,-2.7906,-2.3041,-3.1636,-3.1025,-16.0527,-32.2816,-1183.9329,-3505.2261,1402.6282,2292.2844,1278.0811,1673.7075,0.4844,-49.6161,41.1588,-25.4768,41.8529,-132.9347,-63.6077,65.9077,130.0057,2.9222,-0.2736,14050.3469,-0.5857,0.6695,0.4976,0.6330,0.8452,80.8115,0.0000,334.7624,784.2100,32.3877,186.9167,265.8393,299.0662,-34.4911
11.4000,corner,172.2683,0.9314,9.7512,74.8774,20.8132,-0.8239,15.7049,0.3500,0.0000,1.4000,2,4605.2997,2033.8212,4712.6422,2670.1800,4635.9129,0.0046,0.0046,-0.0510,-0.0748,-3.0269,-2.5007,-3.3943,-3.3249,-15.0146,-32.0516,-1318.9110,-3143.4952,1452.7053,2501.8638,1232.1676,1948.9493,0.5200,-53.2566,44.4784,-28.0740,44.3717,-124.6147,-57.3448,58.7890,120.6252,3.1454,-0.2763,14052.5563,-0.5958,0.7143,0.5309,0.6760,0.7978,75.9323,0.0000,337.2285,788.8063,32.8109,186.9167,267.7048,301.3738,-34.6496
11.5000,corner,174.3327,1.2309,11.4013,75.2555,20.8633,-0.8942,17.0942,0.3500,0.0000,1.5000,2,4762.1376,2312.5572,5182.6651,2226.2169,4329.1808,0.0063,0.0060,0.1420,0.0611,-3.2760,-2.7093,-3.6581,-3.5784,-5.5319,-11.2824,2051.1907,2271.1680,1577.7535,2796.5006,1254.5828,2143.8088,0.5665,-55.9465,49.0017,-31.4833,46.0227,-25.8550,62.3634,-60.6419,-13.4093,3.3722,-0.2367,14050.6199,-0.6256,0.6823,0.5396,1.0801,0.7214,69.9291,0.0000,339.8529,792.2766,33.2390,186.9167,267.6819,304.4389,-34.2089
11.6000,corner,176.3952,1.5860,13.1472,75.4781,20.9454,-0.9679,17.7552,0.3500,0.0000,1.5000,2,4534.8098,1868.3273,4912.8323,2520.5851,4754.5757,0.0053,0.0049,0.0412,-0.0146,-3.4293,-2.8546,-3.9162,-3.8265,-11.2227,-32.4767,795.4511,-321.5123,1500.5036,2907.7649,1428.9963,2559.4940,0.6119,-60.0108,51.8913,-33.4725,49.3744,-123.8972,-53.3396,52.4260,117.5539,3.5994,-0.2647,14056.3203,-0.7294,0.8031,0.5919,0.6488,0.5426,67.5904,0.0000,341.7399,798.6230,33.6714,186.9167,271.7961,306.2388,-34.2960
11.7000,corner,178.4540,2.0001,14.9644,75.7454,20.9951,-1.0327,18.4132,0.3500,0.0000,1.5000,2,4537.3861,1870.5472,4981.5308,2461.7898,4743.9900,0.0062,0.0059,0.1074,0.0573,-3.5839,-3.0049,-4.1109,-4.0150,-6.1673,-19.0351,1968.6666,2141.5238,1585.2700,3107.7278,1293.4249,2428.4664,0.6133,-62.4956,55.3607,-36.2752,50.7599,-105.6076,-58.5857,56.7404,99.2688,3.7869,-0.2382,14057.8579,-0.7685,0.8475,0.6239,0.9568,0.6825,65.3295,0.0000,343.8680,803.2785,34.1082,186.9167,273.8455,308.4081,-34.2549
11.8000,corner,180.5066,2.4755,16.8330,75.8775,21.0745,-1.1008,18.5226,0.3500,0.0000,1.5000,2,4657.2762,1779.6268,4996.6551,2462.6457,4822.4455,0.0057,0.0057,-0.0327,-0.0774,-3.7335,-3.1499,-4.3213,-4.2180,-9.8593,-24.5033,-563.8182,-3005.2043,1545.1846,3219.8077,1591.3696,2610.6910,0.6535,-65.6718,57.0766,-37.5662,53.0770,-109.0437,-66.6671,69.6845,107.1724,3.9440,-0.2656,14061.3731,-0.8279,0.8683,0.6444,0.6856,0.8255,65.1895,0.0000,346.1498,807.1247,34.5494,186.9167,276.1929,309.4657,-35.4790
11.9000,corner,182.5496,3.0143,18.7421,76.1962,21.1145,-1.1580,19.1869,0.3500,0.0000,1.5000,2,4790.6013,1799.4205,5067.0963,2399.3137,4795.9985,0.0065,0.0063,0.1288,0.0581,-3.8720,-3.2844,-4.4884,-4.3798,-6.1039,-17.0919,2025.2554,2074.4729,1609.2101,3379.7425,1355.7706,2760.6618,0.6637,-66.8624,59.6381,-39.4702,53.8060,-94.9608,-64.9142,63.2320,89.1433,4.0620,-0.2376,14061.8289,-0.8559,0.8943,0.6670,1.0158,0.7200,63.0519,0.0000,348.3023,810.8059,34.9943,186.9167,276.8291,312.0658,-35.0315
12.0000,corner,184.5809,3.6186,20.6494,76.4242,21.1764,-1.2026,19.3393,0.3500,0.0000,1.5000,2,4803.4779,2501.7492,5721.0503,1742.8400,4103.2181,0.0065,0.0078,0.0445,0.1394,-4.0052,-3.4155,-4.5734,-4.4649,-10.1197,12.4500,566.0174,3377.2020,1699.0078,3518.0768,1570.8489,2293.4155,0.6620,-67.8582,60.4688,-40.0363,54.5247,157.7847,162.2346,-138.5267,-139.5684,4.1195,-0.2411,14068.8576,-0.8088,0.6791,0.6149,0.9580,0.9949,62.7386,0.0000,350.2255,815.5011,35.4432,186.9167,279.2217,313.9194,-35.1010
12.1000,corner,186.5978,4.2881,22.6053,76.6217,21.2287,-1.2604,19.9631,0.3500,0.0000,1.5000,2,4812.4501,2460.8384,5795.4778,1684.8956,4129.4191,0.0069,0.0080,0.0441,0.1368,-4.1240,-3.5298,-4.7628,-4.6465,-7.6224,13.9402,524.2177,3337.2534,1696.7795,3642.5522,1584.4754,2351.6655,0.6762,-69.0452,62.1002,-41.1740,55.5091,153.1510,175.5532,-147.1044,-139.2625,4.2108,-0.2345,14070.6309,-0.8777,0.6895,0.6285,0.9905,0.9887,60.9280,0.0000,352.0785,820.2600,35.8959,186.9167,281.9143,315.5330,-35.3405
12.2000,corner,188.5973,5.0237,24.6105,76.8115,21.2778,-1.3170,20.2624,0.3500,0.0000,1.5000,2,4826.7083,2351.0222,5756.3071,1733.4630,4229.8654,0.0070,0.0082,0.0496,0.1336,-4.2527,-3.6543,-4.9312,-4.8088,-7.2075,13.8114,620.5595,3345.0835,1697.8637,3760.0244,1608.4728,2665.9236,0.7095,-70.7038,63.7752,-42.5505,56.6290,125.6797,143.0035,-123.5364,-118.7038,4.3186,-0.2315,14070.6577,-0.9165,0.7222,0.6532,0.9946,1.0113,60.1669,0.0000,353.8417,824.8693,36.3521,186.9167,284.5200,317.0805,-35.5562
12.3000,corner,190.5761,5.8270,26.6343,76.9574,21.3161,-1.3601,20.3924,0.3500,0.0000,1.5000,2,4728.5617,2316.8756,5752.7556,1741.4004,4260.4991,0.0076,0.0085,0.0555,0.1225,-4.3571,-3.7557,-5.0491,-4.9231,-2.6756,18.3871,711.6377,3219.3926,1749.4097,3874.5849,1646.7960,2724.8308,0.7287,-71.5576,65.2691,-43.8797,57.0039,120.4559,126.5415,-111.8843,-112.7389,4.3935,-0.2139,14071.5307,-0.9297,0.7551,0.6735,1.0302,0.9900,59.8911,0.0000,355.2831,830.2607,36.8115,186.9167,288.2701,318.2624,-35.8157
