time,phase,pos_x,pos_y,yaw_deg,speed_kph,vx_body,vy_body,yaw_rate_dps,throttle,brake,steer_deg,gear,rpm,fz_fl,fz_fr,fz_rl,fz_rr,sr_fl,sr_fr,sr_rl,sr_rr,sa_fl_deg,sa_fr_deg,sa_rl_deg,sa_rr_deg,fx_fl,fx_fr,fx_rl,fx_rr,fy_fl,fy_fr,fy_rl,fy_rr,lat_accel_g,susp_defl_fl_mm,susp_defl_fr_mm,susp_defl_rl_mm,susp_defl_rr_mm,susp_vel_fl,susp_vel_fr,susp_vel_rl,susp_vel_rr,roll_deg,pitch_deg,fz_total,understeer_deg,fc_util_fl,fc_util_fr,fc_util_rl,fc_util_rr,radius_m,yaw_rate_ref_dps,ke_total_kj,energy_engine_kj,energy_drag_kj,energy_brake_kj,energy_tire_loss_kj,energy_body_kj,integrator_err_kj
0.0000,accel,0.0000,0.0000,0.0000,0.0000,0.0000,0.0000,0.0000,0.0000,0.0000,0.0000,1,1000.0000,3776.8500,3776.8500,3090.1500,3090.1500,0.0000,0.0000,0.0000,0.0000,0.0000,0.0000,0.0000,0.0000,0.0000,0.0000,0.0000,0.0000,0.0000,0.0000,0.0000,0.0000,0.0000,0.0000,0.0000,0.0000,0.0000,0.0000,0.0000,0.0000,0.0000,0.0000,0.0000,13734.0000,0.0000,0.0000,0.0000,0.0000,0.0000,0.0000,0.0000,0.0000,0.0000,0.0000,0.0000,0.0000,0.0000,0.0000
0.1000,accel,0.0000,0.0000,0.0000,0.0189,0.0039,0.0000,0.0000,0.0667,0.0000,0.0000,1,1000.0000,3719.9820,3719.9820,3147.1162,3147.1162,0.0008,0.0008,0.0027,0.0027,0.0000,0.0000,0.0000,0.0000,-1.0390,-1.0390,112.8766,112.8766,0.0000,0.0000,0.0000,0.0000,0.0000,-0.1182,-0.1182,0.1926,0.1926,-4.1920,-4.1920,5.1647,5.1647,0.0000,-0.0068,13734.1964,0.0000,0.0003,0.0003,0.0359,0.0359,0.0000,0.0000,0.0002,0.0011,0.0000,0.0000,0.0011,0.0000,-0.0002
0.2000,accel,0.0018,0.0000,0.0000,0.1124,0.0284,0.0000,0.0000,0.1333,0.0000,0.0000,1,1000.0000,3697.7664,3697.7664,3169.3250,3169.3250,0.0008,0.0008,0.0048,0.0048,0.0000,0.0000,0.0000,0.0000,-2.8283,-2.8283,243.5822,243.5822,0.0000,0.0000,0.0000,0.0000,0.0000,-0.6791,-0.6791,0.8528,0.8528,-6.5330,-6.5330,7.4459,7.4459,0.0000,-0.0338,13734.1827,0.0000,0.0008,0.0008,0.0769,0.0769,0.0000,0.0000,0.0011,0.0064,0.0000,0.0000,0.0058,0.0006,-0.0004
0.3000,accel,0.0072,0.0000,0.0000,0.2748,0.0707,0.0000,0.0000,0.2000,0.0000,0.0000,1,1000.0000,3684.7050,3684.7050,3182.2586,3182.2586,0.0007,0.0007,0.0087,0.0087,0.0000,0.0000,0.0000,0.0000,-4.3055,-4.3055,478.3488,478.3488,0.0000,0.0000,0.0000,0.0000,0.0000,-1.3850,-1.3850,1.6275,1.6275,-5.2234,-5.2234,4.8724,4.8724,0.0000,-0.0664,13733.9272,0.0000,0.0012,0.0012,0.1503,0.1503,0.0000,0.0000,0.0046,0.0183,0.0000,0.0000,0.0143,0.0039,-0.0007
0.4000,accel,0.0179,0.0000,0.0000,0.5306,0.1312,0.0000,0.0000,0.2667,0.0000,0.0000,1,1000.0000,3278.2761,3278.2761,3591.1218,3591.1218,-0.0025,-0.0025,0.0258,0.0258,0.0000,0.0000,0.0000,0.0000,-204.1619,-204.1619,1565.0154,1565.0154,0.0000,0.0000,0.0000,0.0000,0.0000,-1.0208,-1.0208,3.6962,3.6962,-123.9474,-123.9474,147.7288,147.7288,0.0000,-0.1039,13738.7959,0.0000,0.0623,0.0623,0.4358,0.4358,0.0000,0.0000,0.0165,0.0454,0.0000,0.0000,0.0361,0.0092,-0.0072
0.5000,accel,0.0353,0.0000,0.0000,0.6907,0.2317,0.0000,0.0000,0.3333,0.0000,0.0000,1,1000.0000,3259.7101,3259.7101,3607.8348,3607.8348,0.0055,0.0055,-0.2021,-0.2021,0.0000,0.0000,0.0000,0.0000,291.3032,291.3032,-3640.5908,-3640.5908,0.0000,0.0000,0.0000,0.0000,0.0000,-1.8860,-1.8860,6.2691,6.2691,-123.0736,-123.0736,128.6819,128.6819,0.0000,-0.1797,13735.0899,0.0000,0.0894,0.0894,1.0091,1.0091,0.0000,0.0000,0.0695,0.1146,0.0000,0.0000,0.1042,0.0104,-0.0591
0.6000,accel,0.0628,0.0000,0.0000,1.2335,0.3002,0.0000,0.0000,0.4000,0.0000,0.0000,1,1000.0000,3814.8542,3814.8542,3049.9724,3049.9724,0.0868,0.0868,0.0029,0.0029,0.0000,0.0000,0.0000,0.0000,3440.0916,3440.0916,126.8243,126.8243,0.0000,0.0000,0.0000,0.0000,0.0000,-1.3533,-1.3533,6.0123,6.0123,44.4253,44.4253,-65.6416,-65.6416,0.0000,-0.1623,13729.6533,0.0000,0.9018,0.9018,0.0416,0.0416,0.0000,0.0000,0.1131,0.1925,0.0000,0.0000,0.1358,0.0567,-0.0563
0.7000,accel,0.1008,0.0000,0.0000,1.6591,0.3820,0.0000,0.0000,0.4667,0.0000,0.0000,1,1000.0000,4628.8789,4628.8789,2243.6168,2243.6168,0.2289,0.2289,0.4910,0.4910,0.0000,0.0000,0.0000,0.0000,4405.7905,4405.7905,2214.7606,2214.7606,0.0000,0.0000,0.0000,0.0000,0.0000,0.2391,0.2391,6.5568,6.5568,354.1078,354.1078,-299.9216,-299.9216,0.0000,-0.1392,13744.9914,0.0000,0.9518,0.9518,0.9871,0.9871,0.0000,0.0000,0.1905,0.3026,0.0000,0.0000,0.2034,0.0992,-0.0912
0.8000,accel,0.1512,0.0000,0.0000,2.0077,0.5077,0.0000,0.0000,0.5333,0.0000,0.0000,1,1032.4337,4882.9960,4882.9960,1992.1089,1992.1089,0.0287,0.0287,0.7408,0.7408,0.0000,0.0000,0.0000,0.0000,2260.7842,2260.7842,1938.2991,1938.2991,0.0000,0.0000,0.0000,0.0000,0.0000,0.0218,0.0218,7.4849,7.4849,457.9208,457.9208,-378.4173,-378.4173,0.0000,-0.1645,13750.2099,0.0000,0.4630,0.4630,0.9730,0.9730,0.0000,0.0000,0.3020,0.4878,0.0000,0.0000,0.3403,0.1475,-0.1545
0.9000,accel,0.2149,0.0000,0.0000,2.4543,0.6893,0.0000,0.0000,0.6000,0.0000,0.0000,1,1000.0000,3662.1947,3662.1947,3199.2834,3199.2834,-0.1264,-0.1264,0.6052,0.6052,0.0000,0.0000,0.0000,0.0000,-3643.9501,-3643.9501,3007.3004,3007.3004,0.0000,0.0000,0.0000,0.0000,0.0000,-2.4066,-2.4066,9.9115,9.9115,-4.3773,-4.3773,-50.8568,-50.8568,0.0000,-0.2715,13722.9563,0.0000,0.9950,0.9950,0.9400,0.9400,0.0000,0.0000,0.4126,0.8270,0.0000,0.0000,0.5948,0.2322,-0.1803
1.0000,accel,0.2946,0.0000,0.0000,3.0683,0.8929,0.0000,0.0000,0.6667,0.0000,0.0000,1,1000.0000,3499.5456,3499.5456,3362.0324,3362.0324,0.0009,0.0009,-0.1604,-0.1604,0.0000,0.0000,0.0000,0.0000,4.5038,4.5038,-3415.3979,-3415.3979,0.0000,0.0000,0.0000,0.0000,0.0000,-4.8857,-4.8857,12.4150,12.4150,-33.1541,-33.1541,-22.2598,-22.2598,0.0000,-0.3813,13723.1560,0.0000,0.0013,0.0013,1.0159,1.0159,0.0000,0.0000,0.6416,1.2670,0.0000,0.0000,0.8762,0.3907,-0.2509
1.1000,accel,0.3927,0.0000,0.0000,3.8232,1.0864,0.0000,0.0000,0.7333,0.0000,0.0000,1,1000.0000,3484.7002,3484.7002,3377.5840,3377.5840,0.0227,0.0227,-0.2469,-0.2469,0.0000,0.0000,0.0000,0.0000,1360.5244,1360.5244,-3412.3943,-3412.3943,0.0000,0.0000,0.0000,0.0000,0.0000,-6.3405,-6.3405,13.1249,13.1249,-27.0202,-27.0202,-22.9109,-22.9109,0.0000,-0.4290,13724.5684,0.0000,0.3904,0.3904,1.0103,1.0103,0.0000,0.0000,0.9165,1.8191,0.0001,0.0000,1.1644,0.6546,-0.2619
1.2000,accel,0.5107,0.0000,0.0000,4.5109,1.2893,0.0000,0.0000,0.8000,0.0000,0.0000,1,1000.0000,2594.8268,2594.8268,4276.5038,4276.5038,-0.2095,-0.2095,-0.0035,-0.0035,0.0000,0.0000,0.0000,0.0000,-2703.0249,-2703.0249,-340.2362,-340.2362,0.0000,0.0000,0.0000,0.0000,0.0000,-6.6951,-6.6951,14.2607,14.2607,-278.7573,-278.7573,316.0915,316.0915,0.0000,-0.4618,13742.6613,0.0000,1.0417,1.0417,0.0796,0.0796,0.0000,0.0000,1.2459,2.3888,0.0002,0.0000,1.4459,0.9427,-0.3031
1.3000,accel,0.6511,0.0000,0.0000,5.3253,1.4874,0.0000,0.0000,0.8667,0.0000,0.0000,1,1299.0558,3740.6227,3740.6227,3124.2835,3124.2835,-0.4472,-0.4472,0.5647,0.5647,0.0000,0.0000,0.0000,0.0000,-3637.1160,-3637.1160,2956.8393,2956.8393,0.0000,0.0000,0.0000,0.0000,0.0000,-6.9010,-6.9010,13.4947,13.4947,70.0850,70.0850,-97.9889,-97.9889,0.0000,-0.4495,13729.8124,0.0000,0.9723,0.9723,0.9464,0.9464,0.0000,0.0000,1.7310,3.1533,0.0003,0.0000,1.7931,1.3598,-0.3711
1.4000,accel,0.8155,0.0000,0.0000,6.4559,1.7154,0.0000,0.0000,0.9333,0.0000,0.0000,1,1334.7540,3807.4555,3807.4555,3058.0755,3058.0755,0.3556,0.3556,0.5200,0.5200,0.0000,0.0000,0.0000,0.0000,3626.7828,3626.7828,2915.2345,2915.2345,0.0000,0.0000,0.0000,0.0000,0.0000,-6.8863,-6.8863,14.0574,14.0574,96.6278,96.6278,-120.9710,-120.9710,0.0000,-0.4615,13731.0618,0.0000,0.9525,0.9525,0.9533,0.9533,0.0000,0.0000,2.4060,4.4972,0.0005,0.0000,2.4448,2.0519,-0.3541
1.5000,accel,1.0091,0.0000,0.0000,7.4706,1.9984,0.0000,0.0000,1.0000,0.0000,0.0000,1,1581.7078,4943.3175,4943.3175,1935.6239,1935.6239,0.4605,0.4605,0.5398,0.5398,0.0000,0.0000,0.0000,0.0000,4520.4915,4520.4915,1928.5350,1928.5350,0.0000,0.0000,0.0000,0.0000,0.0000,-7.1700,-7.1700,15.2104,15.2104,553.7482,553.7482,-449.9735,-449.9735,0.0000,-0.4932,13757.8829,0.0000,0.9145,0.9145,0.9963,0.9963,0.0000,0.0000,3.3514,6.2128,0.0009,0.0000,3.4277,2.7842,-0.5671
1.6000,accel,1.2350,0.0000,0.0000,8.8325,2.4351,0.0000,0.0000,1.0000,0.0000,0.0000,1,1043.8402,2574.1851,2574.1851,4297.2731,4297.2731,-0.4848,-0.4848,0.1562,0.1562,0.0000,0.0000,0.0000,0.0000,-2584.9758,-2584.9758,4129.5001,4129.5001,0.0000,0.0000,0.0000,0.0000,0.0000,-13.4498,-13.4498,20.6906,20.6906,-236.5861,-236.5861,259.7246,259.7246,0.0000,-0.7523,13742.9164,0.0000,1.0042,1.0042,0.9610,0.9610,0.0000,0.0000,4.3441,8.0906,0.0014,0.0000,4.1260,3.9632,-0.3809
1.7000,accel,1.4943,0.0000,0.0000,9.9947,2.6977,0.0000,0.0000,1.0000,0.0000,0.0000,1,1629.6466,3666.8775,3666.8775,3200.2050,3200.2050,0.3209,0.3209,0.4053,0.4053,0.0000,0.0000,0.0000,0.0000,3524.5403,3524.5403,3080.8812,3080.8812,0.0000,0.0000,0.0000,0.0000,0.0000,-11.3981,-11.3981,18.1755,18.1755,85.2603,85.2603,-110.0507,-110.0507,0.0000,-0.6517,13734.1651,0.0000,0.9612,0.9612,0.9627,0.9627,0.0000,0.0000,5.6996,10.4120,0.0022,0.0000,5.2871,5.1227,-0.5770
1.8000,accel,1.7893,0.0000,0.0000,11.3547,3.1380,0.0000,0.0000,1.0000,0.0000,0.0000,1,1935.4012,2616.4023,2616.4023,4255.5451,4255.5451,-0.4995,-0.4995,0.4220,0.4220,0.0000,0.0000,0.0000,0.0000,-2618.6595,-2618.6595,3971.0162,3971.0162,0.0000,0.0000,0.0000,0.0000,0.0000,-15.3493,-15.3493,22.4689,22.4689,-211.1204,-211.1204,224.9042,224.9042,0.0000,-0.8334,13743.8949,0.0000,1.0009,1.0009,0.9331,0.9331,0.0000,0.0000,7.4061,13.6570,0.0034,0.0000,6.9881,6.6655,-0.7405
1.9000,accel,2.1250,0.0000,0.0000,12.8508,3.5179,0.0000,0.0000,1.0000,0.0000,0.0000,1,1381.8912,3509.7600,3509.7600,3359.5185,3359.5185,0.0200,0.0200,0.0942,0.0942,0.0000,0.0000,0.0000,0.0000,1217.5706,1217.5706,3129.3849,3129.3849,0.0000,0.0000,0.0000,0.0000,0.0000,-16.1303,-16.1303,21.8589,21.8589,69.4349,69.4349,-91.1637,-91.1637,0.0000,-0.8372,13738.5570,0.0000,0.3469,0.3469,0.9315,0.9315,0.0000,0.0000,9.1931,16.3185,0.0052,0.0000,7.7091,8.6042,-0.5889
2.0000,accel,2.4990,0.0000,0.0000,14.1935,3.8821,0.0000,0.0000,1.0000,0.0000,0.0000,1,1945.6226,3863.0634,3863.0634,3010.9615,3010.9615,0.0344,0.0344,0.2907,0.2907,0.0000,0.0000,0.0000,0.0000,2122.2225,2122.2225,2966.4300,2966.4300,0.0000,0.0000,0.0000,0.0000,0.0000,-15.1561,-15.1561,21.1194,21.1194,200.8564,200.8564,-185.6387,-185.6387,0.0000,-0.7994,13748.0498,0.0000,0.5494,0.5494,0.9852,0.9852,0.0000,0.0000,11.3925,19.6146,0.0077,0.0000,9.0637,10.5432,-0.8493
2.1000,accel,2.9119,0.0000,0.0000,15.6734,4.2798,0.0000,0.0000,1.0000,0.0000,0.0000,1,2554.4657,3520.6376,3520.6376,3350.3630,3350.3630,0.0712,0.0712,0.4058,0.4058,0.0000,0.0000,0.0000,0.0000,3004.9826,3004.9826,3210.2209,3210.2209,0.0000,0.0000,0.0000,0.0000,0.0000,-15.6558,-15.6558,21.9627,21.9627,68.6921,68.6921,-94.8951,-94.8951,0.0000,-0.8290,13742.0012,0.0000,0.8535,0.8535,0.9582,0.9582,0.0000,0.0000,14.1142,23.8463,0.0110,0.0000,10.9282,12.9070,-1.2071
2.2000,accel,3.3713,0.0000,0.0000,17.2373,4.7740,0.0000,0.0000,1.0000,0.0000,0.0000,1,1631.6546,3580.3828,3580.3828,3294.1464,3294.1464,0.0779,0.0779,-0.0347,-0.0347,0.0000,0.0000,0.0000,0.0000,3148.1772,3148.1772,-1954.2833,-1954.2833,0.0000,0.0000,0.0000,0.0000,0.0000,-18.4075,-18.4075,24.2493,24.2493,119.8440,119.8440,-127.5719,-127.5719,0.0000,-0.9400,13749.0583,0.0000,0.8793,0.8793,0.5933,0.5933,0.0000,0.0000,16.9399,27.7859,0.0156,0.0000,12.1015,15.6688,-1.2710
2.3000,accel,3.8740,0.0000,0.0000,18.8127,5.2151,0.0000,0.0000,1.0000,0.0000,0.0000,1,2528.3838,3066.2072,3066.2072,3807.5553,3807.5553,-0.0730,-0.0730,0.2688,0.2688,0.0000,0.0000,0.0000,0.0000,-2770.5036,-2770.5036,3675.3262,3675.3262,0.0000,0.0000,0.0000,0.0000,0.0000,-19.0557,-19.0557,24.3246,24.3246,-56.8597,-56.8597,25.6215,25.6215,0.0000,-0.9560,13747.5251,0.0000,0.9036,0.9036,0.9653,0.9653,0.0000,0.0000,20.3647,32.9169,0.0216,0.0000,14.1771,18.7182,-1.6465
2.4000,accel,4.4251,0.0000,0.0000,20.5050,5.6865,0.0000,0.0000,1.0000,0.0000,0.0000,1,2272.4848,2897.9116,2897.9116,3979.7250,3979.7250,-0.2444,-0.2444,0.1131,0.1131,0.0000,0.0000,0.0000,0.0000,-2973.3511,-2973.3511,3761.4429,3761.4429,0.0000,0.0000,0.0000,0.0000,0.0000,-19.5311,-19.5311,24.7249,24.7249,-101.7641,-101.7641,90.0324,90.0324,0.0000,-0.9753,13755.2733,0.0000,1.0260,1.0260,0.9452,0.9452,0.0000,0.0000,23.7243,36.7739,0.0295,0.0000,14.4522,22.2921,-1.4321
2.5000,accel,5.0191,0.0000,0.0000,22.0822,6.1231,0.0000,0.0000,1.0000,0.0000,0.0000,1,2403.2872,2767.5361,2767.5361,4113.6860,4113.6860,-0.2325,-0.2325,0.0971,0.0971,0.0000,0.0000,0.0000,0.0000,-2857.0765,-2857.0765,3778.1951,3778.1951,0.0000,0.0000,0.0000,0.0000,0.0000,-19.3152,-19.3152,24.4752,24.4752,-140.7727,-140.7727,145.6595,145.6595,0.0000,-0.9650,13762.4442,0.0000,1.0324,1.0324,0.9184,0.9184,0.0000,0.0000,27.4830,40.9161,0.0394,0.0000,14.9746,25.9021,-1.5809
2.6000,accel,5.6577,0.0000,0.0000,23.7102,6.5738,0.0000,0.0000,1.0000,0.0000,0.0000,1,2594.4332,2711.8380,2711.8380,4172.0470,4172.0470,-0.2183,-0.2183,0.1022,0.1022,0.0000,0.0000,0.0000,0.0000,-2810.0807,-2810.0807,3863.3036,3863.3036,0.0000,0.0000,0.0000,0.0000,0.0000,-19.5336,-19.5336,24.7488,24.7488,-155.3668,-155.3668,165.7634,165.7634,0.0000,-0.9758,13767.7699,0.0000,1.0362,1.0362,0.9260,0.9260,0.0000,0.0000,31.6938,45.5442,0.0517,0.0000,15.5822,29.9103,-1.7834
2.7000,accel,6.3426,0.0000,0.0000,25.4112,7.0439,0.0000,0.0000,1.0000,0.0000,0.0000,1,2825.3139,2639.1101,2639.1101,4247.7262,4247.7262,-0.1948,-0.1948,0.1166,0.1166,0.0000,0.0000,0.0000,0.0000,-2747.7957,-2747.7957,4003.8682,4003.8682,0.0000,0.0000,0.0000,0.0000,0.0000,-20.1233,-20.1233,25.4462,25.4462,-172.2034,-172.2034,188.4960,188.4960,0.0000,-1.0042,13773.6726,0.0000,1.0412,1.0412,0.9426,0.9426,0.0000,0.0000,36.4425,50.8196,0.0669,0.0000,16.3492,34.4035,-2.0389
2.8000,accel,7.0761,0.0000,0.0000,27.1970,7.5387,0.0000,0.0000,1.0000,0.0000,0.0000,1,3152.6461,2626.5022,2626.5022,4262.8076,4262.8076,-0.1776,-0.1776,0.1528,0.1528,0.0000,0.0000,0.0000,0.0000,-2737.1754,-2737.1754,4096.9210,4096.9210,0.0000,0.0000,0.0000,0.0000,0.0000,-21.0351,-21.0351,26.4213,26.4213,-169.5955,-169.5955,184.1414,184.1414,0.0000,-1.0458,13778.6196,0.0000,1.0421,1.0421,0.9611,0.9611,0.0000,0.0000,41.8528,57.0061,0.0855,0.0000,17.4640,39.4566,-2.3961
2.9000,accel,7.8601,0.0000,0.0000,29.0282,8.0480,0.0000,0.0000,1.0000,0.0000,0.0000,1,3876.9886,2640.4035,2640.4035,4251.4231,4251.4231,-0.1623,-0.1623,0.2645,0.2645,0.0000,0.0000,0.0000,0.0000,-2747.6164,-2747.6164,4060.7294,4060.7294,0.0000,0.0000,0.0000,0.0000,0.0000,-21.7777,-21.7777,27.1835,27.1835,-160.6526,-160.6526,171.2653,171.2653,0.0000,-1.0790,13783.6531,0.0000,1.0406,1.0406,0.9551,0.9551,0.0000,0.0000,48.1576,64.8459,0.1083,0.0000,19.7417,44.9959,-3.1617
3.0000,accel,8.6945,0.0000,0.0000,30.8098,8.5450,0.0000,0.0000,1.0000,0.0000,0.0000,1,5712.9500,2679.4240,2679.4240,4214.9755,4214.9755,-0.1496,-0.1496,0.4701,0.4701,0.0000,0.0000,0.0000,0.0000,-2777.7628,-2777.7628,3912.6886,3912.6886,0.0000,0.0000,0.0000,0.0000,0.0000,-21.7131,-21.7131,27.1368,27.1368,-150.3122,-150.3122,156.4266,156.4266,0.0000,-1.0765,13788.7990,0.0000,1.0367,1.0367,0.9283,0.9283,0.0000,0.0000,56.0036,76.7849,0.1357,0.0000,25.9165,50.7326,-5.2709
3.1000,accel,9.5779,0.0000,0.0000,32.5604,9.0310,0.0000,0.0000,1.0000,0.0000,0.0000,2,2875.8237,2702.9994,2702.9994,4194.3420,4194.3420,-0.1364,-0.1364,0.3722,0.3722,0.0000,0.0000,0.0000,0.0000,-2786.9798,-2786.9798,3946.7143,3946.7143,0.0000,0.0000,0.0000,0.0000,0.0000,-21.4076,-21.4076,26.8494,26.8494,-146.1170,-146.1170,150.2933,150.2933,0.0000,-1.0634,13794.6828,0.0000,1.0311,1.0311,0.9410,0.9410,0.0000,0.0000,60.4846,87.1024,0.1683,0.0000,30.2302,56.7039,-3.7807
3.2000,accel,10.4889,0.0000,0.0000,32.7731,9.1116,0.0000,0.0000,1.0000,0.0000,0.0000,2,1994.6041,3645.1351,3645.1351,3249.8035,3249.8035,-0.1254,-0.1254,0.0868,0.0868,0.0000,0.0000,0.0000,0.0000,-3626.0649,-3626.0649,2978.5431,2978.5431,0.0000,0.0000,0.0000,0.0000,0.0000,-9.4045,-9.4045,14.8502,14.8502,52.1738,52.1738,-76.8990,-76.8990,0.0000,-0.5345,13789.8773,0.0000,0.9948,0.9948,0.9165,0.9165,0.0000,0.0000,60.3565,87.1024,0.2039,0.0000,29.4478,57.4507,-2.9058
3.3000,accel,11.4003,0.0000,0.0000,32.9451,9.1493,0.0000,0.0000,1.0000,0.0000,0.0000,2,1971.9520,3042.5704,3042.5704,3857.7530,3857.7530,-0.1288,-0.1288,0.0725,0.0725,0.0000,0.0000,0.0000,0.0000,-3087.9522,-3087.9522,3283.5417,3283.5417,0.0000,0.0000,0.0000,0.0000,0.0000,-4.8951,-4.8951,9.1236,9.1236,-167.1336,-167.1336,192.7262,192.7262,0.0000,-0.3089,13800.6467,0.0000,1.0149,1.0149,0.8512,0.8512,0.0000,0.0000,61.0415,87.8560,0.2396,0.0000,29.5571,58.0593,-2.9821
3.4000,accel,12.3277,0.0000,0.0000,33.7643,9.3824,0.0000,0.0000,1.0000,0.0000,0.0000,2,1955.9503,2750.7839,2750.7839,4152.5555,4152.5555,-0.1535,-0.1535,0.0411,0.0411,0.0000,0.0000,0.0000,0.0000,-2846.9390,-2846.9390,2584.0014,2584.0014,0.0000,0.0000,0.0000,0.0000,0.0000,-7.2010,-7.2010,12.7516,12.7516,-234.2116,-234.2116,273.9858,273.9858,0.0000,-0.4397,13806.6787,0.0000,1.0350,1.0350,0.6223,0.6223,0.0000,0.0000,64.0304,91.0773,0.2772,0.0000,29.8045,60.9956,-3.0348
3.5000,accel,13.2770,0.0000,0.0000,34.4792,9.5784,0.0000,0.0000,1.0000,0.0000,0.0000,2,2227.2947,3436.4313,3436.4313,3460.5113,3460.5113,-0.1252,-0.1252,0.1403,0.1403,0.0000,0.0000,0.0000,0.0000,-3437.8283,-3437.8283,3384.1012,3384.1012,0.0000,0.0000,0.0000,0.0000,0.0000,-7.4920,-7.4920,12.4645,12.4645,-36.3900,-36.3900,-0.2063,-0.2063,0.0000,-0.4398,13793.8851,0.0000,1.0004,1.0004,0.9779,0.9779,0.0000,0.0000,67.1393,94.3990,0.3176,0.0000,30.4610,63.6204,-3.5188
3.6000,accel,14.2494,0.0000,0.0000,35.3176,9.8338,0.0000,0.0000,1.0000,0.0000,0.0000,2,1992.2128,2808.8766,2808.8766,4096.9509,4096.9509,-0.1238,-0.1238,0.0132,0.0132,0.0000,0.0000,0.0000,0.0000,-2863.4421,-2863.4421,928.1256,928.1256,0.0000,0.0000,0.0000,0.0000,0.0000,-9.1497,-9.1497,14.1594,14.1594,-204.0589,-204.0589,236.9007,236.9007,0.0000,-0.5137,13811.6550,0.0000,1.0194,1.0194,0.2265,0.2265,0.0000,0.0000,70.3376,97.8010,0.3610,0.0000,30.6713,66.7687,-3.5688
3.7000,accel,15.2449,0.0000,0.0000,36.1642,10.0614,0.0000,0.0000,1.0000,0.0000,0.0000,2,2061.8483,2894.0047,2894.0047,4011.9267,4011.9267,-0.1283,-0.1283,0.0245,0.0245,0.0000,0.0000,0.0000,0.0000,-2950.8263,-2950.8263,1650.5087,1650.5087,0.0000,0.0000,0.0000,0.0000,0.0000,-9.0323,-9.0323,14.5763,14.5763,-180.7653,-180.7653,198.3233,198.3233,0.0000,-0.5203,13811.8628,0.0000,1.0196,1.0196,0.4114,0.4114,0.0000,0.0000,73.6462,101.2892,0.4075,0.0000,30.8566,70.0251,-3.6210
3.8000,accel,16.2631,0.0000,0.0000,37.0167,10.2843,0.0000,0.0000,1.0000,0.0000,0.0000,2,2177.1100,3044.3619,3044.3619,3862.2611,3862.2611,-0.1147,-0.1147,0.0557,0.0557,0.0000,0.0000,0.0000,0.0000,-3053.6573,-3053.6573,2920.3198,2920.3198,0.0000,0.0000,0.0000,0.0000,0.0000,-9.3308,-9.3308,14.0072,14.0072,-135.8646,-135.8646,143.7481,143.7481,0.0000,-0.5143,13813.2459,0.0000,1.0031,1.0031,0.7561,0.7561,0.0000,0.0000,77.0881,104.9230,0.4573,0.0000,31.0781,73.3876,-3.7005
3.9000,accel,17.3047,0.0000,0.0000,37.8481,10.5127,0.0000,0.0000,1.0000,0.0000,0.0000,2,2289.7052,3218.1955,3218.1955,3688.3076,3688.3076,-0.1132,-0.1132,0.0822,0.0822,0.0000,0.0000,0.0000,0.0000,-3205.1172,-3205.1172,3286.9364,3286.9364,0.0000,0.0000,0.0000,0.0000,0.0000,-9.3500,-9.3500,13.8036,13.8036,-86.2598,-86.2598,75.7832,75.7832,0.0000,-0.5102,13813.0062,0.0000,0.9959,0.9959,0.8912,0.8912,0.0000,0.0000,80.6511,108.6994,0.5106,0.0000,31.4472,76.7416,-3.9095
4.0000,accel,18.3698,0.0000,0.0000,38.6944,10.7471,0.0000,0.0000,1.0000,0.0000,0.0000,2,2365.4581,3255.9358,3255.9358,3652.4428,3652.4428,-0.1062,-0.1062,0.0917,0.0917,0.0000,0.0000,0.0000,0.0000,-3210.1140,-3210.1140,3353.7482,3353.7482,0.0000,0.0000,0.0000,0.0000,0.0000,-9.6847,-9.6847,13.5834,13.5834,-73.2959,-73.2959,63.1997,63.1997,0.0000,-0.5128,13816.7572,0.0000,0.9859,0.9859,0.9182,0.9182,0.0000,0.0000,84.3460,112.6244,0.5676,0.0000,31.8224,80.2344,-4.1116
4.1000,accel,19.4589,0.0000,0.0000,39.5582,10.9871,0.0000,0.0000,1.0000,0.0000,0.0000,2,2418.3730,3272.4920,3272.4920,3637.6100,3637.6100,-0.1028,-0.1028,0.0918,0.0918,0.0000,0.0000,0.0000,0.0000,-3207.6702,-3207.6702,3341.7464,3341.7464,0.0000,0.0000,0.0000,0.0000,0.0000,-9.8341,-9.8341,13.6932,13.6932,-67.7175,-67.7175,55.7083,55.7083,0.0000,-0.5185,13820.2039,0.0000,0.9802,0.9802,0.9187,0.9187,0.0000,0.0000,88.1650,116.6728,0.6285,0.0000,32.1661,83.8782,-4.2867
4.2000,accel,20.5723,0.0000,0.0000,40.4387,11.2317,0.0000,0.0000,1.0000,0.0000,0.0000,2,2455.8214,3251.4482,3251.4482,3660.8371,3660.8371,-0.0996,-0.0996,0.0857,0.0857,0.0000,0.0000,0.0000,0.0000,-3171.0603,-3171.0603,3303.9824,3303.9824,0.0000,0.0000,0.0000,0.0000,0.0000,-10.0174,-10.0174,13.8982,13.8982,-72.6487,-72.6487,62.4703,62.4703,0.0000,-0.5270,13824.5706,0.0000,0.9753,0.9753,0.9025,0.9025,0.0000,0.0000,92.1148,120.8569,0.6936,0.0000,32.4880,87.6753,-4.4394
4.3000,accel,21.7102,0.0000,0.0000,41.3291,11.4790,0.0000,0.0000,1.0000,0.0000,0.0000,2,2495.7503,3227.2393,3227.2393,3687.3650,3687.3650,-0.0958,-0.0958,0.0805,0.0805,0.0000,0.0000,0.0000,0.0000,-3126.4916,-3126.4916,3266.6487,3266.6487,0.0000,0.0000,0.0000,0.0000,0.0000,-10.2069,-10.2069,14.0790,14.0790,-78.4477,-78.4477,70.7785,70.7785,0.0000,-0.5352,13829.2087,0.0000,0.9688,0.9688,0.8859,0.8859,0.0000,0.0000,96.2013,125.1864,0.7631,0.0000,32.8227,91.6005,-4.6007
4.4000,accel,22.8730,0.0000,0.0000,42.2308,11.7296,0.0000,0.0000,1.0000,0.0000,0.0000,2,2533.4820,3196.3409,3196.3409,3720.7314,3720.7314,-0.0923,-0.0923,0.0745,0.0745,0.0000,0.0000,0.0000,0.0000,-3075.0497,-3075.0497,3209.6411,3209.6411,0.0000,0.0000,0.0000,0.0000,0.0000,-10.4101,-10.4101,14.2751,14.2751,-86.0690,-86.0690,81.6504,81.6504,0.0000,-0.5440,13834.1445,0.0000,0.9621,0.9621,0.8626,0.8626,0.0000,0.0000,100.4277,129.6641,0.8373,0.0000,33.1637,95.6632,-4.7644
4.5000,accel,24.0608,0.0000,0.0000,43.1430,11.9832,0.0000,0.0000,1.0000,0.0000,0.0000,2,2571.3485,3163.8882,3163.8882,3755.7276,3755.7276,-0.0890,-0.0890,0.0684,0.0684,0.0000,0.0000,0.0000,0.0000,-3021.2842,-3021.2842,3134.3073,3134.3073,0.0000,0.0000,0.0000,0.0000,0.0000,-10.6077,-10.6077,14.4832,14.4832,-94.1824,-94.1824,93.0380,93.0380,0.0000,-0.5529,13839.2316,0.0000,0.9549,0.9549,0.8345,0.8345,0.0000,0.0000,104.7979,134.2945,0.9163,0.0000,33.5158,99.8624,-4.9355
4.6000,accel,25.2741,0.0000,0.0000,44.0647,12.2395,0.0000,0.0000,1.0000,0.0000,0.0000,2,2614.1281,3142.1441,3142.1441,3779.9381,3779.9381,-0.0858,-0.0858,0.0640,0.0640,0.0000,0.0000,0.0000,0.0000,-2975.4452,-2975.4452,3065.8910,3065.8910,0.0000,0.0000,0.0000,0.0000,0.0000,-10.7741,-10.7741,14.6862,14.6862,-99.4669,-99.4669,100.1445,100.1445,0.0000,-0.5611,13844.1644,0.0000,0.9469,0.9469,0.8111,0.8111,0.0000,0.0000,109.3159,139.0820,1.0006,0.0000,33.8854,104.1960,-5.1199
4.7000,accel,26.5132,0.0000,0.0000,44.9963,12.4985,0.0000,0.0000,1.0000,0.0000,0.0000,2,2661.5323,3130.8212,3130.8212,3793.6608,3793.6608,-0.0827,-0.0827,0.0612,0.0612,0.0000,0.0000,0.0000,0.0000,-2936.5144,-2936.5144,3014.0774,3014.0774,0.0000,0.0000,0.0000,0.0000,0.0000,-10.9140,-10.9140,14.8828,14.8828,-101.9717,-101.9717,103.1028,103.1028,0.0000,-0.5685,13848.9640,0.0000,0.9379,0.9379,0.7945,0.7945,0.0000,0.0000,113.9858,144.0309,1.0903,0.0000,34.2707,108.6700,-5.3158
4.8000,accel,27.7783,0.0000,0.0000,45.9390,12.7605,0.0000,0.0000,1.0000,0.0000,0.0000,2,2710.5610,3121.9191,3121.9191,3805.0029,3805.0029,-0.0797,-0.0797,0.0589,0.0589,0.0000,0.0000,0.0000,0.0000,-2897.3248,-2897.3248,2965.8123,2965.8123,0.0000,0.0000,0.0000,0.0000,0.0000,-11.0465,-11.0465,15.0819,15.0819,-103.8469,-103.8469,105.0641,105.0641,0.0000,-0.5758,13853.8440,0.0000,0.9281,0.9281,0.7795,0.7795,0.0000,0.0000,118.8118,149.1461,1.1858,0.0000,34.6680,113.2922,-5.5195
4.9000,accel,29.0698,0.0000,0.0000,46.8931,13.0256,0.0000,0.0000,1.0000,0.0000,0.0000,2,2760.5665,3113.4686,3113.4686,3815.9659,3815.9659,-0.0767,-0.0767,0.0567,0.0567,0.0000,0.0000,0.0000,0.0000,-2856.0129,-2856.0129,2917.9985,2917.9985,0.0000,0.0000,0.0000,0.0000,0.0000,-11.1790,-11.1790,15.2838,15.2838,-105.6024,-105.6024,106.8281,106.8281,0.0000,-0.5832,13858.8691,0.0000,0.9173,0.9173,0.7647,0.7647,0.0000,0.0000,123.7983,154.4329,1.2874,0.0000,35.0774,118.0680,-5.7303
5.0000,accel,30.3880,0.0000,0.0000,47.8588,13.2939,0.0000,0.0000,1.0000,0.0000,0.0000,2,2811.6314,3105.5772,3105.5772,3826.4481,3826.4481,-0.0737,-0.0737,0.0548,0.0548,0.0000,0.0000,0.0000,0.0000,-2812.4217,-2812.4217,2871.8174,2871.8174,0.0000,0.0000,0.0000,0.0000,0.0000,-11.3142,-11.3142,15.4859,15.4859,-107.1876,-107.1876,108.3766,108.3766,0.0000,-0.5906,13864.0505,0.0000,0.9056,0.9056,0.7505,0.7505,0.0000,0.0000,128.9502,159.8971,1.3955,0.0000,35.4997,123.0020,-5.9482
5.1000,accel,31.7332,0.0000,0.0000,48.8363,13.5654,0.0000,0.0000,1.0000,0.0000,0.0000,2,2863.8766,3098.5137,3098.5137,3836.1834,3836.1834,-0.0708,-0.0708,0.0531,0.0531,0.0000,0.0000,0.0000,0.0000,-2766.4864,-2766.4864,2828.7943,2828.7943,0.0000,0.0000,0.0000,0.0000,0.0000,-11.4543,-11.4543,15.6862,15.6862,-108.5114,-108.5114,109.6247,109.6247,0.0000,-0.5981,13869.3943,0.0000,0.8928,0.8928,0.7374,0.7374,0.0000,0.0000,134.2724,165.5450,1.5103,0.0000,35.9358,128.0990,-6.1734
5.2000,accel,33.1058,0.0000,0.0000,49.8260,13.8402,0.0000,0.0000,1.0000,0.0000,0.0000,2,2917.3966,3092.5279,3092.5279,3844.9252,3844.9252,-0.0679,-0.0679,0.0516,0.0516,0.0000,0.0000,0.0000,0.0000,-2718.0971,-2718.0971,2790.2560,2790.2560,0.0000,0.0000,0.0000,0.0000,0.0000,-11.6010,-11.6010,15.8826,15.8826,-109.4902,-109.4902,110.4930,110.4930,0.0000,-0.6057,13874.9062,0.0000,0.8789,0.8789,0.7257,0.7257,0.0000,0.0000,139.7699,171.3828,1.6322,0.0000,36.3865,133.3640,-6.4058
5.3000,accel,34.5060,0.0000,0.0000,50.8279,14.1184,0.0000,0.0000,1.0000,0.0000,0.0000,2,2972.2448,3087.8097,3087.8097,3852.4866,3852.4866,-0.0650,-0.0650,0.0504,0.0504,0.0000,0.0000,0.0000,0.0000,-2667.0780,-2667.0780,2757.0934,2757.0934,0.0000,0.0000,0.0000,0.0000,0.0000,-11.7558,-11.7558,16.0735,16.0735,-110.0590,-110.0590,110.9229,110.9229,0.0000,-0.6133,13880.5926,0.0000,0.8637,0.8637,0.7157,0.7157,0.0000,0.0000,145.4480,177.4170,1.7617,0.0000,36.8529,138.8023,-6.6457
5.4000,accel,35.9343,0.0000,0.0000,51.8422,14.3998,0.0000,0.0000,1.0000,0.0000,0.0000,2,3028.7806,3085.5458,3085.5458,3857.6730,3857.6730,-0.0622,-0.0622,0.0496,0.0496,0.0000,0.0000,0.0000,0.0000,-2613.9419,-2613.9419,2732.7997,2732.7997,0.0000,0.0000,0.0000,0.0000,0.0000,-11.9170,-11.9170,16.2531,16.2531,-109.8915,-109.8915,110.4938,110.4938,0.0000,-0.6208,13886.4376,0.0000,0.8472,0.8472,0.7084,0.7084,0.0000,0.0000,151.3095,183.6515,1.8992,0.0000,37.3346,144.4177,-6.8917
5.5000,accel,37.3909,0.0000,0.0000,52.8668,14.6839,0.0000,0.0000,1.0000,0.0000,0.0000,2,3086.9182,3086.5076,3086.5076,3859.7157,3859.7157,-0.0593,-0.0593,0.0491,0.0491,0.0000,0.0000,0.0000,0.0000,-2558.9842,-2558.9842,2717.4103,2717.4103,0.0000,0.0000,0.0000,0.0000,0.0000,-12.0760,-12.0760,16.4006,16.4006,-108.8284,-108.8284,109.1063,109.1063,0.0000,-0.6275,13892.4465,0.0000,0.8291,0.8291,0.7040,0.7040,0.0000,0.0000,157.3473,190.0800,2.0449,0.0000,37.8314,150.2036,-7.1437
5.6000,accel,38.8761,0.0000,0.0000,53.8996,14.9705,0.0000,0.0000,1.0000,0.0000,0.0000,2,3144.5780,3087.8709,3087.8709,3861.4583,3861.4583,-0.0566,-0.0566,0.0483,0.0483,0.0000,0.0000,0.0000,0.0000,-2501.3456,-2501.3456,2692.2261,2692.2261,0.0000,0.0000,0.0000,0.0000,0.0000,-12.2231,-12.2231,16.5204,16.5204,-107.7444,-107.7444,107.8564,107.8564,0.0000,-0.6334,13898.6584,0.0000,0.8101,0.8101,0.6972,0.6972,0.0000,0.0000,163.5526,196.6931,2.1994,0.0000,38.3432,156.1504,-7.4022
5.7000,accel,40.3900,0.0000,0.0000,54.9397,15.2590,0.0000,0.0000,1.0000,0.0000,0.0000,2,3203.0050,3090.4036,3090.4036,3862.1150,3862.1150,-0.0538,-0.0538,0.0476,0.0476,0.0000,0.0000,0.0000,0.0000,-2440.2509,-2440.2509,2670.4439,2670.4439,0.0000,0.0000,0.0000,0.0000,0.0000,-12.3577,-12.3577,16.6172,16.6172,-106.4257,-106.4257,106.3819,106.3819,0.0000,-0.6385,13905.0372,0.0000,0.7896,0.7896,0.6914,0.6914,0.0000,0.0000,169.9228,203.4884,2.3631,0.0000,38.8692,162.2561,-7.6667
5.8000,accel,41.9330,0.0000,0.0000,55.9873,15.5494,0.0000,0.0000,1.0000,0.0000,0.0000,2,3262.1610,3094.1105,3094.1105,3861.6819,3861.6819,-0.0511,-0.0511,0.0471,0.0471,0.0000,0.0000,0.0000,0.0000,-2375.3141,-2375.3141,2651.6531,2651.6531,0.0000,0.0000,0.0000,0.0000,0.0000,-12.4911,-12.4911,16.6996,16.6996,-104.7898,-104.7898,104.5949,104.5949,0.0000,-0.6433,13911.5848,0.0000,0.7677,0.7677,0.6867,0.6867,0.0000,0.0000,176.4606,210.4696,2.5364,0.0000,39.4099,168.5234,-7.9372
5.9000,accel,43.5051,0.0000,0.0000,57.0423,15.8419,0.0000,0.0000,1.0000,0.0000,0.0000,2,3322.0093,3098.9899,3098.9899,3860.1618,3860.1618,-0.0484,-0.0484,0.0467,0.0467,0.0000,0.0000,0.0000,0.0000,-2306.1428,-2306.1428,2635.4199,2635.4199,0.0000,0.0000,0.0000,0.0000,0.0000,-12.6280,-12.6280,16.7714,16.7714,-102.8031,-102.8031,102.4596,102.4596,0.0000,-0.6479,13918.3035,0.0000,0.7442,0.7442,0.6827,0.6827,0.0000,0.0000,183.1691,217.6406,2.7196,0.0000,39.9657,174.9553,-8.2138
6.0000,accel,45.1066,0.0000,0.0000,58.1048,16.1363,0.0000,0.0000,1.0000,0.0000,0.0000,2,3382.5164,3105.0490,3105.0490,3857.5489,3857.5489,-0.0457,-0.0457,0.0463,0.0463,0.0000,0.0000,0.0000,0.0000,-2232.2877,-2232.2877,2621.3208,2621.3208,0.0000,0.0000,0.0000,0.0000,0.0000,-12.7705,-12.7705,16.8340,16.8340,-100.4496,-100.4496,99.9581,99.9581,0.0000,-0.6524,13925.1959,0.0000,0.7189,0.7189,0.6795,0.6795,0.0000,0.0000,190.0511,225.0052,2.9134,0.0000,40.5372,181.5546,-8.4964
6.1000,accel,46.7377,0.0000,0.0000,59.1749,16.4328,0.0000,0.0000,1.0000,0.0000,0.0000,2,3443.6526,3112.3097,3112.3097,3853.8227,3853.8227,-0.0430,-0.0430,0.0460,0.0460,0.0000,0.0000,0.0000,0.0000,-2153.2302,-2153.2302,2608.9547,2608.9547,0.0000,0.0000,0.0000,0.0000,0.0000,-12.9194,-12.9194,16.8880,16.8880,-97.7171,-97.7171,97.0761,97.0761,0.0000,-0.6569,13932.2646,0.0000,0.6918,0.6918,0.6770,0.6770,0.0000,0.0000,197.1095,232.5671,3.1181,0.0000,41.1246,188.3244,-8.7851
6.2000,accel,48.3987,0.0000,0.0000,60.2526,16.7313,0.0000,0.0000,1.0000,0.0000,0.0000,2,3505.3919,3120.8123,3120.8123,3848.9437,3848.9437,-0.0403,-0.0403,0.0458,0.0458,0.0000,0.0000,0.0000,0.0000,-2068.3638,-2068.3638,2597.9459,2597.9459,0.0000,0.0000,0.0000,0.0000,0.0000,-13.0752,-13.0752,16.9334,16.9334,-94.5910,-94.5910,93.7971,93.7971,0.0000,-0.6613,13939.5121,0.0000,0.6628,0.6628,0.6750,0.6750,0.0000,0.0000,204.3475,240.3302,3.3342,0.0000,41.7283,195.2676,-9.0798
6.3000,accel,50.0896,0.0000,0.0000,61.3379,17.0319,0.0000,0.0000,1.0000,0.0000,0.0000,2,3567.7112,3130.6208,3130.6208,3842.8495,3842.8495,-0.0376,-0.0376,0.0457,0.0457,0.0000,0.0000,0.0000,0.0000,-1976.9675,-1976.9675,2587.9403,2587.9403,0.0000,0.0000,0.0000,0.0000,0.0000,-13.2381,-13.2381,16.9700,16.9700,-91.0513,-91.0513,90.0979,90.0979,0.0000,-0.6657,13946.9407,0.0000,0.6315,0.6315,0.6734,0.6734,0.0000,0.0000,211.7679,248.2984,3.5622,0.0000,42.3489,202.3873,-9.3806
6.4000,accel,51.8108,0.0000,0.0000,62.4310,17.3345,0.0000,0.0000,1.0000,0.0000,0.0000,2,3630.5898,3141.8271,3141.8271,3835.4492,3835.4492,-0.0349,-0.0349,0.0455,0.0455,0.0000,0.0000,0.0000,0.0000,-1878.1689,-1878.1689,2578.5973,2578.5973,0.0000,0.0000,0.0000,0.0000,0.0000,-13.4084,-13.4084,16.9974,16.9974,-87.0694,-87.0694,85.9470,85.9470,0.0000,-0.6700,13954.5527,0.0000,0.5978,0.5978,0.6723,0.6723,0.0000,0.0000,219.3739,256.4758,3.8027,0.0000,42.9866,209.6865,-9.6874
6.5000,accel,53.5624,0.0000,0.0000,63.5319,17.6391,0.0000,0.0000,1.0000,0.0000,0.0000,2,3694.0078,3154.5580,3154.5580,3826.6172,3826.6172,-0.0321,-0.0321,0.0454,0.0454,0.0000,0.0000,0.0000,0.0000,-1770.8959,-1770.8959,2569.5799,2569.5799,0.0000,0.0000,0.0000,0.0000,0.0000,-13.5867,-13.5867,17.0147,17.0147,-82.6062,-82.6062,81.3010,81.3010,0.0000,-0.6744,13962.3503,0.0000,0.5614,0.5614,0.6715,0.6715,0.0000,0.0000,227.1686,264.8663,4.0562,0.0000,43.6417,217.1684,-10.0002
6.6000,accel,55.3447,0.0000,0.0000,64.6406,17.9458,0.0000,0.0000,1.0000,0.0000,0.0000,2,3757.9461,3168.9843,3168.9843,3816.1834,3816.1834,-0.0292,-0.0292,0.0453,0.0453,0.0000,0.0000,0.0000,0.0000,-1653.8095,-1653.8095,2560.5405,2560.5405,0.0000,0.0000,0.0000,0.0000,0.0000,-13.7735,-13.7735,17.0210,17.0210,-77.6088,-77.6088,76.1022,76.1022,0.0000,-0.6786,13970.3355,0.0000,0.5219,0.5219,0.6710,0.6710,0.0000,0.0000,235.1550,273.4741,4.3232,0.0000,44.3146,224.8363,-10.3187
6.7000,accel,57.1578,0.0000,0.0000,65.7573,18.2546,0.0000,0.0000,1.0000,0.0000,0.0000,2,3822.3842,3185.3328,3185.3328,3803.9221,3803.9221,-0.0263,-0.0263,0.0453,0.0453,0.0000,0.0000,0.0000,0.0000,-1525.2197,-1525.2197,2551.1060,2551.1060,0.0000,0.0000,0.0000,0.0000,0.0000,-13.9695,-13.9695,17.0148,17.0148,-72.0069,-72.0069,70.2739,70.2739,0.0000,-0.6828,13978.5098,0.0000,0.4788,0.4788,0.6707,0.6707,0.0000,0.0000,243.3364,282.3032,4.6043,0.0000,45.0054,232.6935,-10.6429
6.8000,accel,59.0020,0.0000,0.0000,66.8820,18.5655,0.0000,0.0000,1.0000,0.0000,0.0000,2,3887.3001,3203.8998,3203.8998,3789.5375,3789.5375,-0.0232,-0.0232,0.0452,0.0452,0.0000,0.0000,0.0000,0.0000,-1382.9900,-1382.9900,2540.8612,2540.8612,0.0000,0.0000,0.0000,0.0000,0.0000,-14.1759,-14.1759,16.9942,16.9942,-65.7084,-65.7084,63.7160,63.7160,0.0000,-0.6869,13986.8746,0.0000,0.4317,0.4317,0.6705,0.6705,0.0000,0.0000,251.7160,291.3580,4.9002,0.0000,45.7144,240.7434,-10.9726
6.9000,accel,60.8774,0.0000,0.0000,68.0147,18.8784,0.0000,0.0000,1.0000,0.0000,0.0000,2,3952.6688,3225.0598,3225.0598,3772.6557,3772.6557,-0.0200,-0.0200,0.0452,0.0452,0.0000,0.0000,0.0000,0.0000,-1224.4858,-1224.4858,2529.3391,2529.3391,0.0000,0.0000,0.0000,0.0000,0.0000,-14.3941,-14.3941,16.9570,16.9570,-58.5965,-58.5965,56.3026,56.3026,0.0000,-0.6909,13995.4310,0.0000,0.3797,0.3797,0.6704,0.6704,0.0000,0.0000,260.2970,300.6426,5.2113,0.0000,46.4416,248.9897,-11.3073
7.0000,accel,62.7844,0.0000,0.0000,69.1556,19.1934,0.0000,0.0000,1.0000,0.0000,0.0000,2,4018.4681,3249.3716,3249.3716,3752.7170,3752.7170,-0.0166,-0.0166,0.0452,0.0452,0.0000,0.0000,0.0000,0.0000,-1046.7833,-1046.7833,2516.0200,2516.0200,0.0000,0.0000,0.0000,0.0000,0.0000,-14.6255,-14.6255,16.8997,16.8997,-50.5011,-50.5011,47.8424,47.8424,0.0000,-0.6947,14004.1773,0.0000,0.3221,0.3221,0.6705,0.6705,0.0000,0.0000,269.0820,310.1606,5.5384,0.0000,47.1865,257.4358,-11.6462
7.1000,accel,64.7231,0.0000,0.0000,70.3029,19.5101,0.0000,0.0000,1.0000,0.0000,0.0000,2,4083.9757,3277.6956,3277.6956,3728.8548,3728.8548,-0.0131,-0.0131,0.0450,0.0450,0.0000,0.0000,0.0000,0.0000,-849.5022,-849.5022,2495.0468,2495.0468,0.0000,0.0000,0.0000,0.0000,0.0000,-14.8593,-14.8593,16.8064,16.8064,-41.2529,-41.2529,38.1490,38.1490,0.0000,-0.6978,14013.1007,0.0000,0.2592,0.2592,0.6691,0.6691,0.0000,0.0000,278.0591,319.8997,5.8821,0.0000,47.9464,266.0712,-11.9878
7.2000,accel,66.6936,0.0000,0.0000,71.4553,19.8279,0.0000,0.0000,1.0000,0.0000,0.0000,2,4149.6322,3308.7934,3308.7934,3702.3164,3702.3164,-0.0094,-0.0094,0.0448,0.0448,0.0000,0.0000,0.0000,0.0000,-635.1109,-635.1109,2471.8086,2471.8086,0.0000,0.0000,0.0000,0.0000,0.0000,-15.0929,-15.0929,16.6763,16.6763,-31.2250,-31.2250,27.7316,27.7316,0.0000,-0.7001,14022.2196,0.0000,0.1919,0.1919,0.6676,0.6676,0.0000,0.0000,287.2215,329.8528,6.2430,0.0000,48.7215,274.8883,-12.3331
7.3000,accel,68.6962,0.0000,0.0000,72.6125,20.1471,0.0000,0.0000,1.0000,0.0000,0.0000,2,4215.6019,3340.7841,3340.7841,3674.9970,3674.9970,-0.0058,-0.0058,0.0446,0.0446,0.0000,0.0000,0.0000,0.0000,-417.5134,-417.5134,2448.7132,2448.7132,0.0000,0.0000,0.0000,0.0000,0.0000,-15.3339,-15.3339,16.5247,16.5247,-20.8990,-20.8990,17.1945,17.1945,0.0000,-0.7021,14031.5623,0.0000,0.1250,0.1250,0.6663,0.6663,0.0000,0.0000,296.5709,340.0225,6.6217,0.0000,49.5141,283.8867,-12.6842
7.4000,accel,70.7308,0.0000,0.0000,73.7739,20.4677,0.0000,0.0000,1.0000,0.0000,0.0000,2,4282.1731,3368.7151,3368.7151,3651.8810,3651.8810,-0.0028,-0.0028,0.0445,0.0445,0.0000,0.0000,0.0000,0.0000,-231.2489,-231.2489,2430.7319,2430.7319,0.0000,0.0000,0.0000,0.0000,0.0000,-15.5776,-15.5776,16.3779,16.3779,-11.7249,-11.7249,8.2680,8.2680,0.0000,-0.7042,14041.1923,0.0000,0.0686,0.0686,0.6656,0.6656,0.0000,0.0000,306.1094,350.4117,7.0190,0.0000,50.3296,293.0631,-13.0462
7.5000,accel,72.7976,0.0000,0.0000,74.9387,20.7900,0.0000,0.0000,1.0000,0.0000,0.0000,2,4349.6879,3386.9638,3386.9638,3638.6086,3638.6086,-0.0010,-0.0010,0.0445,0.0445,0.0000,0.0000,0.0000,0.0000,-112.7705,-112.7705,2423.4825,2423.4825,0.0000,0.0000,0.0000,0.0000,0.0000,-15.8047,-15.8047,16.2728,16.2728,-5.4470,-5.4470,2.8377,2.8377,0.0000,-0.7069,14051.1448,0.0000,0.0333,0.0333,0.6660,0.6660,0.0000,0.0000,315.8385,361.0230,7.4354,0.0000,51.1740,302.4136,-13.4248
7.6000,accel,74.8968,0.0000,0.0000,76.1071,21.1140,0.0000,0.0000,1.0000,0.0000,0.0000,2,4418.1845,3395.0284,3395.0284,3635.6430,3635.6430,-0.0002,-0.0002,0.0447,0.0447,0.0000,0.0000,0.0000,0.0000,-61.9555,-61.9555,2427.2780,2427.2780,0.0000,0.0000,0.0000,0.0000,0.0000,-15.9881,-15.9881,16.2325,16.2325,-2.4030,-2.4030,0.8571,0.8571,0.0000,-0.7100,14061.3429,0.0000,0.0182,0.0182,0.6676,0.6676,0.0000,0.0000,325.7600,371.8592,7.8717,0.0000,52.0480,311.9395,-13.8204
7.7000,accel,77.0286,0.0000,0.0000,77.2796,21.4394,0.0000,0.0000,1.0000,0.0000,0.0000,2,4487.3835,3397.3300,3397.3300,3638.5125,3638.5125,0.0000,0.0000,0.0449,0.0449,0.0000,0.0000,0.0000,0.0000,-47.8589,-47.8589,2437.3233,2437.3233,0.0000,0.0000,0.0000,0.0000,0.0000,-16.1236,-16.1236,16.2502,16.2502,-1.3596,-1.3596,0.6064,0.6064,0.0000,-0.7134,14071.6850,0.0000,0.0141,0.0141,0.6699,0.6699,0.0000,0.0000,335.8758,382.9231,8.3286,0.0000,52.9477,321.6468,-14.2290
7.8000,accel,79.1929,0.0000,0.0000,78.4537,21.7656,0.0000,0.0000,1.0000,0.0000,0.0000,2,4555.2165,3399.8271,3399.8271,3641.2236,3641.2236,0.0001,0.0001,0.0448,0.0448,0.0000,0.0000,0.0000,0.0000,-45.1972,-45.1972,2435.7238,2435.7238,0.0000,0.0000,0.0000,0.0000,0.0000,-16.2155,-16.2155,16.2838,16.2838,-0.5815,-0.5815,0.1119,0.1119,0.0000,-0.7162,14082.1014,0.0000,0.0133,0.0133,0.6689,0.6689,0.0000,0.0000,346.1569,394.1833,8.8068,0.0000,53.8601,331.5164,-14.6404
7.9000,accel,81.3898,0.0000,0.0000,79.6232,22.0905,0.0000,0.0000,1.0000,0.0000,0.0000,2,4622.2423,3403.0125,3403.0125,3643.2991,3643.2991,0.0001,0.0001,0.0446,0.0446,0.0000,0.0000,0.0000,0.0000,-44.7073,-44.7073,2429.6956,2429.6956,0.0000,0.0000,0.0000,0.0000,0.0000,-16.2426,-16.2426,16.2761,16.2761,-0.0767,-0.0767,-0.1699,-0.1699,0.0000,-0.7166,14092.6231,0.0000,0.0131,0.0131,0.6669,0.6669,0.0000,0.0000,356.5514,405.5828,9.3069,0.0000,54.7799,341.4960,-15.0553
8.0000,brake,83.6191,0.0000,0.0000,80.7881,22.4142,0.0000,0.0000,0.0000,0.0000,0.0000,2,4688.9752,3406.1456,3406.1456,3645.4773,3645.4773,0.0001,0.0001,0.0444,0.0444,0.0000,0.0000,0.0000,0.0000,-44.5024,-44.5024,2423.7477,2423.7477,0.0000,0.0000,0.0000,0.0000,0.0000,-16.2335,-16.2335,16.2521,16.2521,0.2078,0.2078,-0.2842,-0.2842,0.0000,-0.7159,14103.2458,0.0000,0.0131,0.0131,0.6649,0.6649,0.0000,0.0000,367.0569,417.1193,9.8294,0.0000,55.7075,351.5824,-15.4745
8.1000,brake,85.8622,0.0000,0.0000,80.5946,22.3999,0.0000,0.0000,0.0000,0.2000,0.0000,2,4453.8756,3914.1811,3914.1811,3138.2696,3138.2696,-0.0069,-0.0069,-0.0054,-0.0054,0.0000,0.0000,0.0000,0.0000,-565.6638,-565.6638,-369.6900,-369.6900,0.0000,0.0000,0.0000,0.0000,0.0000,-5.2389,-5.2389,7.5370,7.5370,93.5137,93.5137,-82.9097,-82.9097,0.0000,-0.2815,14104.9013,0.0000,0.1445,0.1445,0.1178,0.1178,0.0000,0.0000,364.5168,416.9949,10.3618,1.8612,54.8772,349.8948,-14.6220
8.2000,brake,88.0914,0.0000,0.0000,79.8888,22.2133,0.0000,0.0000,0.0000,0.4000,0.0000,2,4390.2881,4074.6619,4074.6619,2973.6223,2973.6223,-0.0132,-0.0132,-0.0113,-0.0113,0.0000,0.0000,0.0000,0.0000,-1043.1160,-1043.1160,-684.4920,-684.4920,0.0000,0.0000,0.0000,0.0000,0.0000,3.4802,3.4802,-0.6120,-0.6120,71.0055,71.0055,-71.2195,-71.2195,0.0000,0.0902,14096.5684,0.0000,0.2560,0.2560,0.2302,0.2302,0.0000,0.0000,357.9653,416.8740,10.8842,7.7115,54.5036,343.7746,-14.1906
8.3000,brake,90.2945,0.0000,0.0000,78.7719,21.9091,0.0000,0.0000,0.0000,0.5000,0.0000,2,4309.9244,4183.7082,4183.7082,2859.0675,2859.0675,-0.0170,-0.0170,-0.0160,-0.0160,0.0000,0.0000,0.0000,0.0000,-1338.8653,-1338.8653,-898.9022,-898.9022,0.0000,0.0000,0.0000,0.0000,0.0000,10.1707,10.1707,-7.4318,-7.4318,48.5075,48.5075,-54.3912,-54.3912,0.0000,0.3879,14085.5515,0.0000,0.3200,0.3200,0.3144,0.3144,0.0000,0.0000,347.9166,416.7580,11.3885,16.9922,54.1802,334.1972,-13.7193
8.4000,brake,92.4646,0.0000,0.0000,77.5790,21.5774,0.0000,0.0000,0.0000,0.5000,0.0000,2,4245.1943,4183.2930,4183.2930,2853.8895,2853.8895,-0.0167,-0.0167,-0.0158,-0.0158,0.0000,0.0000,0.0000,0.0000,-1321.8716,-1321.8716,-891.4001,-891.4001,0.0000,0.0000,0.0000,0.0000,0.0000,13.2571,13.2571,-11.3228,-11.3228,18.3261,18.3261,-27.1687,-27.1687,0.0000,0.5417,14074.3649,0.0000,0.3160,0.3160,0.3123,0.3123,0.0000,0.0000,337.4552,416.6464,11.8706,26.6954,53.9630,324.1174,-13.3378
8.5000,brake,94.6017,0.0000,0.0000,76.3877,21.2464,0.0000,0.0000,0.0000,0.5000,0.0000,2,4180.1403,4180.6294,4180.6294,2851.5821,2851.5821,-0.0167,-0.0167,-0.0158,-0.0158,0.0000,0.0000,0.0000,0.0000,-1319.5764,-1319.5764,-889.9288,-889.9288,0.0000,0.0000,0.0000,0.0000,0.0000,14.3891,14.3891,-13.2245,-13.2245,6.7735,6.7735,-13.3517,-13.3517,0.0000,0.6085,14064.4229,0.0000,0.3156,0.3156,0.3121,0.3121,0.0000,0.0000,327.1700,416.5386,12.3309,36.2505,53.7533,314.2039,-12.9661
8.6000,brake,96.7056,0.0000,0.0000,75.1982,20.9159,0.0000,0.0000,0.0000,0.5000,0.0000,2,4115.1198,4178.2032,4178.2032,2849.1500,2849.1500,-0.0167,-0.0167,-0.0158,-0.0158,0.0000,0.0000,0.0000,0.0000,-1319.1830,-1319.1830,-889.2835,-889.2835,0.0000,0.0000,0.0000,0.0000,0.0000,14.8038,14.8038,-14.1539,-14.1539,2.4758,2.4758,-6.5303,-6.5303,0.0000,0.6381,14054.7063,0.0000,0.3157,0.3157,0.3121,0.3121,0.0000,0.0000,317.0599,416.4347,12.7702,45.6578,53.5481,304.4586,-12.6012
8.7000,brake,98.7766,0.0000,0.0000,74.0106,20.5860,0.0000,0.0000,0.0000,0.5000,0.0000,2,4050.1850,4175.9946,4175.9946,2846.5085,2846.5085,-0.0167,-0.0167,-0.0158,-0.0158,0.0000,0.0000,0.0000,0.0000,-1319.1401,-1319.1401,-888.7906,-888.7906,0.0000,0.0000,0.0000,0.0000,0.0000,14.9547,14.9547,-14.6075,-14.6075,0.8885,0.8885,-3.1820,-3.1820,0.0000,0.6515,14045.0064,0.0000,0.3159,0.3159,0.3122,0.3122,0.0000,0.0000,307.1240,416.3345,13.1891,54.9173,53.3470,294.8811,-12.2429
8.8000,brake,100.8146,0.0000,0.0000,72.8248,20.2566,0.0000,0.0000,0.0000,0.5000,0.0000,2,3985.3463,4173.8965,4173.8965,2843.7712,2843.7712,-0.0167,-0.0167,-0.0158,-0.0158,0.0000,0.0000,0.0000,0.0000,-1319.2019,-1319.2019,-888.3339,-888.3339,0.0000,0.0000,0.0000,0.0000,0.0000,15.0086,15.0086,-14.8283,-14.8283,0.3014,0.3014,-1.5395,-1.5395,0.0000,0.6575,14035.3354,0.0000,0.3161,0.3161,0.3124,0.3124,0.0000,0.0000,297.3613,416.2380,13.5883,64.0294,53.1499,285.4704,-11.8908
8.9000,brake,102.8197,0.0000,0.0000,71.6409,19.9276,0.0000,0.0000,0.0000,0.5000,0.0000,2,3920.6093,4171.8427,4171.8427,2841.0282,2841.0282,-0.0167,-0.0167,-0.0158,-0.0158,0.0000,0.0000,0.0000,0.0000,-1319.3537,-1319.3537,-887.8632,-887.8632,0.0000,0.0000,0.0000,0.0000,0.0000,15.0266,15.0266,-14.9349,-14.9349,0.0767,0.0767,-0.7289,-0.7289,0.0000,0.6603,14025.7417,0.0000,0.3163,0.3163,0.3125,0.3125,0.0000,0.0000,287.7709,416.1452,13.9686,72.9942,52.9567,276.2257,-11.5452
9.0000,brake,104.7919,0.0000,0.0000,70.4587,19.5992,0.0000,0.0000,0.0000,0.5000,0.0000,2,3855.9674,4169.7893,4169.7893,2838.3434,2838.3434,-0.0167,-0.0167,-0.0159,-0.0159,0.0000,0.0000,0.0000,0.0000,-1319.7470,-1319.7470,-887.4696,-887.4696,0.0000,0.0000,0.0000,0.0000,0.0000,15.0314,15.0314,-14.9856,-14.9856,-0.0211,-0.0211,-0.3162,-0.3162,0.0000,0.6615,14016.2655,0.0000,0.3165,0.3165,0.3127,0.3127,0.0000,0.0000,278.3520,416.0560,14.3304,81.8121,52.7674,267.1462,-11.2058
9.1000,brake,106.7314,0.0000,0.0000,69.2783,19.2713,0.0000,0.0000,0.0000,0.5000,0.0000,2,3791.4056,4167.5557,4167.5557,2835.9099,2835.9099,-0.0168,-0.0168,-0.0159,-0.0159,0.0000,0.0000,0.0000,0.0000,-1321.2729,-1321.2729,-887.3990,-887.3990,0.0000,0.0000,0.0000,0.0000,0.0000,15.0320,15.0320,-15.0087,-15.0087,-0.1277,-0.1277,-0.0439,-0.0439,0.0000,0.6620,14006.9312,0.0000,0.3170,0.3170,0.3129,0.3129,0.0000,0.0000,269.1036,415.9705,14.6745,90.4832,52.5823,258.2306,-10.8730
9.2000,brake,108.6380,0.0000,0.0000,68.0994,18.9439,0.0000,0.0000,0.0000,0.5000,0.0000,2,3726.8279,4163.9506,4163.9506,2834.9415,2834.9415,-0.0169,-0.0169,-0.0159,-0.0159,0.0000,0.0000,0.0000,0.0000,-1330.2614,-1330.2614,-889.3683,-889.3683,0.0000,0.0000,0.0000,0.0000,0.0000,15.0317,15.0317,-15.0129,-15.0129,-0.6304,-0.6304,0.6973,0.6973,0.0000,0.6621,13997.7843,0.0000,0.3195,0.3195,0.3137,0.3137,0.0000,0.0000,260.0248,415.8885,15.0014,99.0078,52.4026,249.4768,-10.5480
9.3000,brake,110.5120,0.0000,0.0000,66.9201,18.6175,0.0000,0.0000,0.0000,0.5000,0.0000,2,3661.3524,4147.7166,4147.7166,2846.7906,2846.7906,-0.0181,-0.0181,-0.0162,-0.0162,0.0000,0.0000,0.0000,0.0000,-1408.6645,-1408.6645,-909.6567,-909.6567,0.0000,0.0000,0.0000,0.0000,0.0000,15.0362,15.0362,-14.9657,-14.9657,-4.7855,-4.7855,6.0466,6.0466,0.0000,0.6611,13989.0144,0.0000,0.3396,0.3396,0.3195,0.3195,0.0000,0.0000,251.1143,415.8098,15.3118,107.3863,52.2411,240.8706,-10.2437
9.4000,brake,112.3532,0.0000,0.0000,65.7228,18.2973,0.0000,0.0000,0.0000,0.5000,0.0000,2,3584.6068,3986.1596,3986.1596,3005.3167,3005.3167,-0.0326,-0.0326,-0.0200,-0.0200,0.0000,0.0000,0.0000,0.0000,-2213.7876,-2213.7876,-1148.4064,-1148.4064,0.0000,0.0000,0.0000,0.0000,0.0000,15.0801,15.0801,-14.4148,-14.4148,-50.7623,-50.7623,64.9901,64.9901,0.0000,0.6500,13982.9528,0.0000,0.5554,0.5554,0.3821,0.3821,0.0000,0.0000,242.3704,415.7345,15.6062,115.6197,52.2227,232.2859,-10.0844
9.5000,brake,114.1620,0.0000,0.0000,64.5349,17.9785,0.0000,0.0000,0.0000,0.5000,0.0000,2,3492.1775,3794.2766,3794.2766,3193.2782,3193.2782,-0.0457,-0.0457,-0.0284,-0.0284,0.0000,0.0000,0.0000,0.0000,-2675.2890,-2675.2890,-1625.2006,-1625.2006,0.0000,0.0000,0.0000,0.0000,0.0000,15.8541,15.8541,-13.1256,-13.1256,-110.6288,-110.6288,128.3024,128.3024,0.0000,0.6386,13975.1097,0.0000,0.7051,0.7051,0.5089,0.5089,0.0000,0.0000,233.7943,415.6623,15.8853,123.6859,52.1739,223.9172,-9.8770
9.6000,brake,115.9383,0.0000,0.0000,63.3601,17.6540,0.0000,0.0000,0.0000,0.5000,0.0000,2,3421.7977,3763.0717,3763.0717,3219.4066,3219.4066,-0.0479,-0.0479,-0.0304,-0.0304,0.0000,0.0000,0.0000,0.0000,-2731.7550,-2731.7550,-1731.7789,-1731.7789,0.0000,0.0000,0.0000,0.0000,0.0000,16.4690,16.4690,-12.4594,-12.4594,-123.4507,-123.4507,133.1122,133.1122,0.0000,0.6375,13964.9567,0.0000,0.7259,0.7259,0.5379,0.5379,0.0000,0.0000,225.3846,415.5931,16.1497,131.6010,52.0524,215.7902,-9.5944
9.7000,brake,117.6820,0.0000,0.0000,62.1870,17.3301,0.0000,0.0000,0.0000,0.5000,0.0000,2,3351.5943,3732.4845,3732.4845,3245.4719,3245.4719,-0.0503,-0.0503,-0.0326,-0.0326,0.0000,0.0000,0.0000,0.0000,-2787.7174,-2787.7174,-1838.0320,-1838.0320,0.0000,0.0000,0.0000,0.0000,0.0000,16.8130,16.8130,-12.0457,-12.0457,-134.1713,-134.1713,140.4008,140.4008,0.0000,0.6360,13955.9127,0.0000,0.7469,0.7469,0.5663,0.5663,0.0000,0.0000,217.1402,415.5270,16.3997,139.3674,51.9373,207.8226,-9.3176
9.8000,brake,119.3933,0.0000,0.0000,61.0156,17.0065,0.0000,0.0000,0.0000,0.5000,0.0000,2,3281.3395,3702.8054,3702.8054,3270.9084,3270.9084,-0.0526,-0.0526,-0.0348,-0.0348,0.0000,0.0000,0.0000,0.0000,-2837.3538,-2837.3538,-1946.0356,-1946.0356,0.0000,0.0000,0.0000,0.0000,0.0000,17.0411,17.0411,-11.7429,-11.7429,-143.8137,-143.8137,148.5274,148.5274,0.0000,0.6343,13947.4277,0.0000,0.7663,0.7663,0.5950,0.5950,0.0000,0.0000,209.0600,415.4639,16.6361,146.9854,51.8287,200.0136,-9.0464
9.9000,brake,121.0722,0.0000,0.0000,59.8458,16.6834,0.0000,0.0000,0.0000,0.5000,0.0000,2,3211.1604,3674.1405,3674.1405,3295.4952,3295.4952,-0.0549,-0.0549,-0.0372,-0.0372,0.0000,0.0000,0.0000,0.0000,-2881.9469,-2881.9469,-2053.6392,-2053.6392,0.0000,0.0000,0.0000,0.0000,0.0000,17.2176,17.2176,-11.4913,-11.4913,-152.8068,-152.8068,156.8063,156.8063,0.0000,0.6327,13939.2714,0.0000,0.7844,0.7844,0.6232,0.6232,0.0000,0.0000,201.1435,415.4036,16.8593,154.4552,51.7264,192.3626,-8.7808
10.0000,corner,122.7186,0.0000,0.0000,58.6776,16.3606,0.0000,0.0000,0.3500,0.0000,0.0000,2,3141.1652,3646.6133,3646.6133,3319.0597,3319.0597,-0.0572,-0.0572,-0.0396,-0.0396,0.0000,0.0000,0.0000,0.0000,-2922.4793,-2922.4793,-2159.0576,-2159.0576,0.0000,0.0000,0.0000,0.0000,0.0000,17.3692,17.3692,-11.2662,-11.2662,-161.3066,-161.3066,164.9216,164.9216,0.0000,0.6310,13931.3460,0.0000,0.8014,0.8014,0.6505,0.6505,0.0000,0.0000,193.3896,415.3460,17.0698,161.7769,51.6303,184.8689,-8.5207
10.1000,corner,124.3539,0.0000,0.0001,59.0034,16.3965,0.0001,0.0023,0.3500,0.0000,0.1000,2,3400.5559,3420.3806,3420.8571,3545.6308,3545.9833,-0.0489,-0.0489,0.0361,0.0361,-0.0911,-0.0911,-0.0000,-0.0000,-2533.5611,-2534.1827,2042.1464,2040.4736,1.8919,1.8917,0.0000,0.0000,-0.0003,7.0396,7.0422,-1.6014,-1.5989,-152.2111,-152.0937,158.7981,158.9144,0.0001,0.1904,13932.8518,0.0911,0.7407,0.7408,0.5760,0.5754,0.0000,0.0000,195.7159,417.9042,17.2760,161.7769,51.9133,186.9379,-8.7779
10.2000,corner,125.9988,0.0000,0.0017,59.3536,16.4934,0.0003,-0.0086,0.3500,0.0000,0.2000,2,3423.7350,3433.0736,3443.8082,3524.6809,3532.6237,-0.0475,-0.0477,0.0447,0.0291,-0.1849,-0.1849,-0.0057,-0.0057,-2493.3484,-2506.5890,2362.7252,1710.6983,9.7374,9.7194,0.0035,0.0052,0.0002,0.7467,0.8042,3.1409,3.1941,-103.7695,-101.1128,102.7137,105.3589,0.0020,-0.0527,13934.1864,0.1793,0.7263,0.7279,0.6703,0.4843,109349.1292,0.0000,198.0529,420.4887,17.4860,161.7769,52.0517,189.1742,-8.8788
10.3000,corner,127.6534,0.0003,0.0094,59.6796,16.5946,0.0002,-0.1523,0.3500,0.0000,0.3000,2,3416.2303,3248.9235,3300.9311,3675.1420,3713.4994,-0.0482,-0.0498,0.0673,-0.0126,-0.2643,-0.2643,-0.0319,-0.0319,-2388.9049,-2469.2957,3054.2207,-917.7496,24.7051,23.8048,0.0716,0.6591,0.0018,-1.7607,-1.5618,5.7423,6.0744,-138.6146,-125.1757,136.5892,148.6107,0.0098,-0.1668,13938.4960,0.2323,0.7353,0.7481,0.8310,0.2471,6243.5619,0.0000,200.4226,423.1246,17.6996,161.7769,52.3820,191.2661,-9.1565
10.4000,corner,129.3177,0.0009,0.0292,60.0340,16.6926,-0.0001,0.0086,0.3500,0.0000,0.4000,2,3434.5830,3245.6345,3319.5626,3659.9526,3714.3855,-0.0461,-0.0484,0.0665,-0.0128,-0.3543,-0.3543,-0.0462,-0.0462,-2311.5656,-2432.3779,3028.3064,-930.3104,45.6816,43.6097,0.2499,1.3648,0.0043,-2.8548,-2.2788,6.7546,7.4665,-131.8757,-114.8678,120.1029,134.7565,0.0238,-0.2133,13939.5352,0.3081,0.7123,0.7329,0.8274,0.2505,111437.8776,0.0000,202.8046,425.7893,17.9170,161.7769,52.5422,193.5532,-9.2514
10.5000,corner,130.9919,0.0022,0.0713,60.3890,16.7906,-0.0030,0.2816,0.3500,0.0000,0.5000,2,3452.8091,3236.6820,3348.2374,3637.1477,3719.2650,-0.0432,-0.0470,0.0657,-0.0130,-0.4456,-0.4457,-0.0792,-0.0791,-2197.1303,-2393.6095,2995.5953,-942.6733,74.6346,69.9843,0.8439,3.8698,0.0080,-3.6914,-2.2682,6.8953,8.2799,-128.5960,-106.8890,109.2844,128.2856,0.0519,-0.2329,13941.3320,0.3665,0.6792,0.7152,0.8236,0.2535,3415.7236,0.0000,205.2036,428.4760,18.1383,161.7769,52.7021,195.8586,-9.3450
10.6000,corner,132.6759,0.0047,0.1488,60.7449,16.8886,-0.0109,0.6968,0.3500,0.0000,0.6000,2,3470.2983,3221.1669,3390.8856,3603.2266,3728.1544,-0.0390,-0.0454,0.0648,-0.0134,-0.5438,-0.5439,-0.1411,-0.1408,-2015.7988,-2351.4099,2949.6285,-961.0800,116.9518,105.6236,3.5474,12.1590,0.0141,-4.6328,-1.7493,6.4975,8.9857,-126.4428,-98.5485,99.4033,124.4916,0.0993,-0.2409,13943.4336,0.4029,0.6269,0.6941,0.8186,0.2578,1388.6812,0.0000,207.6189,431.1845,18.3636,161.7769,52.8605,198.1835,-9.4354
10.7000,corner,134.3697,0.0092,0.2782,61.1024,16.9861,-0.0257,1.2864,0.3500,0.0000,0.7000,2,3486.2873,3203.5171,3458.2860,3548.1085,3735.6288,-0.0316,-0.0436,0.0634,-0.0143,-0.6519,-0.6521,-0.2415,-0.2408,-1661.2539,-2301.7921,2877.6995,-989.6291,188.2967,154.6715,12.8567,34.2744,0.0249,-5.8976,-0.7640,5.6310,9.8006,-122.5903,-86.4680,85.7296,119.0410,0.1719,-0.2434,13945.5403,0.4108,0.5219,0.6671,0.8111,0.2651,756.5348,0.0000,210.0491,433.9147,18.5928,161.7769,53.0113,200.5337,-9.5153
10.8000,corner,136.0734,0.0168,0.4839,61.4675,17.0792,-0.0460,2.1707,0.3500,0.0000,0.8000,2,3497.2704,3264.0172,3663.3454,3362.2256,3656.2209,0.0030,-0.0404,0.0619,-0.0172,-0.7497,-0.7498,-0.3947,-0.3929,-10.7011,-2266.4699,2698.2452,-1106.1699,499.7573,217.7671,38.8096,77.2953,0.0584,-7.7026,0.7837,3.9256,10.6239,-92.5453,-39.0677,28.1502,78.7656,0.2806,-0.2365,13945.8091,0.3559,0.1531,0.6215,0.8026,0.3033,450.8164,0.0000,212.4902,436.6663,18.8260,161.7769,53.1124,202.9510,-9.5391
10.9000,corner,137.7868,0.0304,0.8222,61.8197,17.1784,-0.0717,3.6559,0.3500,0.0000,0.9000,2,3506.1815,3130.6764,3738.2018,3317.0603,3764.2439,0.0030,-0.0416,0.0569,-0.0181,-0.8354,-0.8357,-0.6022,-0.5981,-12.3478,-2332.4558,2527.7448,-1108.2235,633.4831,264.1554,104.2039,164.3795,0.0823,-10.9331,3.1596,1.5948,12.4926,-107.7101,-34.7935,33.0917,102.9870,0.4619,-0.2409,13950.1824,0.2354,0.2024,0.6279,0.7627,0.2976,269.2204,0.0000,214.9384,439.4372,19.0632,161.7769,53.2960,205.3010,-9.6373
11.0000,corner,139.5099,0.0529,1.2977,62.1719,17.2767,-0.1139,4.9316,0.3500,0.0000,1.0000,2,3513.3093,3032.8859,3817.4596,3262.8946,3839.9472,0.0032,-0.0396,0.0508,-0.0187,-0.9915,-0.9915,-0.8435,-0.8362,-13.8928,-2226.5919,2277.7027,-1054.9182,725.0192,370.0370,224.9251,305.2821,0.1156,-14.4826,6.4468,-0.9559,14.9750,-110.4396,-35.7716,36.6331,108.1451,0.6813,-0.2430,13953.1873,0.1516,0.2391,0.5913,0.7015,0.2860,200.7212,0.0000,217.3879,442.2236,19.3046,161.7769,53.4773,207.6648,-9.7231
11.1000,corner,141.2426,0.0877,1.8835,62.5254,17.3726,-0.1527,5.9949,0.3500,0.0000,1.1000,2,3520.5208,2988.3235,3909.1785,3190.5112,3867.2933,0.0034,-0.0297,0.0446,-0.0189,-1.1558,-1.1552,-1.0465,-1.0359,-13.8853,-1653.7010,1972.5120,-981.4029,828.2352,575.1958,378.6270,454.8303,0.1606,-17.7974,9.6844,-3.4206,17.2831,-99.6342,-32.8318,32.0325,95.7084,0.8906,-0.2421,13955.3064,0.1143,0.2772,0.4479,0.6295,0.2797,166.0363,0.0000,219.8276,445.0253,19.5501,161.7769,53.6489,210.0494,-9.7781
11.2000,corner,142.9844,0.1396,2.5813,62.8797,17.4631,-0.1700,7.4868,0.3500,0.0000,1.2000,2,3530.1461,3027.6759,4120.7090,3002.8684,3805.5552,0.0038,0.0032,0.0417,-0.0208,-1.2326,-1.2321,-1.1966,-1.1824,-9.3625,-27.0441,1718.1773,-1025.2811,876.5623,1115.4383,518.1353,556.2645,0.2233,-21.2191,12.7209,-6.2798,19.0002,-64.0828,8.0976,-10.5080,53.5643,1.0945,-0.2338,13956.8085,0.0428,0.2895,0.2708,0.5976,0.3065,133.6429,0.0000,222.2482,447.8458,19.7997,161.7769,53.8137,212.4555,-9.7926
11.3000,corner,144.7348,0.2139,3.4233,63.2189,17.5568,-0.1923,8.8186,0.3500,0.0000,1.3000,2,3552.6148,2934.2586,4223.5451,2927.7995,3874.4773,0.0038,0.0034,0.0425,-0.0196,-1.3154,-1.3151,-1.3748,-1.3558,-10.3267,-25.6108,1652.4869,-892.1854,897.6556,1222.1192,621.4816,715.6884,0.2517,-25.1917,16.3293,-9.2271,21.4764,-62.5363,12.9540,-11.1108,56.0806,1.3349,-0.2326,13960.0805,-0.0500,0.3059,0.2894,0.6030,0.2952,114.0694,0.0000,224.6595,450.6894,20.0533,161.7769,54.0873,214.7718,-9.8877
11.4000,corner,146.4933,0.3138,4.3752,63.5557,17.6489,-0.2203,9.7717,0.3500,0.0000,1.4000,2,3579.8987,2881.2604,4311.2731,2860.2183,3909.8571,0.0040,0.0038,0.0446,-0.0169,-1.4435,-1.4427,-1.5376,-1.5142,-10.4622,-22.9174,1641.2480,-676.8881,958.0325,1354.6307,703.4369,899.5598,0.2851,-28.7940,19.7260,-11.9053,23.8344,-52.0842,13.8873,-11.4948,46.3654,1.5573,-0.2314,13962.6089,-0.0828,0.3325,0.3143,0.6243,0.2879,103.4834,0.0000,227.0564,453.5571,20.3110,161.7769,54.3880,217.0811,-9.9752
11.5000,corner,148.2592,0.4425,5.4066,63.8885,17.7399,-0.2428,10.4761,0.3500,0.0000,1.5000,2,3607.6851,2848.9827,4383.1098,2803.6298,3929.3063,0.0042,0.0041,0.0459,-0.0130,-1.5710,-1.5697,-1.6594,-1.6326,-10.4215,-20.1812,1616.5635,-429.2605,1023.8050,1488.4656,761.9253,1073.9601,0.3166,-31.7883,22.5058,-14.1267,25.7702,-40.0539,14.6339,-11.9993,34.5022,1.7409,-0.2306,13965.0286,-0.0756,0.3594,0.3396,0.6374,0.2943,97.0224,0.0000,229.4347,456.4493,20.5728,161.7769,54.7270,219.3726,-10.0621
11.6000,corner,150.0317,0.6031,6.4939,64.2174,17.8302,-0.2596,10.9211,0.3500,0.0000,1.5000,2,3633.1317,2826.8021,4431.1878,2766.2088,3943.1896,0.0042,0.0042,0.0463,-0.0095,-1.6039,-1.6022,-1.7417,-1.7126,-10.6254,-18.1086,1585.7513,-258.3189,1042.8713,1545.8612,800.2115,1204.8813,0.3345,-34.1645,24.6377,-15.8734,27.2913,-29.5540,12.3569,-10.4179,24.5609,1.8846,-0.2308,13967.3883,-0.1241,0.3689,0.3489,0.6421,0.3125,93.5436,0.0000,231.8027,459.3660,20.8387,161.7769,55.1039,221.6465,-10.1562
11.7000,corner,151.8099,0.7974,7.6087,64.5445,17.9206,-0.2739,11.0962,0.3500,0.0000,1.5000,2,3655.1517,2815.3291,4451.8962,2751.0167,3951.5141,0.0042,0.0043,0.0464,-0.0076,-1.6380,-1.6356,-1.7935,-1.7631,-11.0173,-17.1791,1564.4603,-185.2108,1057.2401,1581.9628,825.6144,1279.2854,0.3455,-35.8316,26.0097,-17.0789,28.3063,-21.0605,6.7295,-6.3514,17.4546,1.9818,-0.2319,13969.7561,-0.1415,0.3756,0.3554,0.6430,0.3271,92.5340,0.0000,234.1721,462.3069,21.1086,161.7769,55.5054,223.9159,-10.2562
11.8000,corner,153.5930,1.0266,8.7339,64.8705,18.0110,-0.2846,11.1682,0.3500,0.0000,1.5000,2,3675.4327,2808.1335,4462.1865,2744.3143,3957.5810,0.0042,0.0044,0.0463,-0.0065,-1.6670,-1.6642,-1.8244,-1.7935,-11.1608,-16.7824,1550.8277,-152.3365,1072.3812,1612.2477,841.2202,1319.6867,0.3529,-36.8994,26.7995,-17.8374,28.9330,-15.6254,2.7567,-3.0535,13.3276,2.0418,-0.2335,13972.2152,-0.1434,0.3819,0.3613,0.6429,0.3357,92.4009,0.0000,236.5464,465.2711,21.3827,161.7769,55.9227,226.1888,-10.3576
11.9000,corner,155.3804,1.2915,9.8641,65.1961,18.1013,-0.2927,11.2089,0.3500,0.0000,1.5000,2,3695.0121,2802.0989,4469.4834,2740.0625,3963.0637,0.0042,0.0044,0.0463,-0.0059,-1.6894,-1.6862,-1.8441,-1.8129,-11.2186,-16.5872,1540.8041,-133.4769,1084.2847,1635.6831,850.7193,1344.4640,0.3579,-37.5833,27.2752,-18.3169,29.3346,-12.6021,0.7257,-1.0489,11.2165,2.0795,-0.2350,13974.7085,-0.1406,0.3870,0.3660,0.6423,0.3409,92.5271,0.0000,238.9286,468.2581,21.6609,161.7769,56.3511,228.4691,-10.4595
12.0000,corner,157.1712,1.5925,10.9977,65.5215,18.1915,-0.2993,11.2420,0.3500,0.0000,1.5000,2,3714.2834,2796.0780,4476.0148,2736.4678,3968.6314,0.0043,0.0044,0.0462,-0.0053,-1.7077,-1.7042,-1.8585,-1.8271,-11.2527,-16.4759,1532.2970,-120.4727,1093.4907,1654.7376,857.0773,1362.2773,0.3618,-38.0383,27.6089,-18.6433,29.6235,-11.2097,-0.1362,0.0681,10.2657,2.1054,-0.2359,13977.1921,-0.1369,0.3911,0.3697,0.6416,0.3446,92.7146,0.0000,241.3208,471.2677,21.9434,161.7769,56.7885,230.7589,-10.5619
12.1000,corner,158.9647,1.9302,12.1345,65.8467,18.2818,-0.3054,11.2749,0.3500,0.0000,1.5000,2,3733.4133,2789.7671,4482.4360,2733.0131,3974.4652,0.0043,0.0045,0.0461,-0.0049,-1.7238,-1.7200,-1.8708,-1.8393,-11.2824,-16.4022,1524.3385,-110.3381,1101.1415,1671.6177,862.0779,1377.1916,0.3650,-38.3873,27.8899,-18.8864,29.8624,-10.6588,-0.4472,0.8269,9.9188,2.1260,-0.2366,13979.6815,-0.1331,0.3947,0.3729,0.6408,0.3476,92.9027,0.0000,243.7239,474.2997,22.2300,161.7769,57.2337,233.0590,-10.6649
12.2000,corner,160.7600,2.3049,13.2745,66.1718,18.3720,-0.3112,11.3095,0.3500,0.0000,1.5000,2,3752.4739,2783.1287,4488.9040,2729.5341,3980.5789,0.0043,0.0045,0.0461,-0.0044,-1.7391,-1.7351,-1.8825,-1.8509,-11.3127,-16.3471,1516.5013,-101.8898,1108.0516,1687.6465,866.6305,1391.0518,0.3680,-38.6930,28.1530,-19.0916,30.0827,-10.5109,-0.6181,1.1947,9.8702,2.1443,-0.2372,13982.1457,-0.1296,0.3982,0.3760,0.6399,0.3504,93.0759,0.0000,246.1384,477.3543,22.5210,161.7769,57.6866,235.3698,-10.7686
12.3000,corner,162.5564,2.7168,14.4180,66.4968,18.4623,-0.3171,11.3459,0.3500,0.0000,1.5000,2,3771.4960,2776.1985,4495.4469,2726.0205,3986.9397,0.0043,0.0045,0.0460,-0.0040,-1.7542,-1.7499,-1.8945,-1.8627,-11.3443,-16.3028,1508.6419,-94.6359,1114.6692,1703.4973,871.1530,1404.6415,0.3710,-38.9837,28.4129,-19.2830,30.2982,-10.5543,-0.7443,1.4097,9.9661,2.1620,-0.2378,13984.6056,-0.1265,0.4015,0.3790,0.6391,0.3531,93.2329,0.0000,248.5642,480.4314,22.8163,161.7769,58.1470,237.6912,-10.8730
12.4000,corner,164.3530,3.1664,15.5651,66.8218,18.5525,-0.3232,11.3838,0.3500,0.0000,1.5000,2,3790.4923,2769.0223,4502.0545,2722.4834,3993.5098,0.0043,0.0045,0.0459,-0.0037,-1.7694,-1.7649,-1.9068,-1.8748,-11.3766,-16.2657,1500.7287,-88.3503,1121.2084,1719.4700,875.8111,1418.2625,0.3740,-39.2712,28.6751,-19.4708,30.5147,-10.6911,-0.8702,1.5778,10.1341,2.1797,-0.2384,13987.0699,-0.1236,0.4049,0.3819,0.6382,0.3558,93.3762,0.0000,251.0014,483.5313,23.1159,161.7769,58.6151,240.0233,-10.9780
