time,phase,pos_x,pos_y,yaw_deg,speed_kph,vx_body,vy_body,yaw_rate_dps,throttle,brake,steer_deg,gear,rpm,fz_fl,fz_fr,fz_rl,fz_rr,sr_fl,sr_fr,sr_rl,sr_rr,sa_fl_deg,sa_fr_deg,sa_rl_deg,sa_rr_deg,fx_fl,fx_fr,fx_rl,fx_rr,fy_fl,fy_fr,fy_rl,fy_rr,lat_accel_g,susp_defl_fl_mm,susp_defl_fr_mm,susp_defl_rl_mm,susp_defl_rr_mm,susp_vel_fl,susp_vel_fr,susp_vel_rl,susp_vel_rr,roll_deg,pitch_deg,fz_total,understeer_deg,fc_util_fl,fc_util_fr,fc_util_rl,fc_util_rr,radius_m,yaw_rate_ref_dps,ke_total_kj,energy_engine_kj,energy_drag_kj,energy_brake_kj,energy_tire_loss_kj,energy_body_kj,integrator_err_kj
0.0000,accel,0.0000,0.0000,0.0000,0.0000,0.0000,0.0000,0.0000,0.0000,0.0000,0.0000,1,1000.0000,3776.8500,3776.8500,3090.1500,3090.1500,0.0000,0.0000,0.0000,0.0000,0.0000,0.0000,0.0000,0.0000,0.0000,0.0000,0.0000,0.0000,0.0000,0.0000,0.0000,0.0000,0.0000,0.0000,0.0000,0.0000,0.0000,0.0000,0.0000,0.0000,0.0000,0.0000,0.0000,13734.0000,0.0000,0.0000,0.0000,0.0000,0.0000,0.0000,0.0000,0.0000,0.0000,0.0000,0.0000,0.0000,0.0000,0.0000
0.1000,accel,0.0000,0.0000,0.0000,0.0189,0.0039,0.0000,0.0000,0.0667,0.0000,0.0000,1,1000.0000,3719.9820,3719.9820,3147.1162,3147.1162,0.0008,0.0008,0.0027,0.0027,0.0000,0.0000,0.0000,0.0000,-1.0390,-1.0390,112.8766,112.8766,0.0000,0.0000,0.0000,0.0000,0.0000,-0.1182,-0.1182,0.1926,0.1926,-4.1920,-4.1920,5.1647,5.1647,0.0000,-0.0068,13734.1964,0.0000,0.0003,0.0003,0.0359,0.0359,0.0000,0.0000,0.0002,0.0011,0.0000,0.0000,0.0011,0.0000,-0.0002
0.2000,accel,0.0018,0.0000,0.0000,0.1124,0.0284,0.0000,0.0000,0.1333,0.0000,0.0000,1,1000.0000,3697.7664,3697.7664,3169.3250,3169.3250,0.0008,0.0008,0.0048,0.0048,0.0000,0.0000,0.0000,0.0000,-2.8283,-2.8283,243.5822,243.5822,0.0000,0.0000,0.0000,0.0000,0.0000,-0.6791,-0.6791,0.8528,0.8528,-6.5330,-6.5330,7.4459,7.4459,0.0000,-0.0338,13734.1827,0.0000,0.0008,0.0008,0.0769,0.0769,0.0000,0.0000,0.0011,0.0064,0.0000,0.0000,0.0058,0.0006,-0.0004
0.3000,accel,0.0072,0.0000,0.0000,0.2748,0.0707,0.0000,0.0000,0.2000,0.0000,0.0000,1,1000.0000,3684.7050,3684.7050,3182.2586,3182.2586,0.0007,0.0007,0.0087,0.0087,0.0000,0.0000,0.0000,0.0000,-4.3055,-4.3055,478.3488,478.3488,0.0000,0.0000,0.0000,0.0000,0.0000,-1.3850,-1.3850,1.6275,1.6275,-5.2234,-5.2234,4.8724,4.8724,0.0000,-0.0664,13733.9272,0.0000,0.0012,0.0012,0.1503,0.1503,0.0000,0.0000,0.0046,0.0183,0.0000,0.0000,0.0143,0.0039,-0.0007
0.4000,accel,0.0179,0.0000,0.0000,0.5225,0.1317,0.0000,0.0000,0.2667,0.0000,0.0000,1,1000.0000,3277.0215,3277.0215,3592.3899,3592.3899,-0.0025,-0.0025,0.0216,0.0216,0.0000,0.0000,0.0000,0.0000,-203.5846,-203.5846,1332.1839,1332.1839,0.0000,0.0000,0.0000,0.0000,0.0000,-1.0419,-1.0419,3.7130,3.7130,-124.1555,-124.1555,148.0681,148.0681,0.0000,-0.1048,13738.8227,0.0000,0.0621,0.0621,0.3708,0.3708,0.0000,0.0000,0.0154,0.0459,0.0000,0.0000,0.0371,0.0089,-0.0065
0.5000,accel,0.0357,0.0000,0.0000,0.8543,0.2041,0.0000,0.0000,0.3333,0.0000,0.0000,1,1000.0000,3777.0994,3777.0994,3087.7102,3087.7102,0.0042,0.0042,0.0633,0.0633,0.0000,0.0000,0.0000,0.0000,241.7835,241.7835,2544.5403,2544.5403,0.0000,0.0000,0.0000,0.0000,0.0000,-1.0275,-1.0275,4.9615,4.9615,26.0687,26.0687,-47.3507,-47.3507,0.0000,-0.1320,13729.6193,0.0000,0.0640,0.0640,0.8241,0.8241,0.0000,0.0000,0.0435,0.0945,0.0000,0.0000,0.0687,0.0258,-0.0177
0.6000,accel,0.0627,0.0000,0.0000,1.1603,0.3211,0.0000,0.0000,0.4000,0.0000,0.0000,1,1000.0000,3670.5635,3670.5635,3193.8369,3193.8369,0.0866,0.0866,-0.1877,-0.1877,0.0000,0.0000,0.0000,0.0000,3321.2982,3321.2982,-3217.0304,-3217.0304,0.0000,0.0000,0.0000,0.0000,0.0000,-2.8579,-2.8579,6.4020,6.4020,1.7546,1.7546,-27.3214,-27.3214,0.0000,-0.2041,13728.8007,0.0000,0.9048,0.9048,1.0073,1.0073,0.0000,0.0000,0.1320,0.1800,0.0000,0.0000,0.1261,0.0539,-0.0781
0.7000,accel,0.1001,0.0000,0.0000,1.3826,0.4533,0.0000,0.0000,0.4667,0.0000,0.0000,1,1000.0000,2788.6929,2788.6929,4082.8150,4082.8150,-0.1723,-0.1723,-0.0489,-0.0489,0.0000,0.0000,0.0000,0.0000,-2847.3072,-2847.3072,-2973.7996,-2973.7996,0.0000,0.0000,0.0000,0.0000,0.0000,-3.3844,-3.3844,9.0255,9.0255,-246.9538,-246.9538,291.0970,291.0970,0.0000,-0.2735,13743.0157,0.0000,1.0210,1.0210,0.7284,0.7284,0.0000,0.0000,0.1959,0.3256,0.0000,0.0000,0.2599,0.0656,-0.1302
0.8000,accel,0.1496,0.0000,0.0000,1.8857,0.5666,0.0000,0.0000,0.5333,0.0000,0.0000,1,1000.0000,3503.7364,3503.7364,3357.5901,3357.5901,-0.0637,-0.0637,-0.0092,-0.0092,0.0000,0.0000,0.0000,0.0000,-2963.8523,-2963.8523,-630.8515,-630.8515,0.0000,0.0000,0.0000,0.0000,0.0000,-2.5811,-2.5811,10.2113,10.2113,-48.3978,-48.3978,-7.7579,-7.7579,0.0000,-0.2819,13722.6529,0.0000,0.8459,0.8459,0.1879,0.1879,0.0000,0.0000,0.2730,0.5833,0.0000,0.0000,0.4556,0.1277,-0.1452
0.9000,accel,0.2133,0.0000,0.0000,2.6423,0.6557,0.0000,0.0000,0.6000,0.0000,0.0000,1,1006.0431,4696.0158,4696.0158,2176.3872,2176.3872,0.1521,0.1521,0.6841,0.6841,0.0000,0.0000,0.0000,0.0000,4468.4852,4468.4852,2110.2584,2110.2584,0.0000,0.0000,0.0000,0.0000,0.0000,-0.7821,-0.7821,9.2989,9.2989,391.1579,391.1579,-338.7341,-338.7341,0.0000,-0.2222,13744.8060,0.0000,0.9515,0.9515,0.9696,0.9696,0.0000,0.0000,0.4785,0.9419,0.0000,0.0000,0.6585,0.2834,-0.1951
1.0000,accel,0.2937,0.0000,0.0000,3.2517,0.8520,0.0000,0.0000,0.6667,0.0000,0.0000,1,1000.0000,4318.6916,4318.6916,2550.0194,2550.0194,0.0251,0.0251,0.4381,0.4381,0.0000,0.0000,0.0000,0.0000,1802.6321,1802.6321,2501.2363,2501.2363,0.0000,0.0000,0.0000,0.0000,0.0000,-2.7475,-2.7475,11.0936,11.0936,259.8648,259.8648,-244.8199,-244.8199,0.0000,-0.3050,13737.4220,0.0000,0.4174,0.4174,0.9809,0.9809,0.0000,0.0000,0.5937,1.3261,0.0000,0.0000,0.8696,0.4565,-0.1372
1.1000,accel,0.3914,0.0000,0.0000,3.8353,1.0509,0.0000,0.0000,0.7333,0.0000,0.0000,1,1333.2073,2611.6777,2611.6777,4258.7563,4258.7563,-0.4099,-0.4099,0.6880,0.6880,0.0000,0.0000,0.0000,0.0000,-2643.4522,-2643.4522,3855.6211,3855.6211,0.0000,0.0000,0.0000,0.0000,0.0000,-4.0235,-4.0235,12.7989,12.7989,-293.0020,-293.0020,323.6601,323.6601,0.0000,-0.3707,13740.8680,0.0000,1.0122,1.0122,0.9053,0.9053,0.0000,0.0000,0.8887,1.9762,0.0001,0.0000,1.3209,0.6552,-0.2335
1.2000,accel,0.5103,0.0000,0.0000,4.7757,1.2481,0.0000,0.0000,0.8000,0.0000,0.0000,1,1000.0000,3802.6174,3802.6174,3060.8472,3060.8472,0.5057,0.5057,0.2147,0.2147,0.0000,0.0000,0.0000,0.0000,3551.6042,3551.6042,3043.5245,3043.5245,0.0000,0.0000,0.0000,0.0000,0.0000,-4.6292,-4.6292,12.8889,12.8889,72.2037,72.2037,-111.7451,-111.7451,0.0000,-0.3860,13726.9291,0.0000,0.9340,0.9340,0.9943,0.9943,0.0000,0.0000,1.2513,2.7284,0.0002,0.0000,1.6652,1.0630,-0.1883
1.3000,accel,0.6521,0.0000,0.0000,5.4513,1.5217,0.0000,0.0000,0.8667,0.0000,0.0000,1,1224.0795,3742.0392,3742.0392,3122.7272,3122.7272,-0.5461,-0.5461,0.5253,0.5253,0.0000,0.0000,0.0000,0.0000,-3596.6901,-3596.6901,2968.7419,2968.7419,0.0000,0.0000,0.0000,0.0000,0.0000,-7.6092,-7.6092,14.7386,14.7386,77.7275,77.7275,-107.3250,-107.3250,0.0000,-0.4925,13729.5328,0.0000,0.9612,0.9612,0.9507,0.9507,0.0000,0.0000,1.7675,3.6561,0.0003,0.0000,2.2373,1.4184,-0.3490
1.4000,accel,0.8195,0.0000,0.0000,6.5706,1.7456,0.0000,0.0000,0.9333,0.0000,0.0000,1,1000.0000,4138.7160,4138.7160,2730.5488,2730.5488,0.2837,0.2837,0.2555,0.2555,0.0000,0.0000,0.0000,0.0000,3952.1734,3952.1734,2731.7047,2731.7047,0.0000,0.0000,0.0000,0.0000,0.0000,-6.9724,-6.9724,14.5343,14.5343,229.9869,229.9869,-217.9632,-217.9632,0.0000,-0.4739,13738.5297,0.0000,0.9549,0.9549,1.0004,1.0004,0.0000,0.0000,2.3846,4.5232,0.0005,0.0000,2.4055,2.1171,-0.2674
1.5000,accel,1.0131,0.0000,0.0000,7.6293,2.0529,0.0000,0.0000,1.0000,0.0000,0.0000,1,1000.0000,3494.6332,3494.6332,3368.8092,3368.8092,0.0444,0.0444,0.1130,0.1130,0.0000,0.0000,0.0000,0.0000,2332.8944,2332.8944,3238.1516,3238.1516,0.0000,0.0000,0.0000,0.0000,0.0000,-9.8139,-9.8139,16.5691,16.5691,0.7001,0.7001,-50.2109,-50.2109,0.0000,-0.5814,13726.8847,0.0000,0.6676,0.6676,0.9612,0.9612,0.0000,0.0000,3.1870,5.7810,0.0009,0.0000,2.8699,2.9102,-0.2767
1.6000,accel,1.2365,0.0000,0.0000,8.6158,2.3157,0.0000,0.0000,1.0000,0.0000,0.0000,1,1684.2645,3838.1656,3838.1656,3029.7891,3029.7891,0.4082,0.4082,0.5041,0.5041,0.0000,0.0000,0.0000,0.0000,3626.0025,3626.0025,2896.4205,2896.4205,0.0000,0.0000,0.0000,0.0000,0.0000,-9.1973,-9.1973,15.7370,15.7370,131.8802,131.8802,-141.2020,-141.2020,0.0000,-0.5495,13735.9095,0.0000,0.9447,0.9447,0.9560,0.9560,0.0000,0.0000,4.3456,7.9860,0.0014,0.0000,4.2311,3.7535,-0.5921
1.7000,accel,1.4941,0.0000,0.0000,9.6563,2.6909,0.0000,0.0000,1.0000,0.0000,0.0000,1,1855.2454,3747.6508,3747.6508,3121.1197,3121.1197,-0.3237,-0.3237,0.4810,0.4810,0.0000,0.0000,0.0000,0.0000,-3705.1499,-3705.1499,2983.0658,2983.0658,0.0000,0.0000,0.0000,0.0000,0.0000,-11.9727,-11.9727,18.0097,18.0097,123.3173,123.3173,-131.4596,-131.4596,0.0000,-0.6607,13737.5408,0.0000,0.9887,0.9887,0.9558,0.9558,0.0000,0.0000,5.6112,9.9064,0.0022,0.0000,5.1378,4.7664,-0.8448
1.8000,accel,1.7860,0.0000,0.0000,11.0440,3.0669,0.0000,0.0000,1.0000,0.0000,0.0000,1,1000.0000,3510.6090,3510.6090,3356.6510,3356.6510,0.2121,0.2121,-0.2136,-0.2136,0.0000,0.0000,0.0000,0.0000,3443.4394,3443.4394,-3364.2579,-3364.2579,0.0000,0.0000,0.0000,0.0000,0.0000,-13.8733,-13.8733,19.9532,19.9532,47.3793,47.3793,-78.1838,-78.1838,0.0000,-0.7454,13734.5201,0.0000,0.9809,0.9809,1.0023,1.0023,0.0000,0.0000,7.0622,12.0456,0.0034,0.0000,5.7456,6.2966,-0.7656
1.9000,accel,2.1122,0.0000,0.0000,12.3165,3.4056,0.0000,0.0000,1.0000,0.0000,0.0000,1,2155.6317,2591.7156,2591.7156,4282.4309,4282.4309,-0.2088,-0.2088,0.4383,0.4383,0.0000,0.0000,0.0000,0.0000,-2665.6450,-2665.6450,3984.9852,3984.9852,0.0000,0.0000,0.0000,0.0000,0.0000,-13.7454,-13.7454,20.1486,20.1486,-229.7043,-229.7043,258.7074,258.7074,0.0000,-0.7469,13748.2930,0.0000,1.0285,1.0285,0.9305,0.9305,0.0000,0.0000,8.8641,15.0483,0.0050,0.0000,7.1611,7.8822,-0.9819
2.0000,accel,2.4777,0.0000,0.0000,13.8509,3.8319,0.0000,0.0000,1.0000,0.0000,0.0000,1,2167.4170,2640.2752,2640.2752,4233.6030,4233.6030,-0.4062,-0.4062,0.3720,0.3720,0.0000,0.0000,0.0000,0.0000,-2670.8477,-2670.8477,3980.0302,3980.0302,0.0000,0.0000,0.0000,0.0000,0.0000,-16.2353,-16.2353,22.6992,22.6992,-198.1743,-198.1743,213.3985,213.3985,0.0000,-0.8580,13747.7564,0.0000,1.0116,1.0116,0.9401,0.9401,0.0000,0.0000,10.9907,18.4495,0.0073,0.0000,8.4135,10.0287,-0.9620
2.1000,accel,2.8845,0.0000,0.0000,14.9349,4.2180,0.0000,0.0000,1.0000,0.0000,0.0000,1,1373.9741,3552.9542,3552.9542,3318.5568,3318.5568,-0.0543,-0.0543,-0.0783,-0.0783,0.0000,0.0000,0.0000,0.0000,-2780.8165,-2780.8165,-3044.6848,-3044.6848,0.0000,0.0000,0.0000,0.0000,0.0000,-15.8862,-15.8862,21.8682,21.8682,83.9535,83.9535,-103.2745,-103.2745,0.0000,-0.8320,13743.0221,0.0000,0.7827,0.7827,0.9175,0.9175,0.0000,0.0000,13.1891,20.8908,0.0105,0.0000,9.1862,11.6941,-1.4951
2.2000,accel,3.3285,0.0000,0.0000,16.7588,4.6420,0.0000,0.0000,1.0000,0.0000,0.0000,1,2906.3217,2712.5736,2712.5736,4162.8144,4162.8144,-0.3090,-0.3090,0.4339,0.4339,0.0000,0.0000,0.0000,0.0000,-2774.6108,-2774.6108,3887.0696,3887.0696,0.0000,0.0000,0.0000,0.0000,0.0000,-17.6188,-17.6188,23.8304,23.8304,-167.9243,-167.9243,173.1651,173.1651,0.0000,-0.9134,13750.7760,0.0000,1.0229,1.0229,0.9338,0.9338,0.0000,0.0000,16.3933,26.5403,0.0147,0.0000,11.7317,14.7939,-1.5994
2.3000,accel,3.8215,0.0000,0.0000,18.4994,5.1279,0.0000,0.0000,1.0000,0.0000,0.0000,1,3721.8878,2802.4154,2802.4154,4073.7888,4073.7888,-0.2369,-0.2369,0.5118,0.5118,0.0000,0.0000,0.0000,0.0000,-2859.9139,-2859.9139,3775.6170,3775.6170,0.0000,0.0000,0.0000,0.0000,0.0000,-19.7971,-19.7971,25.2507,25.2507,-126.8950,-126.8950,122.9337,122.9337,0.0000,-0.9927,13752.4084,0.0000,1.0205,1.0205,0.9268,0.9268,0.0000,0.0000,20.4998,33.7541,0.0203,0.0000,15.6449,18.0888,-2.4109
2.4000,accel,4.3627,0.0000,0.0000,20.2445,5.6093,0.0000,0.0000,1.0000,0.0000,0.0000,1,5845.8919,2605.8081,2605.8081,4274.4462,4274.4462,-0.2363,-0.2363,0.6600,0.6600,0.0000,0.0000,0.0000,0.0000,-2678.6865,-2678.6865,3879.2357,3879.2357,0.0000,0.0000,0.0000,0.0000,0.0000,-20.4507,-20.4507,25.9446,25.9446,-178.6171,-178.6171,195.8017,195.8017,0.0000,-1.0224,13760.5087,0.0000,1.0280,1.0280,0.9075,0.9075,0.0000,0.0000,26.4120,45.7134,0.0278,0.0000,23.9661,21.7195,-4.6925
2.5000,accel,4.9520,0.0000,0.0000,21.9644,6.0881,0.0000,0.0000,1.0000,0.0000,0.0000,2,1613.3301,2774.9033,2774.9033,4105.3763,4105.3763,-0.2040,-0.2040,0.2455,0.2455,0.0000,0.0000,0.0000,0.0000,-2834.6326,-2834.6326,3946.3930,3946.3930,0.0000,0.0000,0.0000,0.0000,0.0000,-20.6684,-20.6684,26.0949,26.0949,-128.9842,-128.9842,126.1761,126.1761,0.0000,-1.0305,13760.5592,0.0000,1.0215,1.0215,0.9613,0.9613,0.0000,0.0000,27.0942,52.6148,0.0375,0.0000,26.9570,25.6203,-1.4739
2.6000,accel,5.5624,0.0000,0.0000,21.9762,6.1102,0.0000,0.0000,1.0000,0.0000,0.0000,2,1407.2324,3653.2163,3653.2163,3225.0425,3225.0425,-0.2322,-0.2322,0.1318,0.1318,0.0000,0.0000,0.0000,0.0000,-3630.6263,-3630.6263,3163.3943,3163.3943,0.0000,0.0000,0.0000,0.0000,0.0000,-8.2211,-8.2211,13.2885,13.2885,46.2585,46.2585,-69.9408,-69.9408,0.0000,-0.4740,13756.5176,0.0000,0.9938,0.9938,0.9809,0.9809,0.0000,0.0000,27.0997,52.6148,0.0482,0.0000,26.9185,25.6481,-1.4516
2.7000,accel,6.1748,0.0000,0.0000,22.2307,6.1641,0.0000,0.0000,1.0000,0.0000,0.0000,2,1639.8006,2873.8574,2873.8574,4010.5476,4010.5476,-0.2491,-0.2491,0.2484,0.2484,0.0000,0.0000,0.0000,0.0000,-2925.4481,-2925.4481,3862.7539,3862.7539,0.0000,0.0000,0.0000,0.0000,0.0000,-3.9589,-3.9589,9.4620,9.4620,-220.1047,-220.1047,254.4918,254.4918,0.0000,-0.2958,13768.8100,0.0000,1.0180,1.0180,0.9631,0.9631,0.0000,0.0000,27.8830,53.5661,0.0590,0.0000,27.2614,26.2456,-1.6374
2.8000,accel,6.8022,0.0000,0.0000,22.7210,6.3705,0.0000,0.0000,1.0000,0.0000,0.0000,2,1220.2150,3493.5636,3493.5636,3383.3793,3383.3793,-0.0523,-0.0523,-0.0417,-0.0417,0.0000,0.0000,0.0000,0.0000,-2684.6879,-2684.6879,-2275.6405,-2275.6405,0.0000,0.0000,0.0000,0.0000,0.0000,-5.6110,-5.6110,12.1610,12.1610,-31.3536,-31.3536,-16.8530,-16.8530,0.0000,-0.3916,13753.8858,0.0000,0.7685,0.7685,0.6726,0.6726,0.0000,0.0000,29.6231,55.5045,0.0707,0.0000,28.0228,27.4110,-2.2121
2.9000,accel,7.4486,0.0000,0.0000,23.4810,6.5295,0.0000,0.0000,1.0000,0.0000,0.0000,2,1703.7552,3725.2298,3725.2298,3154.4758,3154.4758,-0.2128,-0.2128,0.2338,0.2338,0.0000,0.0000,0.0000,0.0000,-3694.9747,-3694.9747,3119.6483,3119.6483,0.0000,0.0000,0.0000,0.0000,0.0000,-5.4991,-5.4991,11.2765,11.2765,47.5322,47.5322,-76.0653,-76.0653,0.0000,-0.3697,13759.4111,0.0000,0.9919,0.9919,0.9890,0.9890,0.0000,0.0000,31.3114,57.4462,0.0834,0.0000,28.0666,29.2962,-2.0152
3.0000,accel,8.1140,0.0000,0.0000,24.2381,6.7310,0.0000,0.0000,1.0000,0.0000,0.0000,2,1582.9682,3312.7139,3312.7139,3567.7450,3567.7450,-0.1987,-0.1987,0.1498,0.1498,0.0000,0.0000,0.0000,0.0000,-3324.5988,-3324.5988,3489.0267,3489.0267,0.0000,0.0000,0.0000,0.0000,0.0000,-6.2104,-6.2104,12.3153,12.3153,-78.9416,-78.9416,48.1930,48.1930,0.0000,-0.4082,13760.9177,0.0000,1.0036,1.0036,0.9779,0.9779,0.0000,0.0000,33.0992,59.4371,0.0973,0.0000,28.1088,31.2310,-1.8681
3.1000,accel,8.7978,0.0000,0.0000,24.9607,6.9181,0.0000,0.0000,1.0000,0.0000,0.0000,2,1792.8639,2672.3021,2672.3021,4215.7993,4215.7993,-0.2851,-0.2851,0.2286,0.2286,0.0000,0.0000,0.0000,0.0000,-2740.1271,-2740.1271,4051.0755,4051.0755,0.0000,0.0000,0.0000,0.0000,0.0000,-5.7756,-5.7756,12.9946,12.9946,-265.1298,-265.1298,300.3964,300.3964,0.0000,-0.4136,13776.2029,0.0000,1.0254,1.0254,0.9609,0.9609,0.0000,0.0000,35.0165,61.6538,0.1124,0.0000,28.4113,33.1301,-1.8864
3.2000,accel,9.5007,0.0000,0.0000,25.7264,7.0688,0.0000,0.0000,1.0000,0.0000,0.0000,2,1741.9899,4292.3567,4292.3567,2595.3543,2595.3543,0.0931,0.0931,0.1887,0.1887,0.0000,0.0000,0.0000,0.0000,3890.5357,3890.5357,2629.6294,2629.6294,0.0000,0.0000,0.0000,0.0000,0.0000,-4.2729,-4.2729,11.5003,11.5003,261.6894,261.6894,-237.8744,-237.8744,0.0000,-0.3476,13775.4219,0.0000,0.9064,0.9064,1.0132,1.0132,0.0000,0.0000,37.0463,63.8987,0.1288,0.0000,28.5655,35.2044,-1.8418
3.3000,accel,10.2234,0.0000,0.0000,26.3889,7.2565,0.0000,0.0000,1.0000,0.0000,0.0000,2,1882.7182,4708.6246,4708.6246,2184.5283,2184.5283,0.0745,0.0745,0.2295,0.2295,0.0000,0.0000,0.0000,0.0000,3965.6957,3965.6957,2243.7802,2243.7802,0.0000,0.0000,0.0000,0.0000,0.0000,-3.7358,-3.7358,11.4445,11.4445,422.6679,422.6679,-355.0241,-355.0241,0.0000,-0.3345,13786.3058,0.0000,0.8422,0.8422,1.0271,1.0271,0.0000,0.0000,39.1424,66.2137,0.1466,0.0000,29.0190,37.0481,-2.0942
3.4000,accel,10.9660,0.0000,0.0000,27.0512,7.5113,0.0000,0.0000,1.0000,0.0000,0.0000,2,1725.1328,3246.5205,3246.5205,3637.6862,3637.6862,-0.1886,-0.1886,0.1295,0.1295,0.0000,0.0000,0.0000,0.0000,-3264.7509,-3264.7509,3520.0739,3520.0739,0.0000,0.0000,0.0000,0.0000,0.0000,-6.4760,-6.4760,13.5873,13.5873,-96.4235,-96.4235,62.4692,62.4692,0.0000,-0.4421,13768.4136,0.0000,1.0056,1.0056,0.9677,0.9677,0.0000,0.0000,41.1776,68.4867,0.1659,0.0000,29.3744,38.9463,-2.2313
3.5000,accel,11.7269,0.0000,0.0000,27.5014,7.6471,0.0000,0.0000,1.0000,0.0000,0.0000,1,2965.6709,3639.6090,3639.6090,3245.0399,3245.0399,-0.1593,-0.1593,0.0864,0.0864,0.0000,0.0000,0.0000,0.0000,-3618.4532,-3618.4532,2971.0880,2971.0880,0.0000,0.0000,0.0000,0.0000,0.0000,-5.1446,-5.1446,10.5537,10.5537,8.8066,8.8066,-46.0246,-46.0246,0.0000,-0.3459,13769.2978,0.0000,0.9942,0.9942,0.9156,0.9156,0.0000,0.0000,42.4689,69.8788,0.1867,0.0000,29.4261,40.2659,-2.2029
3.6000,accel,12.4910,0.0000,0.0000,27.4925,7.6436,0.0000,0.0000,1.0000,0.0000,0.0000,1,3013.6064,3650.7991,3650.7991,3235.1317,3235.1317,-0.1662,-0.1662,0.1013,0.1013,0.0000,0.0000,0.0000,0.0000,-3628.4642,-3628.4642,3069.7013,3069.7013,0.0000,0.0000,0.0000,0.0000,0.0000,-1.8444,-1.8444,5.1912,5.1912,-14.0826,-14.0826,-10.5487,-10.5487,0.0000,-0.1550,13771.8617,0.0000,0.9939,0.9939,0.9489,0.9489,0.0000,0.0000,42.4444,69.8788,0.2077,0.0000,29.4319,40.2391,-2.2052
3.7000,accel,13.2590,0.0000,0.0000,28.0993,7.7931,0.0000,0.0000,1.0000,0.0000,0.0000,1,3406.2146,2846.7064,2846.7064,4048.0939,4048.0939,-0.1152,-0.1152,0.1894,0.1894,0.0000,0.0000,0.0000,0.0000,-2875.9201,-2875.9201,3920.4818,3920.4818,0.0000,0.0000,0.0000,0.0000,0.0000,-5.2854,-5.2854,8.8541,8.8541,-219.3416,-219.3416,273.5842,273.5842,0.0000,-0.3116,13789.6005,0.0000,1.0103,1.0103,0.9685,0.9685,0.0000,0.0000,44.9518,72.9076,0.2291,0.0000,30.6249,42.0535,-2.8982
3.8000,accel,14.0692,0.0000,0.0000,29.9328,8.3032,0.0000,0.0000,1.0000,0.0000,0.0000,1,4748.1406,2811.3475,2811.3475,4082.8654,4082.8654,-0.1245,-0.1245,0.3804,0.3804,0.0000,0.0000,0.0000,0.0000,-2867.0789,-2867.0789,3847.8406,3847.8406,0.0000,0.0000,0.0000,0.0000,0.0000,-14.9544,-14.9544,19.5671,19.5671,-160.7249,-160.7249,179.6383,179.6383,0.0000,-0.7607,13788.4258,0.0000,1.0198,1.0198,0.9424,0.9424,0.0000,0.0000,52.1015,82.6297,0.2542,0.0000,34.5968,47.7787,-4.3228
3.9000,accel,14.9291,0.0000,0.0000,31.6984,8.7943,0.0000,0.0000,1.0000,0.0000,0.0000,1,6334.5568,2810.5113,2810.5113,4085.2447,4085.2447,-0.1204,-0.1204,0.5081,0.5081,0.0000,0.0000,0.0000,0.0000,-2856.9879,-2856.9879,3786.8091,3786.8091,0.0000,0.0000,0.0000,0.0000,0.0000,-18.6153,-18.6153,23.6559,23.6559,-135.1669,-135.1669,138.9619,138.9619,0.0000,-0.9315,13791.5121,0.0000,1.0165,1.0165,0.9269,0.9269,0.0000,0.0000,59.9142,95.9822,0.2842,0.0000,42.0628,53.6351,-6.2790
4.0000,accel,15.8376,0.0000,0.0000,33.4500,9.2803,0.0000,0.0000,1.0000,0.0000,0.0000,1,6810.3218,2790.7433,2790.7433,4107.8431,4107.8431,-0.1171,-0.1171,0.5172,0.5172,0.0000,0.0000,0.0000,0.0000,-2830.3251,-2830.3251,3801.5618,3801.5618,0.0000,0.0000,0.0000,0.0000,0.0000,-20.0616,-20.0616,25.3031,25.3031,-130.8537,-130.8537,130.7539,130.7539,0.0000,-0.9997,13797.1729,0.0000,1.0142,1.0142,0.9254,0.9254,0.0000,0.0000,66.7908,109.6722,0.3196,0.0000,49.5747,59.7779,-7.0128
4.1000,accel,16.7947,0.0000,0.0000,35.2029,9.7665,0.0000,0.0000,1.0000,0.0000,0.0000,1,6904.1910,2765.9222,2765.9222,4136.0951,4136.0951,-0.1135,-0.1135,0.4988,0.4988,0.0000,0.0000,0.0000,0.0000,-2797.0691,-2797.0691,3833.3741,3833.3741,0.0000,0.0000,0.0000,0.0000,0.0000,-20.7026,-20.7026,26.0333,26.0333,-133.7554,-133.7554,133.9358,133.9358,0.0000,-1.0299,13804.0345,0.0000,1.0113,1.0113,0.9268,0.9268,0.0000,0.0000,73.5276,123.2754,0.3610,0.0000,56.6568,66.2576,-7.2700
4.2000,accel,17.8004,0.0000,0.0000,36.9584,10.2535,0.0000,0.0000,1.0000,0.0000,0.0000,1,6906.6111,2756.9484,2756.9484,4148.6662,4148.6662,-0.1068,-0.1068,0.4740,0.4740,0.0000,0.0000,0.0000,0.0000,-2765.1107,-2765.1107,3855.4605,3855.4605,0.0000,0.0000,0.0000,0.0000,0.0000,-21.0276,-21.0276,26.3709,26.3709,-134.4075,-134.4075,134.7287,134.7287,0.0000,-1.0445,13811.2292,0.0000,1.0030,1.0030,0.9293,0.9293,0.0000,0.0000,80.5064,136.8585,0.4090,0.0000,63.3702,73.0793,-7.4271
4.3000,accel,18.8549,0.0000,0.0000,38.7192,10.7421,0.0000,0.0000,1.0000,0.0000,0.0000,1,6885.4647,2758.0750,2758.0750,4151.2841,4151.2841,-0.0990,-0.0990,0.4473,0.4473,0.0000,0.0000,0.0000,0.0000,-2731.1513,-2731.1513,3870.6741,3870.6741,0.0000,0.0000,0.0000,0.0000,0.0000,-21.2356,-21.2356,26.5479,26.5479,-133.0306,-133.0306,133.1007,133.1007,0.0000,-1.0530,13818.7182,0.0000,0.9902,0.9902,0.9324,0.9324,0.0000,0.0000,87.8235,150.4415,0.4643,0.0000,69.7209,80.2563,-7.5672
4.4000,accel,19.9583,0.0000,0.0000,40.4872,11.2326,0.0000,0.0000,1.0000,0.0000,0.0000,1,6857.2296,2762.6089,2762.6089,4150.6847,4150.6847,-0.0915,-0.0915,0.4196,0.4196,0.0000,0.0000,0.0000,0.0000,-2691.1996,-2691.1996,3884.1990,3884.1990,0.0000,0.0000,0.0000,0.0000,0.0000,-21.4047,-21.4047,26.6605,26.6605,-130.9802,-130.9802,130.7842,130.7842,0.0000,-1.0592,13826.5873,0.0000,0.9742,0.9742,0.9358,0.9358,0.0000,0.0000,95.5059,164.0292,0.5277,0.0000,75.7021,87.7994,-7.7065
4.5000,accel,21.1110,0.0000,0.0000,42.2575,11.7268,0.0000,0.0000,1.0000,0.0000,0.0000,2,2545.5037,2753.5050,2753.5050,4164.0966,4164.0966,-0.0843,-0.0843,0.0790,0.0790,0.0000,0.0000,0.0000,0.0000,-2629.1926,-2629.1926,3622.6948,3622.6948,0.0000,0.0000,0.0000,0.0000,0.0000,-21.6219,-21.6219,26.8089,26.8089,-132.5063,-132.5063,133.6649,133.6649,0.0000,-1.0673,13835.2033,0.0000,0.9549,0.9549,0.8700,0.8700,0.0000,0.0000,100.0739,173.0906,0.6000,0.0000,76.7997,95.6910,-4.3829
4.6000,accel,22.2834,0.0000,0.0000,42.1861,11.7276,0.0000,0.0000,1.0000,0.0000,0.0000,2,2504.1119,3634.1689,3634.1689,3280.4663,3280.4663,-0.0903,-0.0903,0.0638,0.0638,0.0000,0.0000,0.0000,0.0000,-3434.9633,-3434.9633,2694.7546,2694.7546,0.0000,0.0000,0.0000,0.0000,0.0000,-8.1815,-8.1815,13.2901,13.2901,32.3516,32.3516,-60.4292,-60.4292,0.0000,-0.4732,13829.2704,0.0000,0.9452,0.9452,0.8215,0.8215,0.0000,0.0000,99.9973,173.0906,0.6760,0.0000,77.0502,95.3645,-4.6328
4.7000,accel,23.4568,0.0000,0.0000,42.4534,11.7945,0.0000,0.0000,1.0000,0.0000,0.0000,2,2450.2691,2670.7081,2670.7081,4254.3916,4254.3916,-0.0914,-0.0914,0.0377,0.0377,0.0000,0.0000,0.0000,0.0000,-2609.5726,-2609.5726,2484.6491,2484.6491,0.0000,0.0000,0.0000,0.0000,0.0000,-5.4866,-5.4866,9.7237,9.7237,-271.4818,-271.4818,340.4939,340.4939,0.0000,-0.3352,13850.1994,0.0000,0.9771,0.9771,0.5840,0.5840,0.0000,0.0000,101.3730,174.6706,0.7522,0.0000,77.3360,96.5824,-4.7906
4.8000,accel,24.6502,0.0000,0.0000,43.3486,12.0410,0.0000,0.0000,1.0000,0.0000,0.0000,2,2565.6500,3116.7084,3116.7084,3804.4640,3804.4640,-0.0883,-0.0883,0.0618,0.0618,0.0000,0.0000,0.0000,0.0000,-2974.7543,-2974.7543,3034.8306,3034.8306,0.0000,0.0000,0.0000,0.0000,0.0000,-8.4272,-8.4272,12.4781,12.4781,-123.2958,-123.2958,132.4611,132.4611,0.0000,-0.4607,13842.3448,0.0000,0.9545,0.9545,0.7977,0.7977,0.0000,0.0000,105.7797,179.3359,0.8323,0.0000,77.7799,100.7236,-5.0561
4.9000,accel,25.8692,0.0000,0.0000,44.2694,12.2965,0.0000,0.0000,1.0000,0.0000,0.0000,2,2622.6519,3133.6557,3133.6557,3789.2428,3789.2428,-0.0851,-0.0851,0.0627,0.0627,0.0000,0.0000,0.0000,0.0000,-2961.6171,-2961.6171,3044.4327,3044.4327,0.0000,0.0000,0.0000,0.0000,0.0000,-9.8474,-9.8474,13.8374,13.8374,-108.5706,-108.5706,112.2309,112.2309,0.0000,-0.5219,13845.7970,0.0000,0.9451,0.9451,0.8034,0.8034,0.0000,0.0000,110.3315,184.1599,0.9178,0.0000,78.1681,105.0741,-5.2575
5.0000,accel,27.1139,0.0000,0.0000,45.2030,12.5559,0.0000,0.0000,1.0000,0.0000,0.0000,2,2672.1990,3128.3876,3128.3876,3796.7271,3796.7271,-0.0820,-0.0820,0.0607,0.0607,0.0000,0.0000,0.0000,0.0000,-2927.4874,-2927.4874,3003.3830,3003.3830,0.0000,0.0000,0.0000,0.0000,0.0000,-10.5348,-10.5348,14.5440,14.5440,-105.4367,-105.4367,107.5904,107.5904,0.0000,-0.5527,13850.2293,0.0000,0.9358,0.9358,0.7910,0.7910,0.0000,0.0000,115.0355,189.1452,1.0087,0.0000,78.5581,109.5784,-5.4571
5.1000,accel,28.3848,0.0000,0.0000,46.1482,12.8186,0.0000,0.0000,1.0000,0.0000,0.0000,2,2721.5040,3119.9469,3119.9469,3807.5642,3807.5642,-0.0790,-0.0790,0.0584,0.0584,0.0000,0.0000,0.0000,0.0000,-2888.2584,-2888.2584,2955.3920,2955.3920,0.0000,0.0000,0.0000,0.0000,0.0000,-10.9024,-10.9024,14.9636,14.9636,-105.5022,-105.5022,107.1413,107.1413,0.0000,-0.5700,13855.0223,0.0000,0.9257,0.9257,0.7762,0.7762,0.0000,0.0000,119.8965,194.2977,1.1056,0.0000,78.9581,114.2340,-5.6625
5.2000,accel,29.6822,0.0000,0.0000,47.1048,13.0844,0.0000,0.0000,1.0000,0.0000,0.0000,2,2771.7261,3111.6429,3111.6429,3818.3737,3818.3737,-0.0760,-0.0760,0.0563,0.0563,0.0000,0.0000,0.0000,0.0000,-2846.5390,-2846.5390,2907.7055,2907.7055,0.0000,0.0000,0.0000,0.0000,0.0000,-11.1351,-11.1351,15.2592,15.2592,-106.5018,-106.5018,107.9015,107.9015,0.0000,-0.5816,13860.0332,0.0000,0.9148,0.9148,0.7615,0.7615,0.0000,0.0000,124.9190,199.6231,1.2086,0.0000,79.3703,119.0442,-5.8748
5.3000,accel,31.0063,0.0000,0.0000,48.0731,13.3534,0.0000,0.0000,1.0000,0.0000,0.0000,2,2823.0384,3103.9277,3103.9277,3828.6869,3828.6869,-0.0731,-0.0731,0.0544,0.0544,0.0000,0.0000,0.0000,0.0000,-2802.4759,-2802.4759,2862.0459,2862.0459,0.0000,0.0000,0.0000,0.0000,0.0000,-11.3135,-11.3135,15.5009,15.5009,-107.7303,-107.7303,108.9827,108.9827,0.0000,-0.5909,13865.2293,0.0000,0.9029,0.9029,0.7475,0.7475,0.0000,0.0000,130.1080,205.1273,1.3181,0.0000,79.7955,124.0136,-6.0943
5.4000,accel,32.3575,0.0000,0.0000,49.0533,13.6257,0.0000,0.0000,1.0000,0.0000,0.0000,2,2875.5566,3097.0891,3097.0891,3838.2112,3838.2112,-0.0702,-0.0702,0.0527,0.0527,0.0000,0.0000,0.0000,0.0000,-2756.0280,-2756.0280,2819.8907,2819.8907,0.0000,0.0000,0.0000,0.0000,0.0000,-11.4728,-11.4728,15.7174,15.7174,-108.8548,-108.8548,109.9796,109.9796,0.0000,-0.5992,13870.6007,0.0000,0.8899,0.8899,0.7347,0.7347,0.0000,0.0000,135.4684,210.8164,1.4344,0.0000,80.2348,129.1472,-6.3211
5.5000,accel,33.7362,0.0000,0.0000,50.0457,13.9012,0.0000,0.0000,1.0000,0.0000,0.0000,2,2929.3658,3091.3720,3091.3720,3846.7014,3846.7014,-0.0673,-0.0673,0.0513,0.0513,0.0000,0.0000,0.0000,0.0000,-2707.0843,-2707.0843,2782.4714,2782.4714,0.0000,0.0000,0.0000,0.0000,0.0000,-11.6288,-11.6288,15.9199,15.9199,-109.6930,-109.6930,110.6815,110.6815,0.0000,-0.6071,13876.1467,0.0000,0.8757,0.8757,0.7233,0.7233,0.0000,0.0000,141.0052,216.6969,1.5580,0.0000,80.6889,134.4500,-6.5552
5.6000,accel,35.1425,0.0000,0.0000,51.0504,14.1801,0.0000,0.0000,1.0000,0.0000,0.0000,2,2984.5093,3086.9523,3086.9523,3853.9831,3853.9831,-0.0644,-0.0644,0.0502,0.0502,0.0000,0.0000,0.0000,0.0000,-2655.4580,-2655.4580,2750.5569,2750.5569,0.0000,0.0000,0.0000,0.0000,0.0000,-11.7888,-11.7888,16.1124,16.1124,-110.1418,-110.1418,110.9782,110.9782,0.0000,-0.6149,13881.8708,0.0000,0.8602,0.8602,0.7137,0.7137,0.0000,0.0000,146.7238,222.7753,1.6892,0.0000,81.1589,139.9271,-6.7966
5.7000,accel,36.5770,0.0000,0.0000,52.0671,14.4621,0.0000,0.0000,1.0000,0.0000,0.0000,2,3041.5427,3085.6645,3085.6645,3858.2075,3858.2075,-0.0615,-0.0615,0.0495,0.0495,0.0000,0.0000,0.0000,0.0000,-2602.1181,-2602.1181,2729.4620,2729.4620,0.0000,0.0000,0.0000,0.0000,0.0000,-11.9508,-11.9508,16.2869,16.2869,-109.6915,-109.6915,110.2106,110.2106,0.0000,-0.6223,13887.7438,0.0000,0.8433,0.8433,0.7074,0.7074,0.0000,0.0000,152.6246,229.0529,1.8285,0.0000,81.6437,145.5807,-7.0438
5.8000,accel,38.0399,0.0000,0.0000,53.0937,14.7469,0.0000,0.0000,1.0000,0.0000,0.0000,2,3099.5531,3086.7018,3086.7018,3860.1989,3860.1989,-0.0587,-0.0587,0.0489,0.0489,0.0000,0.0000,0.0000,0.0000,-2546.5357,-2546.5357,2711.5456,2711.5456,0.0000,0.0000,0.0000,0.0000,0.0000,-12.1101,-12.1101,16.4294,16.4294,-108.6067,-108.6067,108.8490,108.8490,0.0000,-0.6289,13893.8013,0.0000,0.8250,0.8250,0.7024,0.7024,0.0000,0.0000,158.7005,235.5233,1.9761,0.0000,82.1440,151.4032,-7.2972
5.9000,accel,39.5314,0.0000,0.0000,54.1281,15.0339,0.0000,0.0000,1.0000,0.0000,0.0000,2,3157.3861,3088.3278,3088.3278,3861.6969,3861.6969,-0.0559,-0.0559,0.0481,0.0481,0.0000,0.0000,0.0000,0.0000,-2488.1968,-2488.1968,2687.1483,2687.1483,0.0000,0.0000,0.0000,0.0000,0.0000,-12.2532,-12.2532,16.5431,16.5431,-107.4792,-107.4792,107.5569,107.5569,0.0000,-0.6346,13900.0496,0.0000,0.8057,0.8057,0.6958,0.6958,0.0000,0.0000,164.9418,242.1762,2.1326,0.0000,82.6589,157.3847,-7.5571
6.0000,accel,41.0517,0.0000,0.0000,55.1699,15.3228,0.0000,0.0000,1.0000,0.0000,0.0000,2,3215.9770,3091.1196,3091.1196,3862.1131,3862.1131,-0.0532,-0.0532,0.0475,0.0475,0.0000,0.0000,0.0000,0.0000,-2426.2867,-2426.2867,2666.0621,2666.0621,0.0000,0.0000,0.0000,0.0000,0.0000,-12.3869,-12.3869,16.6364,16.6364,-106.0946,-106.0946,106.0175,106.0175,0.0000,-0.6396,13906.4653,0.0000,0.7849,0.7849,0.6903,0.6903,0.0000,0.0000,171.3487,249.0122,2.2983,0.0000,83.1881,163.5258,-7.8229
6.1000,accel,42.6011,0.0000,0.0000,56.2191,15.6137,0.0000,0.0000,1.0000,0.0000,0.0000,2,3275.2886,3095.0847,3095.0847,3861.4404,3861.4404,-0.0505,-0.0505,0.0470,0.0470,0.0000,0.0000,0.0000,0.0000,-2360.4527,-2360.4527,2647.8720,2647.8720,0.0000,0.0000,0.0000,0.0000,0.0000,-12.5208,-12.5208,16.7163,16.7163,-104.3831,-104.3831,104.1555,104.1555,0.0000,-0.6443,13913.0503,0.0000,0.7626,0.7626,0.6857,0.6857,0.0000,0.0000,177.9239,256.0349,2.4738,0.0000,83.7320,169.8291,-8.0947
6.2000,accel,44.1796,0.0000,0.0000,57.2757,15.9066,0.0000,0.0000,1.0000,0.0000,0.0000,2,3335.2848,3100.2230,3100.2230,3859.6805,3859.6805,-0.0478,-0.0478,0.0466,0.0466,0.0000,0.0000,0.0000,0.0000,-2290.2902,-2290.2902,2632.1447,2632.1447,0.0000,0.0000,0.0000,0.0000,0.0000,-12.6589,-12.6589,16.7859,16.7859,-102.3166,-102.3166,101.9406,101.9406,0.0000,-0.6489,13919.8070,0.0000,0.7388,0.7388,0.6820,0.6820,0.0000,0.0000,184.6703,263.2482,2.6593,0.0000,84.2913,176.2976,-8.3727
6.3000,accel,45.7877,0.0000,0.0000,58.3399,16.2015,0.0000,0.0000,1.0000,0.0000,0.0000,2,3395.9329,3106.5444,3106.5444,3856.8246,3856.8246,-0.0451,-0.0451,0.0463,0.0463,0.0000,0.0000,0.0000,0.0000,-2215.3361,-2215.3361,2618.4610,2618.4610,0.0000,0.0000,0.0000,0.0000,0.0000,-12.8028,-12.8028,16.8466,16.8466,-99.8806,-99.8806,99.3564,99.3564,0.0000,-0.6534,13926.7381,0.0000,0.7131,0.7131,0.6789,0.6789,0.0000,0.0000,191.5909,270.6559,2.8554,0.0000,84.8662,182.9343,-8.6566
6.4000,accel,47.4254,0.0000,0.0000,59.4117,16.4984,0.0000,0.0000,1.0000,0.0000,0.0000,2,3457.2041,3114.0745,3114.0745,3852.8485,3852.8485,-0.0424,-0.0424,0.0460,0.0460,0.0000,0.0000,0.0000,0.0000,-2135.0545,-2135.0545,2606.4254,2606.4254,0.0000,0.0000,0.0000,0.0000,0.0000,-12.9532,-12.9532,16.8987,16.8987,-97.0627,-97.0627,96.3885,96.3885,0.0000,-0.6578,13933.8460,0.0000,0.6856,0.6856,0.6765,0.6765,0.0000,0.0000,198.6887,278.2618,3.0626,0.0000,85.4572,189.7420,-8.9466
6.5000,accel,49.0929,0.0000,0.0000,60.4910,16.7973,0.0000,0.0000,1.0000,0.0000,0.0000,2,3519.0731,3122.8584,3122.8584,3847.7081,3847.7081,-0.0397,-0.0397,0.0458,0.0458,0.0000,0.0000,0.0000,0.0000,-2048.8160,-2048.8160,2595.6674,2595.6674,0.0000,0.0000,0.0000,0.0000,0.0000,-13.1105,-13.1105,16.9422,16.9422,-93.8476,-93.8476,93.0191,93.0191,0.0000,-0.6623,13941.1331,0.0000,0.6561,0.6561,0.6746,0.6746,0.0000,0.0000,205.9666,286.0698,3.2813,0.0000,86.0646,196.7239,-9.2427
6.6000,accel,50.7905,0.0000,0.0000,61.5781,17.0983,0.0000,0.0000,1.0000,0.0000,0.0000,2,3581.5173,3132.9659,3132.9659,3841.3351,3841.3351,-0.0370,-0.0370,0.0456,0.0456,0.0000,0.0000,0.0000,0.0000,-1955.8698,-1955.8698,2585.8366,2585.8366,0.0000,0.0000,0.0000,0.0000,0.0000,-13.2750,-13.2750,16.9769,16.9769,-90.2132,-90.2132,89.2235,89.2235,0.0000,-0.6667,13948.6019,0.0000,0.6243,0.6243,0.6732,0.6732,0.0000,0.0000,213.4277,294.0838,3.5120,0.0000,86.6889,203.8828,-9.5448
6.7000,accel,52.5183,0.0000,0.0000,62.6729,17.4014,0.0000,0.0000,1.0000,0.0000,0.0000,2,3644.5164,3144.4958,3144.4958,3833.6315,3833.6315,-0.0343,-0.0343,0.0455,0.0455,0.0000,0.0000,0.0000,0.0000,-1855.3044,-1855.3044,2576.5945,2576.5945,0.0000,0.0000,0.0000,0.0000,0.0000,-13.4470,-13.4470,17.0021,17.0021,-86.1290,-86.1290,84.9676,84.9676,0.0000,-0.6710,13956.2547,0.0000,0.5900,0.5900,0.6721,0.6721,0.0000,0.0000,221.0750,302.3077,3.7553,0.0000,87.3304,211.2220,-9.8529
6.8000,accel,54.2767,0.0000,0.0000,63.7755,17.7065,0.0000,0.0000,1.0000,0.0000,0.0000,2,3708.0508,3157.5839,3157.5839,3824.4629,3824.4629,-0.0315,-0.0315,0.0454,0.0454,0.0000,0.0000,0.0000,0.0000,-1745.9951,-1745.9951,2567.6027,2567.6027,0.0000,0.0000,0.0000,0.0000,0.0000,-13.6271,-13.6271,17.0171,17.0171,-81.5532,-81.5532,80.2054,80.2054,0.0000,-0.6753,13964.0935,0.0000,0.5530,0.5530,0.6714,0.6714,0.0000,0.0000,228.9116,310.7458,4.0118,0.0000,87.9894,218.7446,-10.1670
6.9000,accel,56.0657,0.0000,0.0000,64.8860,18.0137,0.0000,0.0000,1.0000,0.0000,0.0000,2,3772.1009,3172.4120,3172.4120,3813.6481,3813.6481,-0.0286,-0.0286,0.0453,0.0453,0.0000,0.0000,0.0000,0.0000,-1626.5336,-1626.5336,2558.5096,2558.5096,0.0000,0.0000,0.0000,0.0000,0.0000,-13.8158,-13.8158,17.0208,17.0208,-76.4293,-76.4293,74.8753,74.8753,0.0000,-0.6795,13972.1201,0.0000,0.5127,0.5127,0.6709,0.6709,0.0000,0.0000,236.9407,319.4020,4.2818,0.0000,88.6662,226.4539,-10.4868
7.0000,accel,57.8857,0.0000,0.0000,66.0044,18.3229,0.0000,0.0000,1.0000,0.0000,0.0000,2,3836.6463,3189.2211,3189.2211,3800.9471,3800.9471,-0.0256,-0.0256,0.0453,0.0453,0.0000,0.0000,0.0000,0.0000,-1495.1394,-1495.1394,2548.9340,2548.9340,0.0000,0.0000,0.0000,0.0000,0.0000,-14.0141,-14.0141,17.0116,17.0116,-70.6827,-70.6827,68.8957,68.8957,0.0000,-0.6837,13980.3363,0.0000,0.4688,0.4688,0.6706,0.6706,0.0000,0.0000,245.1655,328.2804,4.5661,0.0000,89.3611,234.3532,-10.8123
7.1000,accel,59.7367,0.0000,0.0000,67.1308,18.6343,0.0000,0.0000,1.0000,0.0000,0.0000,2,3901.6642,3208.3245,3208.3245,3786.0471,3786.0471,-0.0225,-0.0225,0.0452,0.0452,0.0000,0.0000,0.0000,0.0000,-1349.5671,-1349.5671,2538.4496,2538.4496,0.0000,0.0000,0.0000,0.0000,0.0000,-14.2229,-14.2229,16.9876,16.9876,-64.2160,-64.2160,62.1610,62.1610,0.0000,-0.6878,13988.7433,0.0000,0.4206,0.4206,0.6705,0.6705,0.0000,0.0000,253.5892,337.3855,4.8653,0.0000,90.0741,242.4461,-11.1430
7.2000,accel,61.6191,0.0000,0.0000,68.2654,18.9477,0.0000,0.0000,1.0000,0.0000,0.0000,2,3967.1291,3230.1130,3230.1130,3768.5580,3768.5580,-0.0193,-0.0193,0.0452,0.0452,0.0000,0.0000,0.0000,0.0000,-1187.0822,-1187.0822,2526.5791,2526.5791,0.0000,0.0000,0.0000,0.0000,0.0000,-14.4439,-14.4439,16.9462,16.9462,-56.9069,-56.9069,54.5400,54.5400,0.0000,-0.6917,13997.3420,0.0000,0.3675,0.3675,0.6704,0.6704,0.0000,0.0000,262.2150,346.7213,5.1799,0.0000,90.8053,250.7361,-11.4788
7.3000,accel,63.5331,0.0000,0.0000,69.4080,19.2631,0.0000,0.0000,1.0000,0.0000,0.0000,2,4032.9344,3255.3611,3255.3611,3747.7020,3747.7020,-0.0159,-0.0159,0.0451,0.0451,0.0000,0.0000,0.0000,0.0000,-1004.8740,-1004.8740,2512.0052,2512.0052,0.0000,0.0000,0.0000,0.0000,0.0000,-14.6777,-14.6777,16.8830,16.8830,-48.5296,-48.5296,45.7670,45.7670,0.0000,-0.6955,14006.1263,0.0000,0.3087,0.3087,0.6703,0.6703,0.0000,0.0000,271.0440,356.2899,5.5106,0.0000,91.5536,259.2257,-11.8183
7.4000,accel,65.4788,0.0000,0.0000,70.5564,19.5800,0.0000,0.0000,1.0000,0.0000,0.0000,2,4098.4224,3284.3322,3284.3322,3723.2142,3723.2142,-0.0123,-0.0123,0.0449,0.0449,0.0000,0.0000,0.0000,0.0000,-803.5492,-803.5492,2490.0531,2490.0531,0.0000,0.0000,0.0000,0.0000,0.0000,-14.9104,-14.9104,16.7805,16.7805,-39.1068,-39.1068,35.9112,35.9112,0.0000,-0.6984,14015.0928,0.0000,0.2447,0.2447,0.6688,0.6688,0.0000,0.0000,280.0618,366.0759,5.8580,0.0000,92.3168,267.9011,-12.1607
7.5000,accel,67.4563,0.0000,0.0000,71.7099,19.8981,0.0000,0.0000,1.0000,0.0000,0.0000,2,4164.1331,3315.8892,3315.8892,3696.2393,3696.2393,-0.0086,-0.0086,0.0447,0.0447,0.0000,0.0000,0.0000,0.0000,-586.5522,-586.5522,2466.5832,2466.5832,0.0000,0.0000,0.0000,0.0000,0.0000,-15.1453,-15.1453,16.6441,16.6441,-28.9404,-28.9404,25.3769,25.3769,0.0000,-0.7005,14024.2569,0.0000,0.1769,0.1769,0.6673,0.6673,0.0000,0.0000,289.2652,376.0765,6.2228,0.0000,93.0955,276.7582,-12.5070
7.6000,accel,69.4659,0.0000,0.0000,72.8681,20.2176,0.0000,0.0000,1.0000,0.0000,0.0000,2,4230.2042,3347.5116,3347.5116,3669.3169,3669.3169,-0.0051,-0.0051,0.0446,0.0446,0.0000,0.0000,0.0000,0.0000,-372.2593,-372.2593,2444.0865,2444.0865,0.0000,0.0000,0.0000,0.0000,0.0000,-15.3878,-15.3878,16.4908,16.4908,-18.7111,-18.7111,15.0113,15.0113,0.0000,-0.7025,14033.6569,0.0000,0.1112,0.1112,0.6661,0.6661,0.0000,0.0000,298.6562,386.2944,6.6055,0.0000,93.8926,285.7962,-12.8599
7.7000,accel,71.5076,0.0000,0.0000,74.0302,20.5386,0.0000,0.0000,1.0000,0.0000,0.0000,2,4296.9590,3373.6968,3373.6968,3647.9823,3647.9823,-0.0023,-0.0023,0.0445,0.0445,0.0000,0.0000,0.0000,0.0000,-198.5720,-198.5720,2428.0858,2428.0858,0.0000,0.0000,0.0000,0.0000,0.0000,-15.6300,-15.6300,16.3499,16.3499,-10.0497,-10.0497,6.7321,6.7321,0.0000,-0.7047,14043.3581,0.0000,0.0589,0.0589,0.6656,0.6656,0.0000,0.0000,308.2365,396.7323,7.0070,0.0000,94.7140,295.0112,-13.2252
7.8000,accel,73.5816,0.0000,0.0000,75.1958,20.8613,0.0000,0.0000,1.0000,0.0000,0.0000,2,4364.7022,3389.4995,3389.4995,3637.1884,3637.1884,-0.0007,-0.0007,0.0445,0.0445,0.0000,0.0000,0.0000,0.0000,-96.6437,-96.6437,2423.4982,2423.4982,0.0000,0.0000,0.0000,0.0000,0.0000,-15.8502,-15.8502,16.2581,16.2581,-4.5228,-4.5228,2.1543,2.1543,0.0000,-0.7076,14053.3758,0.0000,0.0285,0.0285,0.6663,0.6663,0.0000,0.0000,318.0078,407.3929,7.4277,0.0000,95.5651,304.4000,-13.6078
7.9000,accel,75.6879,0.0000,0.0000,76.3651,21.1855,0.0000,0.0000,1.0000,0.0000,0.0000,2,4433.3817,3395.8563,3395.8563,3635.9490,3635.9490,-0.0001,-0.0001,0.0447,0.0447,0.0000,0.0000,0.0000,0.0000,-56.8442,-56.8442,2429.1415,2429.1415,0.0000,0.0000,0.0000,0.0000,0.0000,-16.0211,-16.0211,16.2320,16.2320,-2.0579,-2.0579,0.7166,0.7166,0.0000,-0.7108,14063.6106,0.0000,0.0167,0.0167,0.6681,0.6681,0.0000,0.0000,327.9720,418.2790,7.8685,0.0000,96.4451,313.9654,-14.0066
8.0000,brake,77.8268,0.0000,0.0000,77.5385,21.5113,0.0000,0.0000,0.0000,0.0000,0.0000,2,4502.6956,3397.4991,3397.4991,3639.4905,3639.4905,0.0001,0.0001,0.0449,0.0449,0.0000,0.0000,0.0000,0.0000,-46.8479,-46.8479,2439.9068,2439.9068,0.0000,0.0000,0.0000,0.0000,0.0000,-16.1495,-16.1495,16.2604,16.2604,-1.2559,-1.2559,0.6233,0.6233,0.0000,-0.7142,14073.9793,0.0000,0.0138,0.0138,0.6704,0.6704,0.0000,0.0000,338.1306,429.3931,8.3300,0.0000,97.3498,323.7133,-14.4173
8.1000,brake,79.9798,0.0000,0.0000,77.3434,21.4991,0.0000,0.0000,0.0000,0.2000,0.0000,2,4270.6941,3874.2879,3874.2879,3163.2078,3163.2078,-0.0090,-0.0090,-0.0063,-0.0063,0.0000,0.0000,0.0000,0.0000,-707.9350,-707.9350,-428.9855,-428.9855,0.0000,0.0000,0.0000,0.0000,0.0000,-5.2527,-5.2527,7.5748,7.5748,80.0198,80.0198,-73.5631,-73.5631,0.0000,-0.2827,14074.9914,0.0000,0.1827,0.1827,0.1356,0.1356,0.0000,0.0000,335.7392,429.2798,8.8007,1.7865,96.6126,322.0799,-13.6593
8.2000,brake,82.1189,0.0000,0.0000,76.6393,21.3147,0.0000,0.0000,0.0000,0.4000,0.0000,2,4207.7484,4007.9986,4007.9986,3025.2164,3025.2164,-0.0174,-0.0174,-0.0125,-0.0125,0.0000,0.0000,0.0000,0.0000,-1316.8088,-1316.8088,-759.1893,-759.1893,0.0000,0.0000,0.0000,0.0000,0.0000,3.3979,3.3979,-0.5432,-0.5432,47.4631,47.4631,-54.5055,-54.5055,0.0000,0.0868,14066.4300,0.0000,0.3285,0.3285,0.2510,0.2510,0.0000,0.0000,329.4980,429.1699,9.2623,7.4003,96.2862,316.2211,-13.2769
8.3000,brake,84.2319,0.0000,0.0000,75.5301,21.0109,0.0000,0.0000,0.0000,0.5000,0.0000,2,4129.4491,4138.7183,4138.7183,2889.4457,2889.4457,-0.0194,-0.0194,-0.0169,-0.0169,0.0000,0.0000,0.0000,0.0000,-1492.1968,-1492.1968,-953.2227,-953.2227,0.0000,0.0000,0.0000,0.0000,0.0000,10.1165,10.1165,-7.3898,-7.3898,33.3207,33.3207,-43.5835,-43.5835,0.0000,0.3858,14056.3281,0.0000,0.3605,0.3605,0.3299,0.3299,0.0000,0.0000,319.9045,429.0647,9.7073,16.3006,95.9579,307.0989,-12.8056
8.4000,brake,86.3122,0.0000,0.0000,74.3441,20.6801,0.0000,0.0000,0.0000,0.5000,0.0000,2,4066.4908,4155.2996,4155.2996,2867.6981,2867.6981,-0.0181,-0.0181,-0.0164,-0.0164,0.0000,0.0000,0.0000,0.0000,-1412.0555,-1412.0555,-921.8104,-921.8104,0.0000,0.0000,0.0000,0.0000,0.0000,13.2206,13.2206,-11.2954,-11.2954,9.7233,9.7233,-21.0308,-21.0308,0.0000,0.5403,14045.9954,0.0000,0.3398,0.3398,0.3214,0.3214,0.0000,0.0000,309.9197,428.9634,10.1319,25.6014,95.7380,297.4921,-12.4275
8.5000,brake,88.3595,0.0000,0.0000,73.1582,20.3504,0.0000,0.0000,0.0000,0.5000,0.0000,2,4002.0855,4156.6837,4156.6837,2861.6345,2861.6345,-0.0179,-0.0179,-0.0163,-0.0163,0.0000,0.0000,0.0000,0.0000,-1397.1812,-1397.1812,-914.7527,-914.7527,0.0000,0.0000,0.0000,0.0000,0.0000,14.3556,14.3556,-13.1989,-13.1989,-0.1987,-0.1987,-8.3145,-8.3145,0.0000,0.6072,14036.6364,0.0000,0.3361,0.3361,0.3197,0.3197,0.0000,0.0000,300.1081,428.8659,10.5366,34.7551,95.5363,288.0378,-12.0703
8.6000,brake,90.3739,0.0000,0.0000,71.9731,20.0215,0.0000,0.0000,0.0000,0.5000,0.0000,2,3936.9911,4149.8947,4149.8947,2863.9044,2863.9044,-0.0183,-0.0183,-0.0164,-0.0164,0.0000,0.0000,0.0000,0.0000,-1420.8823,-1420.8823,-920.6000,-920.6000,0.0000,0.0000,0.0000,0.0000,0.0000,14.8029,14.8029,-14.1213,-14.1213,-4.7755,-4.7755,-0.2407,-0.2407,0.0000,0.6374,14027.5982,0.0000,0.3424,0.3424,0.3214,0.3214,0.0000,0.0000,290.4689,428.7720,10.9222,43.7617,95.3471,278.7411,-11.7278
8.7000,brake,92.3555,0.0000,0.0000,70.7875,19.6937,0.0000,0.0000,0.0000,0.5000,0.0000,2,3870.6584,4127.2083,4127.2083,2882.2670,2882.2670,-0.0199,-0.0199,-0.0168,-0.0168,0.0000,0.0000,0.0000,0.0000,-1520.8721,-1520.8721,-949.8859,-949.8859,0.0000,0.0000,0.0000,0.0000,0.0000,15.0119,15.0119,-14.4757,-14.4757,-12.2036,-12.2036,11.7001,11.7001,0.0000,0.6498,14018.9504,0.0000,0.3685,0.3685,0.3296,0.3296,0.0000,0.0000,281.0013,428.6818,11.2892,52.6213,95.1780,269.5934,-11.4079
8.8000,brake,94.3042,0.0000,0.0000,69.5973,19.3684,0.0000,0.0000,0.0000,0.5000,0.0000,2,3800.1748,4053.2052,4053.2052,2952.2153,2952.2153,-0.0257,-0.0257,-0.0185,-0.0185,0.0000,0.0000,0.0000,0.0000,-1858.9174,-1858.9174,-1056.3858,-1056.3858,0.0000,0.0000,0.0000,0.0000,0.0000,15.1795,15.1795,-14.3546,-14.3546,-34.0103,-34.0103,39.5894,39.5894,0.0000,0.6508,14010.8409,0.0000,0.4586,0.4586,0.3578,0.3578,0.0000,0.0000,271.7039,428.5953,11.6382,61.3340,95.0611,260.5620,-11.1418
8.9000,brake,96.2201,0.0000,0.0000,68.4053,19.0458,0.0000,0.0000,0.0000,0.5000,0.0000,2,3722.5637,3920.4150,3920.4150,3081.0849,3081.0849,-0.0361,-0.0361,-0.0223,-0.0223,0.0000,0.0000,0.0000,0.0000,-2349.6959,-2349.6959,-1289.1220,-1289.1220,0.0000,0.0000,0.0000,0.0000,0.0000,15.5387,15.5387,-13.7213,-13.7213,-73.9960,-73.9960,85.8974,85.8974,0.0000,0.6448,14002.9998,0.0000,0.5993,0.5993,0.4184,0.4184,0.0000,0.0000,262.5764,428.5122,11.9699,69.8936,94.9800,251.6687,-10.9077
9.0000,brake,98.1034,0.0000,0.0000,67.2237,18.7205,0.0000,0.0000,0.0000,0.5000,0.0000,2,3650.8000,3870.5257,3870.5257,3126.0887,3126.0887,-0.0395,-0.0395,-0.0245,-0.0245,0.0000,0.0000,0.0000,0.0000,-2476.4745,-2476.4745,-1413.7191,-1413.7191,0.0000,0.0000,0.0000,0.0000,0.0000,16.0169,16.0169,-13.1739,-13.1739,-91.1497,-91.1497,99.5077,99.5077,0.0000,0.6433,13993.2288,0.0000,0.6398,0.6398,0.4522,0.4522,0.0000,0.0000,253.6184,428.4326,12.2850,78.2988,94.8454,243.0033,-10.6150
9.1000,brake,99.9541,0.0000,0.0000,66.0449,18.3952,0.0000,0.0000,0.0000,0.5000,0.0000,2,3581.3393,3836.1721,3836.1721,3155.7526,3155.7526,-0.0422,-0.0422,-0.0261,-0.0261,0.0000,0.0000,0.0000,0.0000,-2568.4487,-2568.4487,-1504.4378,-1504.4378,0.0000,0.0000,0.0000,0.0000,0.0000,16.3314,16.3314,-12.7951,-12.7951,-102.7041,-102.7041,108.6505,108.6505,0.0000,0.6419,13983.8493,0.0000,0.6695,0.6695,0.4767,0.4767,0.0000,0.0000,244.8284,428.3562,12.5839,86.5544,94.7100,234.5079,-10.3205
9.2000,brake,101.7721,0.0000,0.0000,64.8678,18.0703,0.0000,0.0000,0.0000,0.5000,0.0000,2,3511.6503,3803.4324,3803.4324,3184.0172,3184.0172,-0.0448,-0.0448,-0.0279,-0.0279,0.0000,0.0000,0.0000,0.0000,-2646.9519,-2646.9519,-1600.2244,-1600.2244,0.0000,0.0000,0.0000,0.0000,0.0000,16.5570,16.5570,-12.4933,-12.4933,-113.1727,-113.1727,117.9837,117.9837,0.0000,0.6402,13974.8993,0.0000,0.6959,0.6959,0.5026,0.5026,0.0000,0.0000,236.2056,428.2831,12.8674,94.6607,94.5805,226.1746,-10.0309
9.3000,brake,103.5576,0.0000,0.0000,63.6926,17.7458,0.0000,0.0000,0.0000,0.5000,0.0000,2,3441.6956,3771.8309,3771.8309,3211.2862,3211.2862,-0.0472,-0.0472,-0.0298,-0.0298,0.0000,0.0000,0.0000,0.0000,-2714.1720,-2714.1720,-1701.3892,-1701.3892,0.0000,0.0000,0.0000,0.0000,0.0000,16.7409,16.7409,-12.2296,-12.2296,-123.0267,-123.0267,127.2786,127.2786,0.0000,0.6384,13966.2341,0.0000,0.7196,0.7196,0.5298,0.5298,0.0000,0.0000,227.7490,428.2131,13.1358,102.6179,94.4572,218.0021,-9.7469
9.4000,brake,105.3105,0.0000,0.0000,62.5190,17.4218,0.0000,0.0000,0.0000,0.5000,0.0000,2,3371.5071,3741.0342,3741.0342,3237.8605,3237.8605,-0.0496,-0.0496,-0.0320,-0.0320,0.0000,0.0000,0.0000,0.0000,-2772.4493,-2772.4493,-1807.2220,-1807.2220,0.0000,0.0000,0.0000,0.0000,0.0000,16.9042,16.9042,-11.9854,-11.9854,-132.5135,-132.5135,136.4722,136.4722,0.0000,0.6366,13957.7894,0.0000,0.7411,0.7411,0.5582,0.5582,0.0000,0.0000,219.4578,428.1462,13.3899,110.4265,94.3405,209.9893,-9.4685
9.5000,brake,107.0310,0.0000,0.0000,61.3471,17.0981,0.0000,0.0000,0.0000,0.5000,0.0000,2,3301.2395,3711.1012,3711.1012,3263.6645,3263.6645,-0.0519,-0.0519,-0.0342,-0.0342,0.0000,0.0000,0.0000,0.0000,-2823.8096,-2823.8096,-1915.2198,-1915.2198,0.0000,0.0000,0.0000,0.0000,0.0000,17.0565,17.0565,-11.7532,-11.7532,-141.6849,-141.6849,145.4573,145.4573,0.0000,0.6349,13949.5315,0.0000,0.7609,0.7609,0.5868,0.5868,0.0000,0.0000,211.3313,428.0822,13.6301,118.0865,94.2301,202.1355,-9.1958
9.6000,brake,108.7191,0.0000,0.0000,60.1768,16.7748,0.0000,0.0000,0.0000,0.5000,0.0000,2,3231.0211,3682.1417,3682.1417,3288.5809,3288.5809,-0.0542,-0.0542,-0.0365,-0.0365,0.0000,0.0000,0.0000,0.0000,-2869.7498,-2869.7498,-2023.2464,-2023.2464,0.0000,0.0000,0.0000,0.0000,0.0000,17.2017,17.2017,-11.5302,-11.5302,-150.5361,-150.5361,154.1593,154.1593,0.0000,0.6332,13941.4452,0.0000,0.7794,0.7794,0.6152,0.6152,0.0000,0.0000,203.3685,428.0210,13.8570,125.5982,94.1260,194.4398,-8.9286
9.7000,brake,110.3747,0.0000,0.0000,59.0082,16.4519,0.0000,0.0000,0.0000,0.5000,0.0000,2,3160.9619,3654.2834,3654.2834,3312.4783,3312.4783,-0.0565,-0.0565,-0.0389,-0.0389,0.0000,0.0000,0.0000,0.0000,-2911.3598,-2911.3598,-2129.4834,-2129.4834,0.0000,0.0000,0.0000,0.0000,0.0000,17.3410,17.3410,-11.3157,-11.3157,-159.0399,-159.0399,162.5199,162.5199,0.0000,0.6315,13933.5234,0.0000,0.7967,0.7967,0.6429,0.6429,0.0000,0.0000,195.5686,427.9627,14.0710,132.9618,94.0282,186.9017,-8.6669
9.8000,brake,111.9980,0.0000,0.0000,57.8413,16.1294,0.0000,0.0000,0.0000,0.5000,0.0000,2,3091.1489,3627.6345,3627.6345,3335.2470,3335.2470,-0.0589,-0.0589,-0.0413,-0.0413,0.0000,0.0000,0.0000,0.0000,-2949.4463,-2949.4463,-2232.5292,-2232.5292,0.0000,0.0000,0.0000,0.0000,0.0000,17.4745,17.4745,-11.1101,-11.1101,-167.1664,-167.1664,170.4979,170.4979,0.0000,0.6299,13925.7629,0.0000,0.8130,0.8130,0.6694,0.6694,0.0000,0.0000,187.9310,427.9071,14.2728,140.1775,93.9365,179.5202,-8.4107
9.9000,brake,113.5890,0.0000,0.0000,56.6759,15.8073,0.0000,0.0000,0.0000,0.5000,0.0000,2,3021.6401,3602.2590,3602.2590,3356.8224,3356.8224,-0.0612,-0.0612,-0.0438,-0.0438,0.0000,0.0000,0.0000,0.0000,-2984.5815,-2984.5815,-2331.4714,-2331.4714,0.0000,0.0000,0.0000,0.0000,0.0000,17.6021,17.6021,-10.9138,-10.9138,-174.8958,-174.8958,178.0721,178.0721,0.0000,0.6284,13918.1627,0.0000,0.8285,0.8285,0.6945,0.6945,0.0000,0.0000,180.4547,427.8541,14.4627,147.2455,93.8510,172.2948,-8.1599
10.0000,corner,115.1477,0.0000,0.0000,55.5121,15.4855,0.0000,0.0000,0.3500,0.0000,0.0000,2,2952.4643,3578.1637,3578.1637,3377.1978,3377.1978,-0.0636,-0.0636,-0.0463,-0.0463,0.0000,0.0000,0.0000,0.0000,-3017.1459,-3017.1459,-2425.8673,-2425.8673,0.0000,0.0000,0.0000,0.0000,0.0000,17.7235,17.7235,-10.7270,-10.7270,-182.2243,-182.2243,185.2423,185.2423,0.0000,0.6270,13910.7229,0.0000,0.8432,0.8432,0.7183,0.7183,0.0000,0.0000,173.1392,427.8037,14.6414,154.1660,93.7717,165.2246,-7.9146
10.1000,corner,116.6951,0.0000,0.0001,55.8421,15.5164,0.0001,0.0015,0.3500,0.0000,0.1000,2,3251.8260,3453.1234,3453.5445,3501.8841,3502.1958,-0.0551,-0.0552,0.0462,0.0461,-0.1076,-0.0748,-0.0000,-0.0000,-2729.5866,-2732.0784,2397.6526,2394.9042,2.2482,1.0881,0.0000,0.0000,-0.0004,7.3882,7.3902,-1.5861,-1.5842,-144.1666,-144.0602,143.6241,143.7296,0.0001,0.1978,13910.7478,0.0911,0.7905,0.7911,0.6847,0.6838,0.0000,0.0000,175.3102,430.1713,14.8161,154.1660,93.9819,167.2073,-8.1029
10.2000,corner,118.2521,0.0000,0.0017,56.1879,15.6125,0.0003,0.0147,0.3500,0.0000,0.2000,2,3269.3399,3453.5068,3461.2892,3496.1393,3501.8958,-0.0538,-0.0542,0.0502,0.0404,-0.2202,-0.1517,-0.0043,-0.0043,-2690.4973,-2709.3278,2520.3087,2194.2467,11.8896,5.6781,0.0018,0.0022,-0.0000,0.9527,1.0009,3.0050,3.0489,-98.2149,-96.3355,95.1509,97.0149,0.0017,-0.0452,13912.8312,0.1816,0.7791,0.7828,0.7209,0.6266,60995.1490,0.0000,177.4904,432.5683,14.9942,154.1660,94.1104,169.2977,-8.1928
10.3000,corner,119.8186,0.0002,0.0109,56.5022,15.7148,-0.0004,-0.1656,0.3500,0.0000,0.3000,2,3239.5284,3221.0511,3274.3983,3691.7412,3731.1086,-0.0558,-0.0578,0.0725,-0.0158,-0.3148,-0.2105,-0.0389,-0.0388,-2566.0803,-2660.9116,3157.3950,-1132.2411,30.3622,14.0339,0.1271,0.8170,0.0014,-1.7423,-1.4899,5.6384,5.9839,-145.5152,-132.0765,146.7755,159.0673,0.0111,-0.1637,13918.2992,0.2238,0.7967,0.8127,0.8553,0.3035,5436.8538,0.0000,179.7011,435.0077,15.1755,154.1660,94.4594,171.2068,-8.4943
10.4000,corner,121.3948,0.0008,0.0312,56.8515,15.8113,-0.0009,-0.0130,0.3500,0.0000,0.4000,2,3259.1971,3221.0312,3293.7817,3675.1510,3728.7212,-0.0534,-0.0567,0.0721,-0.0154,-0.4237,-0.2836,-0.0537,-0.0537,-2495.5566,-2643.3562,3136.8894,-1103.2417,57.0106,25.7892,0.3152,1.6242,0.0036,-2.6920,-2.1075,6.7791,7.4848,-138.8651,-122.2541,128.4633,142.8343,0.0238,-0.2101,13918.6851,0.3000,0.7750,0.8026,0.8535,0.2959,69495.0670,0.0000,181.9245,437.4806,15.3601,154.1660,94.6137,173.3407,-8.5838
10.5000,corner,122.9806,0.0020,0.0723,57.2018,15.9079,-0.0036,0.2414,0.3500,0.0000,0.5000,2,3277.9440,3209.5328,3315.3608,3658.7132,3736.6072,-0.0506,-0.0558,0.0712,-0.0150,-0.5329,-0.3571,-0.0857,-0.0856,-2395.5968,-2630.5564,3108.9724,-1080.2932,92.4890,40.8115,0.8973,4.0700,0.0070,-3.4213,-2.0910,7.0189,8.3288,-137.0697,-116.3354,119.2201,137.2791,0.0488,-0.2298,13920.2140,0.3594,0.7470,0.7935,0.8497,0.2891,3775.6376,0.0000,184.1644,439.9743,15.5482,154.1660,94.7666,175.4935,-8.6709
10.6000,corner,124.5762,0.0044,0.1461,57.5524,16.0046,-0.0104,0.6235,0.3500,0.0000,0.6000,2,3295.9228,3191.9002,3348.5187,3633.2310,3748.5009,-0.0466,-0.0549,0.0701,-0.0150,-0.6475,-0.4360,-0.1442,-0.1439,-2244.1605,-2623.0993,3070.5729,-1071.4333,141.5291,60.6560,3.2453,11.5818,0.0122,-4.2393,-1.6290,6.7312,9.0148,-136.3943,-110.2914,111.6323,134.9043,0.0905,-0.2382,13922.1508,0.3977,0.7045,0.7836,0.8451,0.2858,1470.8216,0.0000,186.4204,442.4889,15.7398,154.1660,94.9203,177.6628,-8.7575
10.7000,corner,126.1814,0.0084,0.2672,57.9039,16.1010,-0.0232,1.1578,0.3500,0.0000,0.7000,2,3312.6378,3169.7774,3399.2386,3593.1562,3762.0253,-0.0405,-0.0540,0.0688,-0.0154,-0.7713,-0.5240,-0.2378,-0.2371,-1985.6620,-2622.0317,3013.7854,-1077.2738,214.7195,87.5001,10.7814,30.9879,0.0211,-5.3264,-0.7641,6.0307,9.7760,-135.0807,-102.1076,102.3341,132.4287,0.1535,-0.2413,13924.1974,0.4102,0.6301,0.7718,0.8388,0.2865,796.8173,0.0000,188.6911,445.0242,15.9349,154.1660,95.0724,179.8509,-8.8402
10.8000,corner,127.7963,0.0152,0.4537,58.2593,16.1962,-0.0422,1.8725,0.3500,0.0000,0.8000,2,3327.0131,3161.4134,3495.3463,3511.6784,3757.4232,-0.0255,-0.0528,0.0671,-0.0167,-0.9000,-0.6169,-0.3730,-0.3715,-1241.1998,-2638.4456,2913.2230,-1108.9400,364.2787,122.5590,30.3329,70.7515,0.0392,-6.8208,0.5360,4.8419,10.6780,-126.9252,-84.0644,81.3599,121.2968,0.2438,-0.2403,13925.8613,0.3862,0.4092,0.7557,0.8296,0.2957,495.5777,0.0000,190.9739,447.5798,16.1335,154.1660,95.2016,182.0786,-8.8953
10.9000,corner,129.4208,0.0270,0.7493,58.6129,16.2894,-0.0601,3.2235,0.3500,0.0000,0.9000,2,3335.5201,3143.7244,3672.9129,3360.7776,3750.3411,0.0033,-0.0524,0.0637,-0.0191,-0.9765,-0.6581,-0.5628,-0.5591,-12.1148,-2740.5023,2715.4377,-1193.0682,746.3609,145.1820,77.5167,136.0830,0.0779,-9.3702,2.4228,2.6536,11.8534,-113.8963,-46.9349,42.6154,106.4421,0.3880,-0.2364,13927.7560,0.2564,0.2374,0.7472,0.8083,0.3202,289.5346,0.0000,193.2625,450.1557,16.3357,154.1660,95.3390,184.3149,-8.9476
11.0000,corner,131.0549,0.0470,1.1943,58.9589,16.3868,-0.0945,4.6223,0.3500,0.0000,1.0000,2,3343.8268,3028.6810,3747.8494,3312.7454,3841.8288,0.0034,-0.0536,0.0583,-0.0201,-1.1145,-0.7603,-0.8043,-0.7972,-13.9870,-2804.3921,2522.3987,-1166.7709,825.0102,181.9440,172.2172,260.3738,0.1019,-12.8169,5.4131,0.1931,14.1666,-122.2801,-47.0183,47.7263,119.6244,0.5952,-0.2398,13931.1046,0.1366,0.2724,0.7498,0.7632,0.3112,203.1213,0.0000,195.5554,452.7475,16.5416,154.1660,95.5227,186.5173,-9.0382
11.1000,corner,132.6984,0.0779,1.7579,59.3033,16.4832,-0.1354,5.6568,0.3500,0.0000,1.1000,2,3351.3640,2945.9831,3804.3207,3276.2534,3907.1960,0.0035,-0.0528,0.0520,-0.0203,-1.3026,-0.9120,-1.0322,-1.0214,-15.1918,-2776.0008,2273.8181,-1094.9936,936.7289,259.2697,308.6337,413.8968,0.1366,-16.0908,8.5939,-2.1336,16.5743,-122.6566,-53.7369,56.1157,121.4143,0.8020,-0.2417,13933.7532,0.0805,0.3180,0.7329,0.7004,0.2996,166.9527,0.0000,197.8446,455.3535,16.7511,154.1660,95.7154,188.7211,-9.1235
11.2000,corner,134.3512,0.1230,2.4035,59.6446,16.5782,-0.1665,6.3547,0.3500,0.0000,1.2000,2,3361.1421,2893.8239,3844.7784,3249.4830,3948.0024,0.0037,-0.0505,0.0465,-0.0200,-1.4814,-1.0542,-1.1928,-1.1791,-15.8500,-2681.2065,2027.6795,-1008.2041,1048.4593,355.9404,445.2075,548.7020,0.1713,-18.7649,11.2969,-4.0393,18.5843,-118.5909,-61.6168,64.1869,117.3589,0.9738,-0.2425,13936.0877,0.0819,0.3624,0.7035,0.6389,0.2907,149.4738,0.0000,200.1239,457.9747,16.9642,154.1660,95.9290,190.9154,-9.2084
11.3000,corner,136.0128,0.1859,3.1038,59.9829,16.6719,-0.1838,6.8517,0.3500,0.0000,1.3000,2,3375.1346,2863.7298,3880.3723,3223.8781,3970.2786,0.0039,-0.0475,0.0433,-0.0194,-1.6262,-1.1629,-1.2855,-1.2699,-15.8839,-2549.7533,1861.4385,-938.0061,1139.3035,451.8588,543.0208,641.0277,0.1987,-20.7998,13.3668,-5.5078,20.0904,-112.7853,-66.3636,68.3555,110.9331,1.1046,-0.2426,13938.2588,0.1168,0.3979,0.6673,0.6015,0.2862,139.4152,0.0000,202.3947,460.6136,17.1811,154.1660,96.1650,193.1015,-9.2932
11.4000,corner,137.6829,0.2693,3.8488,60.3190,16.7646,-0.1919,7.3171,0.3500,0.0000,1.4000,2,3392.1451,2841.7963,3920.8439,3192.8632,3984.8901,0.0040,-0.0442,0.0419,-0.0190,-1.7416,-1.2425,-1.3432,-1.3260,-15.4596,-2397.7072,1772.7185,-891.3576,1207.7879,541.1221,600.3484,701.4023,0.2187,-22.4391,14.9861,-6.7121,21.2458,-107.4734,-66.4970,67.7187,104.9504,1.2084,-0.2423,13940.3934,0.1575,0.4250,0.6269,0.5862,0.2846,131.2736,0.0000,204.6621,463.2723,17.4016,154.1660,96.4196,195.2850,-9.3771
11.5000,corner,139.3610,0.3752,4.6415,60.6538,16.8564,-0.1969,7.8475,0.3500,0.0000,1.5000,2,3410.4134,2821.7048,3972.1487,3152.1369,3996.5142,0.0042,-0.0399,0.0415,-0.0188,-1.8424,-1.3077,-1.3947,-1.3760,-14.8004,-2190.4989,1716.7678,-854.6690,1261.5520,635.8874,640.3589,752.6912,0.2362,-23.9797,16.4454,-7.8677,22.2667,-102.3394,-62.3915,62.7111,99.1184,1.3041,-0.2417,13942.5047,0.1897,0.4471,0.5742,0.5813,0.2850,123.0708,0.0000,206.9289,465.9518,17.6258,154.1660,96.6883,197.4717,-9.4572
11.6000,corner,141.0466,0.5054,5.4867,60.9868,16.9479,-0.2040,8.3594,0.3500,0.0000,1.5000,2,3429.8799,2799.9288,4023.8290,3111.3768,4009.6187,0.0042,-0.0367,0.0416,-0.0183,-1.8415,-1.3039,-1.4536,-1.4330,-14.5139,-2041.2021,1679.9992,-804.8792,1259.3564,690.0982,677.4129,810.9950,0.2472,-25.5929,17.9013,-9.0760,23.2850,-97.1683,-58.1554,58.2176,93.9038,1.4020,-0.2413,13944.7533,0.1294,0.4498,0.5355,0.5822,0.2850,116.1620,0.0000,209.1997,468.6527,17.8537,154.1660,96.9738,199.6592,-9.5405
11.7000,corner,142.7394,0.6611,6.3701,61.3219,17.0388,-0.2147,8.6829,0.3500,0.0000,1.5000,2,3450.5121,2803.9247,4072.1504,3070.0629,4000.6432,0.0042,-0.0314,0.0420,-0.0174,-1.8580,-1.3202,-1.5060,-1.4841,-14.2325,-1741.4467,1658.4217,-730.4459,1258.8214,756.6066,709.8544,873.1669,0.2593,-26.9959,19.1600,-10.1620,24.1225,-86.1349,-53.4696,52.2785,81.6661,1.4867,-0.2402,13946.7813,0.0941,0.4490,0.4663,0.5876,0.2846,112.4341,0.0000,211.4783,471.3751,18.0854,154.1660,97.2529,201.8709,-9.6074
11.8000,corner,144.4385,0.8439,7.2960,61.6649,17.1246,-0.2153,9.5083,0.3500,0.0000,1.5000,2,3468.5539,2913.0569,4260.2761,2892.6643,3881.2982,0.0045,0.0035,0.0441,-0.0192,-1.8238,-1.2864,-1.5453,-1.5217,-9.7447,-24.6161,1634.9034,-809.5597,1239.6107,1203.5193,726.9818,890.3040,0.2956,-28.5624,20.1951,-11.7502,24.3547,-43.8879,-7.2357,-2.1839,31.3472,1.5685,-0.2311,13947.2955,0.0216,0.4255,0.2826,0.6185,0.3100,103.1902,0.0000,213.7576,474.1200,18.3208,154.1660,97.4823,204.1508,-9.6067
11.9000,corner,146.1434,1.0565,8.3139,61.9938,17.2152,-0.2260,10.3781,0.3500,0.0000,1.5000,2,3492.2762,2854.4551,4333.6596,2838.5814,3924.1710,0.0045,0.0035,0.0456,-0.0177,-1.7980,-1.2610,-1.6488,-1.6215,-10.4243,-23.7867,1628.0487,-694.3464,1188.6844,1214.6223,763.9070,987.7847,0.3025,-31.0220,21.9267,-13.5983,25.5177,-43.1937,1.7239,-4.6312,36.5915,1.7016,-0.2315,13950.8670,-0.1056,0.4164,0.2803,0.6335,0.3077,95.0425,0.0000,216.0466,476.8889,18.5600,154.1660,97.8131,206.3498,-9.6968
12.0000,corner,147.8533,1.3000,9.3906,62.3229,17.3052,-0.2455,10.7652,0.3500,0.0000,1.5000,2,3518.3381,2841.5065,4381.8627,2799.9815,3930.1492,0.0045,0.0037,0.0465,-0.0142,-1.8363,-1.2986,-1.7382,-1.7085,-11.0248,-20.9747,1610.6459,-474.9798,1194.2943,1252.5132,806.7097,1124.6866,0.3188,-33.1438,23.6852,-15.1888,26.6982,-31.8682,3.2367,-4.4956,26.9031,1.8245,-0.2310,13953.4999,-0.1559,0.4203,0.2859,0.6434,0.3106,92.1035,0.0000,218.3374,479.6808,18.8029,154.1660,98.1541,208.5578,-9.7796
12.1000,corner,149.5674,1.5760,10.4861,62.6501,17.3951,-0.2582,10.8456,0.3500,0.0000,1.5000,2,3542.2939,2845.8907,4403.1562,2782.2483,3924.6117,0.0045,0.0038,0.0467,-0.0112,-1.8734,-1.3350,-1.7777,-1.7473,-11.2843,-18.9215,1596.1490,-322.2320,1213.6130,1291.3225,829.4453,1213.9299,0.3312,-34.5444,24.7637,-16.2270,27.4309,-20.7428,0.7851,-2.3432,17.0851,1.9031,-0.2312,13955.9069,-0.1583,0.4265,0.2933,0.6465,0.3200,91.8962,0.0000,220.6285,482.4954,19.0498,154.1660,98.5190,210.7606,-9.8678
12.2000,corner,151.2849,1.8856,11.5822,62.9759,17.4853,-0.2644,10.8273,0.3500,0.0000,1.5000,2,3562.9030,2848.6238,4409.6243,2777.5951,3922.5684,0.0045,0.0039,0.0467,-0.0099,-1.8948,-1.3562,-1.7867,-1.7564,-11.3220,-18.2003,1589.7882,-266.0929,1227.2845,1314.2997,835.6224,1245.7920,0.3366,-35.3168,25.2719,-16.7928,27.7992,-14.5770,-1.3533,0.2379,12.3070,1.9440,-0.2320,13958.4116,-0.1461,0.4309,0.2981,0.6466,0.3248,92.5281,0.0000,222.9269,485.3322,19.3005,154.1660,98.9007,212.9649,-9.9619
12.3000,corner,153.0052,2.2295,12.6760,63.3016,17.5756,-0.2680,10.8120,0.3500,0.0000,1.5000,2,3582.3681,2848.1637,4413.9428,2775.2226,3923.5916,0.0045,0.0039,0.0466,-0.0092,-1.9074,-1.3685,-1.7875,-1.7574,-11.2904,-17.9351,1585.8681,-239.8830,1234.7697,1327.6192,835.7861,1256.7858,0.3390,-35.7184,25.5254,-17.0832,27.9943,-11.9729,-2.0629,1.9141,10.4859,1.9651,-0.2325,13960.9207,-0.1345,0.4335,0.3008,0.6459,0.3261,93.1375,0.0000,225.2374,488.1907,19.5551,154.1660,99.2901,215.1794,-10.0580
12.4000,corner,154.7274,2.6079,13.7691,63.6274,17.6659,-0.2712,10.8136,0.3500,0.0000,1.5000,2,3601.6489,2845.7275,4419.0474,2772.3530,3926.2201,0.0045,0.0039,0.0465,-0.0086,-1.9173,-1.3783,-1.7885,-1.7585,-11.2718,-17.7587,1581.6584,-219.5054,1239.5451,1338.0118,835.1606,1264.8811,0.3406,-35.9793,25.7004,-17.2626,28.1366,-10.9393,-1.9888,2.2787,9.8341,1.9791,-0.2331,13963.3480,-0.1258,0.4356,0.3028,0.6452,0.3270,93.6026,0.0000,227.5616,491.0709,19.8137,154.1660,99.6846,217.4065,-10.1550
