time,phase,pos_x,pos_y,yaw_deg,speed_kph,vx_body,vy_body,yaw_rate_dps,throttle,brake,steer_deg,gear,rpm,fz_fl,fz_fr,fz_rl,fz_rr,sr_fl,sr_fr,sr_rl,sr_rr,sa_fl_deg,sa_fr_deg,sa_rl_deg,sa_rr_deg,fx_fl,fx_fr,fx_rl,fx_rr,fy_fl,fy_fr,fy_rl,fy_rr,lat_accel_g,susp_defl_fl_mm,susp_defl_fr_mm,susp_defl_rl_mm,susp_defl_rr_mm,susp_vel_fl,susp_vel_fr,susp_vel_rl,susp_vel_rr,roll_deg,pitch_deg,fz_total,understeer_deg,fc_util_fl,fc_util_fr,fc_util_rl,fc_util_rr,radius_m,yaw_rate_ref_dps,ke_total_kj,energy_engine_kj,energy_drag_kj,energy_brake_kj,energy_tire_loss_kj,energy_body_kj,integrator_err_kj
0.0000,accel,0.0000,0.0000,0.0000,0.0000,0.0000,0.0000,0.0000,0.0000,0.0000,0.0000,1,1000.0000,3776.8500,3776.8500,3090.1500,3090.1500,0.0000,0.0000,0.0000,0.0000,0.0000,0.0000,0.0000,0.0000,0.0000,0.0000,0.0000,0.0000,0.0000,0.0000,0.0000,0.0000,0.0000,0.0000,0.0000,0.0000,0.0000,0.0000,0.0000,0.0000,0.0000,0.0000,0.0000,13734.0000,0.0000,0.0000,0.0000,0.0000,0.0000,0.0000,0.0000,0.0000,0.0000,0.0000,0.0000,0.0000,0.0000,0.0000
0.1000,accel,-0.0000,0.0000,0.0000,0.0121,0.0024,0.0000,0.0000,0.0500,0.0000,0.0000,1,1000.0000,3724.4543,3724.4543,3142.6177,3142.6177,0.0008,0.0008,0.0022,0.0022,0.0000,0.0000,0.0000,0.0000,-0.7653,-0.7653,84.2013,84.2013,0.0000,0.0000,0.0000,0.0000,0.0000,-0.0739,-0.0739,0.1346,0.1346,-3.2309,-3.2309,3.9452,3.9452,0.0000,-0.0046,13734.1441,0.0000,0.0002,0.0002,0.0268,0.0268,0.0000,0.0000,0.0002,0.0008,0.0000,0.0000,0.0008,0.0000,-0.0002
0.2000,accel,0.0012,0.0000,0.0000,0.0820,0.0206,0.0000,0.0000,0.1000,0.0000,0.0000,1,1000.0000,3707.7630,3707.7630,3159.3041,3159.3041,0.0008,0.0008,0.0038,0.0038,0.0000,0.0000,0.0000,0.0000,-2.0074,-2.0074,182.2539,182.2539,0.0000,0.0000,0.0000,0.0000,0.0000,-0.5009,-0.5009,0.6345,0.6345,-4.9501,-4.9501,5.6210,5.6210,0.0000,-0.0250,13734.1340,0.0000,0.0005,0.0005,0.0577,0.0577,0.0000,0.0000,0.0007,0.0042,0.0000,0.0000,0.0039,0.0003,-0.0003
0.3000,accel,0.0052,0.0000,0.0000,0.2014,0.0526,0.0000,0.0000,0.1500,0.0000,0.0000,1,1000.0000,3691.4035,3691.4035,3175.6398,3175.6398,0.0007,0.0007,0.0054,0.0054,0.0000,0.0000,0.0000,0.0000,-3.7866,-3.7866,279.6112,279.6112,0.0000,0.0000,0.0000,0.0000,0.0000,-1.0441,-1.0441,1.2321,1.2321,-5.7442,-5.7442,6.1788,6.1788,0.0000,-0.0502,13734.0866,0.0000,0.0010,0.0010,0.0880,0.0880,0.0000,0.0000,0.0027,0.0120,0.0000,0.0000,0.0099,0.0021,-0.0006
0.4000,accel,0.0132,0.0000,0.0000,0.3753,0.0976,0.0000,0.0000,0.2000,0.0000,0.0000,1,1000.0000,3689.9006,3689.9006,3176.9640,3176.9640,0.0007,0.0007,0.0102,0.0102,0.0000,0.0000,0.0000,0.0000,-3.3669,-3.3669,563.4171,563.4171,0.0000,0.0000,0.0000,0.0000,0.0000,-1.6182,-1.6182,1.8299,1.8299,-2.0734,-2.0734,0.7295,0.7295,0.0000,-0.0760,13733.7292,0.0000,0.0009,0.0009,0.1773,0.1773,0.0000,0.0000,0.0081,0.0256,0.0000,0.0000,0.0182,0.0074,-0.0007
0.5000,accel,0.0266,0.0000,0.0000,0.6375,0.1525,0.0000,0.0000,0.2500,0.0000,0.0000,1,1000.0000,3796.9017,3796.9017,3069.5261,3069.5261,0.0049,0.0049,0.0355,0.0355,0.0000,0.0000,0.0000,0.0000,294.9882,294.9882,1772.5050,1772.5050,0.0000,0.0000,0.0000,0.0000,0.0000,-1.1625,-1.1625,3.3215,3.3215,35.3403,35.3403,-40.8305,-40.8305,0.0000,-0.0988,13732.8554,0.0000,0.0777,0.0777,0.5775,0.5775,0.0000,0.0000,0.0234,0.0521,0.0000,0.0000,0.0347,0.0174,-0.0059
0.6000,accel,0.0472,0.0000,0.0000,0.9928,0.1962,0.0000,0.0000,0.3000,0.0000,0.0000,1,1000.0000,4470.2545,4470.2545,2400.5269,2400.5269,0.2814,0.2814,0.2151,0.2151,0.0000,0.0000,0.0000,0.0000,4236.9759,4236.9759,2446.4281,2446.4281,0.0000,0.0000,0.0000,0.0000,0.0000,1.4070,1.4070,4.6326,4.6326,278.9853,278.9853,-241.3392,-241.3392,0.0000,-0.0711,13741.5628,0.0000,0.9478,0.9478,1.0191,1.0191,0.0000,0.0000,0.0779,0.1096,0.0000,0.0000,0.0872,0.0224,-0.0555
0.7000,accel,0.0752,0.0000,0.0000,1.0738,0.3355,0.0000,0.0000,0.3500,0.0000,0.0000,1,1000.0000,3555.5593,3555.5593,3306.2980,3306.2980,0.0037,0.0037,-0.1434,-0.1434,0.0000,0.0000,0.0000,0.0000,192.8644,192.8644,-3318.8032,-3318.8032,0.0000,0.0000,0.0000,0.0000,0.0000,-0.9390,-0.9390,7.7688,7.7688,-45.3123,-45.3123,-4.9535,-4.9535,0.0000,-0.1919,13723.7146,0.0000,0.0542,0.0542,1.0038,1.0038,0.0000,0.0000,0.1077,0.2022,0.0000,0.0000,0.1860,0.0163,-0.0914
0.8000,accel,0.1133,0.0000,0.0000,1.5059,0.4118,0.0000,0.0000,0.4000,0.0000,0.0000,1,1000.0000,4232.4731,4232.4731,2634.2504,2634.2504,-0.0283,-0.0283,0.1319,0.1319,0.0000,0.0000,0.0000,0.0000,-2090.4681,-2090.4681,2637.6766,2637.6766,0.0000,0.0000,0.0000,0.0000,0.0000,0.1431,0.1431,8.0533,8.0533,196.5047,196.5047,-199.0030,-199.0030,0.0000,-0.1743,13733.4469,0.0000,0.4939,0.4939,1.0013,1.0013,0.0000,0.0000,0.1497,0.2843,0.0000,0.0000,0.2312,0.0531,-0.0965
0.9000,accel,0.1625,0.0000,0.0000,2.0779,0.5120,0.0000,0.0000,0.4500,0.0000,0.0000,1,1000.0000,3876.4386,3876.4386,2987.9995,2987.9995,0.2122,0.2122,0.0351,0.0351,0.0000,0.0000,0.0000,0.0000,3764.1836,3764.1836,1712.5712,1712.5712,0.0000,0.0000,0.0000,0.0000,0.0000,-1.1312,-1.1312,7.2690,7.2690,66.8282,66.8282,-92.3354,-92.3354,0.0000,-0.1851,13728.8761,0.0000,0.9710,0.9710,0.5731,0.5731,0.0000,0.0000,0.2478,0.4042,0.0000,0.0000,0.2513,0.1529,-0.0949
1.0000,accel,0.2226,0.0000,0.0000,2.3538,0.6613,0.0000,0.0000,0.5000,0.0000,0.0000,1,1000.0000,3690.6300,3690.6300,3172.0545,3172.0545,-0.3344,-0.3344,0.5009,0.5009,0.0000,0.0000,0.0000,0.0000,-3648.5174,-3648.5174,3019.4759,3019.4759,0.0000,0.0000,0.0000,0.0000,0.0000,-2.7251,-2.7251,8.9550,8.9550,8.4333,8.4333,-51.8017,-51.8017,0.0000,-0.2574,13725.3690,0.0000,0.9886,0.9886,0.9519,0.9519,0.0000,0.0000,0.3301,0.6549,0.0000,0.0000,0.4518,0.2031,-0.1270
1.1000,accel,0.2966,0.0000,0.0000,2.9527,0.8038,0.0000,0.0000,0.5500,0.0000,0.0000,1,1000.0000,2584.7529,2584.7529,4288.1704,4288.1704,-0.7300,-0.7300,0.6224,0.6224,0.0000,0.0000,0.0000,0.0000,-2529.3503,-2529.3503,3905.5379,3905.5379,0.0000,0.0000,0.0000,0.0000,0.0000,-3.4191,-3.4191,10.1883,10.1883,-304.9930,-304.9930,361.5725,361.5725,0.0000,-0.2999,13745.8465,0.0000,0.9786,0.9786,0.9108,0.9108,0.0000,0.0000,0.4856,0.9210,0.0000,0.0000,0.5632,0.3578,-0.1278
1.2000,accel,0.3839,0.0000,0.0000,3.2176,0.9737,0.0000,0.0000,0.6000,0.0000,0.0000,1,1000.0000,2589.2962,2589.2962,4283.4288,4283.4288,-0.1555,-0.1555,-0.0972,-0.0972,0.0000,0.0000,0.0000,0.0000,-2663.4054,-2663.4054,-4047.1961,-4047.1961,0.0000,0.0000,0.0000,0.0000,0.0000,-5.0537,-5.0537,11.5983,11.5983,-292.0319,-292.0319,345.5493,345.5493,0.0000,-0.3670,13745.4500,0.0000,1.0286,1.0286,0.9448,0.9448,0.0000,0.0000,0.7971,1.3362,0.0001,0.0000,0.9125,0.4237,-0.3734
1.3000,accel,0.4888,0.0000,0.0000,4.0834,1.1358,0.0000,0.0000,0.6000,0.0000,0.0000,1,1000.0000,3616.1572,3616.1572,3246.0093,3246.0093,0.0748,0.0748,-0.3050,-0.3050,0.0000,0.0000,0.0000,0.0000,3133.3826,3133.3826,-3264.0047,-3264.0047,0.0000,0.0000,0.0000,0.0000,0.0000,-5.1807,-5.1807,12.2976,12.2976,3.1497,3.1497,-54.6013,-54.6013,0.0000,-0.3852,13724.3329,0.0000,0.8665,0.8665,1.0055,1.0055,0.0000,0.0000,0.9998,1.7683,0.0001,0.0000,1.0205,0.7477,-0.2521
1.4000,accel,0.6097,0.0000,0.0000,4.6181,1.2896,0.0000,0.0000,0.6000,0.0000,0.0000,1,1000.0000,3708.3929,3708.3929,3155.5047,3155.5047,-0.4926,-0.4926,0.4710,0.4710,0.0000,0.0000,0.0000,0.0000,-3589.1671,-3589.1671,3016.2912,3016.2912,0.0000,0.0000,0.0000,0.0000,0.0000,-5.2899,-5.2899,11.8039,11.8039,41.1146,41.1146,-76.9572,-76.9572,0.0000,-0.3767,13727.7953,0.0000,0.9678,0.9678,0.9559,0.9559,0.0000,0.0000,1.2307,2.2696,0.0002,0.0000,1.2883,0.9811,-0.2496
1.5000,accel,0.7467,0.0000,0.0000,5.3782,1.4154,0.0000,0.0000,0.6000,0.0000,0.0000,1,1000.0000,3872.2167,3872.2167,2993.0274,2993.0274,0.3909,0.3909,0.3296,0.3296,0.0000,0.0000,0.0000,0.0000,3663.6391,3663.6391,2932.8958,2932.8958,0.0000,0.0000,0.0000,0.0000,0.0000,-3.8033,-3.8033,10.7055,10.7055,91.7577,91.7577,-115.5551,-115.5551,0.0000,-0.3197,13730.4881,0.0000,0.9461,0.9461,0.9799,0.9799,0.0000,0.0000,1.5872,2.8774,0.0003,0.0000,1.5104,1.3667,-0.2205
1.6000,accel,0.9013,0.0000,0.0000,5.8773,1.5560,0.0000,0.0000,0.6000,0.0000,0.0000,1,1203.8772,4956.2491,4956.2491,1920.6078,1920.6078,0.5014,0.5014,0.5070,0.5070,0.0000,0.0000,0.0000,0.0000,4508.4264,4508.4264,1922.3906,1922.3906,0.0000,0.0000,0.0000,0.0000,0.0000,-1.8562,-1.8562,9.9936,9.9936,505.8754,505.8754,-416.9018,-416.9018,0.0000,-0.2611,13753.7138,0.0000,0.9096,0.9096,1.0009,1.0009,0.0000,0.0000,1.9968,3.5385,0.0005,0.0000,1.8956,1.6425,-0.3543
1.7000,accel,1.0732,0.0000,0.0000,6.2337,1.8112,0.0000,0.0000,0.6000,0.0000,0.0000,1,1000.0000,2587.1022,2587.1022,4285.1211,4285.1211,-0.2339,-0.2339,-0.0945,-0.0945,0.0000,0.0000,0.0000,0.0000,-2661.3741,-2661.3741,-4025.6967,-4025.6967,0.0000,0.0000,0.0000,0.0000,0.0000,-5.4055,-5.4055,13.1478,13.1478,-290.2432,-290.2432,330.5250,330.5250,0.0000,-0.4089,13744.4467,0.0000,1.0287,1.0287,0.9395,0.9395,0.0000,0.0000,2.5082,4.1349,0.0007,0.0000,2.2801,1.8541,-0.6541
1.8000,accel,1.2615,0.0000,0.0000,6.8801,1.9791,0.0000,0.0000,0.6000,0.0000,0.0000,1,1000.0000,3486.8184,3486.8184,3376.0284,3376.0284,-0.0415,-0.0415,-0.1287,-0.1287,0.0000,0.0000,0.0000,0.0000,-2328.4472,-2328.4472,-3381.7320,-3381.7320,0.0000,0.0000,0.0000,0.0000,0.0000,-5.6601,-5.6601,13.0283,13.0283,-31.3897,-31.3897,-22.8376,-22.8376,0.0000,-0.4118,13725.6936,0.0000,0.6678,0.6678,1.0017,1.0017,0.0000,0.0000,2.9709,4.8969,0.0011,0.0000,2.6036,2.2922,-0.6787
1.9000,accel,1.4681,0.0000,0.0000,7.8110,2.1229,0.0000,0.0000,0.6000,0.0000,0.0000,1,1000.0000,3778.4044,3778.4044,3085.7217,3085.7217,0.4392,0.4392,0.0072,0.0072,0.0000,0.0000,0.0000,0.0000,3560.5290,3560.5290,375.3261,375.3261,0.0000,0.0000,0.0000,0.0000,0.0000,-4.0481,-4.0481,12.2460,12.2460,56.5343,56.5343,-100.2321,-100.2321,0.0000,-0.3591,13728.2523,0.0000,0.9423,0.9423,0.1216,0.1216,0.0000,0.0000,3.4329,5.7954,0.0015,0.0000,2.7909,3.0030,-0.4299
2.0000,accel,1.6928,0.0000,0.0000,8.4789,2.3418,0.0000,0.0000,0.6000,0.0000,0.0000,1,1000.0000,2589.1406,2589.1406,4284.0841,4284.0841,-0.1826,-0.1826,0.0845,0.0845,0.0000,0.0000,0.0000,0.0000,-2663.2613,-2663.2613,3791.0487,3791.0487,0.0000,0.0000,0.0000,0.0000,0.0000,-6.2463,-6.2463,13.5526,13.5526,-283.7482,-283.7482,325.8679,325.8679,0.0000,-0.4363,13746.4495,0.0000,1.0286,1.0286,0.8849,0.8849,0.0000,0.0000,4.0597,6.5882,0.0020,0.0000,3.0136,3.5725,-0.4871
2.1000,accel,1.9365,0.0000,0.0000,9.1000,2.5228,0.0000,0.0000,0.6000,0.0000,0.0000,1,1000.0000,3698.3884,3698.3884,3167.2792,3167.2792,0.1715,0.1715,-0.3054,-0.3054,0.0000,0.0000,0.0000,0.0000,3614.7605,3614.7605,-3192.3601,-3192.3601,0.0000,0.0000,0.0000,0.0000,0.0000,-6.3393,-6.3393,13.0428,13.0428,47.3303,47.3303,-82.7380,-82.7380,0.0000,-0.4271,13731.3353,0.0000,0.9774,0.9774,1.0079,1.0079,0.0000,0.0000,4.7344,7.4556,0.0027,0.0000,3.3086,4.1443,-0.5901
2.2000,accel,2.1980,0.0000,0.0000,9.7989,2.6905,0.0000,0.0000,0.6000,0.0000,0.0000,1,1000.0000,3777.8495,3777.8495,3087.8744,3087.8744,0.3204,0.3204,-0.0163,-0.0163,0.0000,0.0000,0.0000,0.0000,3620.5190,3620.5190,-981.6670,-981.6670,0.0000,0.0000,0.0000,0.0000,0.0000,-5.1325,-5.1325,12.9608,12.9608,66.9951,66.9951,-104.8947,-104.8947,0.0000,-0.3987,13731.4478,0.0000,0.9584,0.9584,0.3179,0.3179,0.0000,0.0000,5.4471,8.6099,0.0035,0.0000,3.7770,4.8293,-0.6177
2.3000,accel,2.4791,0.0000,0.0000,10.4260,2.8180,0.0000,0.0000,0.6000,0.0000,0.0000,1,1995.3840,4842.5874,4842.5874,2035.7292,2035.7292,0.3050,0.3050,0.4961,0.4961,0.0000,0.0000,0.0000,0.0000,4536.0504,4536.0504,2028.2491,2028.2491,0.0000,0.0000,0.0000,0.0000,0.0000,-2.7775,-2.7775,10.2217,10.2217,469.2988,469.2988,-385.9872,-385.9872,0.0000,-0.2865,13756.6333,0.0000,0.9367,0.9367,0.9963,0.9963,0.0000,0.0000,6.3093,9.6268,0.0046,0.0000,4.1267,5.4955,-0.8138
2.4000,accel,2.7797,0.0000,0.0000,11.1677,3.0854,0.0000,0.0000,0.6000,0.0000,0.0000,1,2023.2934,2583.0571,2583.0571,4290.4278,4290.4278,-0.5592,-0.5592,0.4567,0.4567,0.0000,0.0000,0.0000,0.0000,-2571.3388,-2571.3388,3982.2378,3982.2378,0.0000,0.0000,0.0000,0.0000,0.0000,-5.1407,-5.1407,13.9768,13.9768,-293.5525,-293.5525,323.8076,323.8076,0.0000,-0.4213,13746.9698,0.0000,0.9955,0.9955,0.9282,0.9282,0.0000,0.0000,7.1041,10.8838,0.0059,0.0000,4.5450,6.3329,-0.7711
2.5000,accel,3.1008,0.0000,0.0000,12.0346,3.2782,0.0000,0.0000,0.6000,0.0000,0.0000,1,1208.6125,3777.7633,3777.7633,3089.0352,3089.0352,0.3145,0.3145,0.0365,0.0365,0.0000,0.0000,0.0000,0.0000,3623.7474,3623.7474,1820.2993,1820.2993,0.0000,0.0000,0.0000,0.0000,0.0000,-5.2594,-5.2594,13.4108,13.4108,68.0234,68.0234,-107.9981,-107.9981,0.0000,-0.4114,13733.5969,0.0000,0.9592,0.9592,0.5893,0.5893,0.0000,0.0000,8.0496,12.1672,0.0074,0.0000,4.7677,7.3921,-0.6575
2.6000,accel,3.4424,0.0000,0.0000,12.6725,3.5054,0.0000,0.0000,0.6000,0.0000,0.0000,1,2176.6153,2696.0225,2696.0225,4177.3442,4177.3442,-0.5889,-0.5889,0.4276,0.4276,0.0000,0.0000,0.0000,0.0000,-2664.0643,-2664.0643,3902.4925,3902.4925,0.0000,0.0000,0.0000,0.0000,0.0000,-6.0212,-6.0212,14.3950,14.3950,-255.1037,-255.1037,274.1480,274.1480,0.0000,-0.4499,13746.7334,0.0000,0.9881,0.9881,0.9342,0.9342,0.0000,0.0000,9.1228,13.6208,0.0093,0.0000,5.3915,8.2200,-0.9027
2.7000,accel,3.8055,0.0000,0.0000,13.5993,3.7005,0.0000,0.0000,0.6000,0.0000,0.0000,1,1440.0037,3684.6136,3684.6136,3182.2286,3182.2286,0.2900,0.2900,0.0865,0.0865,0.0000,0.0000,0.0000,0.0000,3556.8176,3556.8176,2920.4343,2920.4343,0.0000,0.0000,0.0000,0.0000,0.0000,-5.6724,-5.6724,13.8798,13.8798,34.7204,34.7204,-84.9077,-84.9077,0.0000,-0.4309,13733.6843,0.0000,0.9653,0.9653,0.9177,0.9177,0.0000,0.0000,10.2581,15.1234,0.0116,0.0000,5.6075,9.5043,-0.7537
2.8000,accel,4.1901,0.0000,0.0000,14.2630,3.8829,0.0000,0.0000,0.6000,0.0000,0.0000,1,2395.5496,4961.3992,4961.3992,1919.7264,1919.7264,0.2008,0.2008,0.4247,0.4247,0.0000,0.0000,0.0000,0.0000,4703.4572,4703.4572,1941.4690,1941.4690,0.0000,0.0000,0.0000,0.0000,0.0000,-3.6882,-3.6882,13.1037,13.1037,525.5116,525.5116,-440.1656,-440.1656,0.0000,-0.3700,13762.2511,0.0000,0.9480,0.9480,1.0113,1.0113,0.0000,0.0000,11.6762,16.9199,0.0143,0.0000,6.4385,10.4671,-1.2091
2.9000,accel,4.5981,0.0000,0.0000,15.0410,4.1767,0.0000,0.0000,0.6000,0.0000,0.0000,1,2014.1957,3496.3999,3496.3999,3370.0968,3370.0968,-0.0772,-0.0772,0.2635,0.2635,0.0000,0.0000,0.0000,0.0000,-3177.4317,-3177.4317,3296.2837,3296.2837,0.0000,0.0000,0.0000,0.0000,0.0000,-6.7205,-6.7205,15.8298,15.8298,-21.6466,-21.6466,-45.3959,-45.3959,0.0000,-0.4969,13732.9933,0.0000,0.9088,0.9088,0.9781,0.9781,0.0000,0.0000,12.9896,18.8633,0.0175,0.0000,7.1741,11.6718,-1.3178
3.0000,accel,5.0307,0.0000,0.0000,16.0138,4.4417,0.0000,0.0000,0.6000,0.0000,0.0000,1,1750.8655,2999.4821,2999.4821,3872.2340,3872.2340,-0.1648,-0.1648,0.0998,0.0998,0.0000,0.0000,0.0000,0.0000,-3040.2924,-3040.2924,3597.3118,3597.3118,0.0000,0.0000,0.0000,0.0000,0.0000,-8.2867,-8.2867,16.6923,16.6923,-152.5313,-152.5313,128.4746,128.4746,0.0000,-0.5505,13743.4324,0.0000,1.0136,1.0136,0.9290,0.9290,0.0000,0.0000,14.4656,20.7507,0.0213,0.0000,7.4532,13.2762,-1.1894
3.1000,accel,5.4875,0.0000,0.0000,16.8766,4.6704,0.0000,0.0000,0.6000,0.0000,0.0000,1,1924.8561,2566.7422,2566.7422,4312.1752,4312.1752,-0.1915,-0.1915,0.1391,0.1391,0.0000,0.0000,0.0000,0.0000,-2642.5167,-2642.5167,4121.8097,4121.8097,0.0000,0.0000,0.0000,0.0000,0.0000,-8.6027,-8.6027,15.8107,15.8107,-274.0019,-274.0019,313.0834,313.0834,0.0000,-0.5380,13757.8348,0.0000,1.0295,1.0295,0.9559,0.9559,0.0000,0.0000,15.9974,22.5546,0.0258,0.0000,7.7349,14.7939,-1.2035
3.2000,accel,5.9676,0.0000,0.0000,17.7883,4.9261,0.0000,0.0000,0.6000,0.0000,0.0000,1,1926.4880,2562.2900,2562.2900,4318.0796,4318.0796,-0.2604,-0.2604,0.0932,0.0932,0.0000,0.0000,0.0000,0.0000,-2638.3910,-2638.3910,3912.4269,3912.4269,0.0000,0.0000,0.0000,0.0000,0.0000,-9.8686,-9.8686,16.2592,16.2592,-266.3351,-266.3351,310.7440,310.7440,0.0000,-0.5758,13760.7391,0.0000,1.0297,1.0297,0.9061,0.9061,0.0000,0.0000,17.6990,24.6104,0.0310,0.0000,8.0934,16.4860,-1.2130
3.3000,accel,6.4727,0.0000,0.0000,18.6974,5.1777,0.0000,0.0000,0.6000,0.0000,0.0000,1,2052.5148,2570.6874,2570.6874,4310.7178,4310.7178,-0.2952,-0.2952,0.1056,0.1056,0.0000,0.0000,0.0000,0.0000,-2646.1718,-2646.1718,4001.0149,4001.0149,0.0000,0.0000,0.0000,0.0000,0.0000,-10.3282,-10.3282,16.4033,16.4033,-260.7593,-260.7593,306.1338,306.1338,0.0000,-0.5891,13762.8103,0.0000,1.0294,1.0294,0.9282,0.9282,0.0000,0.0000,19.5329,26.8148,0.0371,0.0000,8.5147,18.2631,-1.2698
3.4000,accel,7.0023,0.0000,0.0000,19.5170,5.4034,0.0000,0.0000,0.6000,0.0000,0.0000,1,2370.4340,2569.8676,2569.8676,4312.5132,4312.5132,-0.1190,-0.1190,0.1919,0.1919,0.0000,0.0000,0.0000,0.0000,-2632.1238,-2632.1238,4149.3310,4149.3310,0.0000,0.0000,0.0000,0.0000,0.0000,-9.4126,-9.4126,15.6686,15.6686,-267.6339,-267.6339,313.9884,313.9884,0.0000,-0.5527,13764.7615,0.0000,1.0242,1.0242,0.9622,0.9622,0.0000,0.0000,21.5242,29.2203,0.0441,0.0000,9.2372,19.9389,-1.5852
3.5000,accel,7.5587,0.0000,0.0000,20.5157,5.6810,0.0000,0.0000,0.6000,0.0000,0.0000,1,2503.5378,2569.9175,2569.9175,4313.5580,4313.5580,-0.2443,-0.2443,0.1957,0.1957,0.0000,0.0000,0.0000,0.0000,-2645.4586,-2645.4586,4149.3292,4149.3292,0.0000,0.0000,0.0000,0.0000,0.0000,-10.3013,-10.3013,16.3441,16.3441,-261.4013,-261.4013,307.3797,307.3797,0.0000,-0.5872,13766.9509,0.0000,1.0294,1.0294,0.9619,0.9619,0.0000,0.0000,23.6692,31.8366,0.0522,0.0000,9.7030,22.0813,-1.5878
3.6000,accel,8.1421,0.0000,0.0000,21.4837,5.9661,0.0000,0.0000,0.6000,0.0000,0.0000,1,2260.2421,2979.8296,2979.8296,3900.2368,3900.2368,-0.2353,-0.2353,0.0646,0.0646,0.0000,0.0000,0.0000,0.0000,-3022.3586,-3022.3586,3165.9666,3165.9666,0.0000,0.0000,0.0000,0.0000,0.0000,-11.4724,-11.4724,16.8735,16.8735,-136.0580,-136.0580,136.4643,136.4643,0.0000,-0.6247,13760.1328,0.0000,1.0143,1.0143,0.8117,0.8117,0.0000,0.0000,25.9238,34.4086,0.0616,0.0000,10.0821,24.2648,-1.6590
3.7000,accel,8.7520,0.0000,0.0000,22.4785,6.2262,0.0000,0.0000,0.6000,0.0000,0.0000,1,2645.1675,2569.8162,2569.8162,4316.2126,4316.2126,-0.2117,-0.2117,0.1659,0.1659,0.0000,0.0000,0.0000,0.0000,-2645.3647,-2645.3647,4151.2854,4151.2854,0.0000,0.0000,0.0000,0.0000,0.0000,-11.2323,-11.2323,16.8674,16.8674,-255.0529,-255.0529,302.6358,302.6358,0.0000,-0.6192,13772.0575,0.0000,1.0294,1.0294,0.9618,0.9618,0.0000,0.0000,28.4057,37.3874,0.0723,0.0000,10.7024,26.6127,-1.7930
3.8000,accel,9.3907,0.0000,0.0000,23.5380,6.4594,0.0000,0.0000,0.6000,0.0000,0.0000,1,2807.2245,3799.1345,3799.1345,3082.6598,3082.6598,0.1055,0.1055,0.1846,0.1846,0.0000,0.0000,0.0000,0.0000,3571.2346,3571.2346,3069.6777,3069.6777,0.0000,0.0000,0.0000,0.0000,0.0000,-9.5556,-9.5556,14.9083,14.9083,117.7125,117.7125,-122.4678,-122.4678,0.0000,-0.5391,13763.5887,0.0000,0.9400,0.9400,0.9958,0.9958,0.0000,0.0000,31.0263,40.3425,0.0846,0.0000,11.0285,29.2294,-1.7968
3.9000,accel,10.0575,0.0000,0.0000,24.4303,6.8161,0.0000,0.0000,0.6000,0.0000,0.0000,1,2425.2634,2705.4269,2705.4269,4180.8473,4180.8473,-0.2144,-0.2144,0.0043,0.0043,0.0000,0.0000,0.0000,0.0000,-2770.6772,-2770.6772,267.6376,267.6376,0.0000,0.0000,0.0000,0.0000,0.0000,-12.1447,-12.1447,18.4107,18.4107,-210.1130,-210.1130,232.3781,232.3781,0.0000,-0.6733,13772.5484,0.0000,1.0241,1.0241,0.0640,0.0640,0.0000,0.0000,33.7715,43.4998,0.0986,0.0000,11.8778,31.5234,-2.2482
4.0000,accel,10.7529,0.0000,0.0000,25.4854,7.0765,0.0000,0.0000,0.6000,0.0000,0.0000,1,3016.9877,3271.2921,3271.2921,3610.3401,3610.3401,-0.1740,-0.1740,0.1689,0.1689,0.0000,0.0000,0.0000,0.0000,-3287.1619,-3287.1619,3536.7966,3536.7966,0.0000,0.0000,0.0000,0.0000,0.0000,-11.5580,-11.5580,17.1681,17.1681,-52.7799,-52.7799,16.2826,16.2826,0.0000,-0.6330,13763.2644,0.0000,1.0049,1.0049,0.9796,0.9796,0.0000,0.0000,36.7518,46.9149,0.1145,0.0000,12.4452,34.3552,-2.3965
4.1000,accel,11.4792,0.0000,0.0000,26.5817,7.3810,0.0000,0.0000,0.6000,0.0000,0.0000,1,2856.4591,3105.8823,3105.8823,3779.4880,3779.4880,-0.1679,-0.1679,0.0845,0.0845,0.0000,0.0000,0.0000,0.0000,-3137.1855,-3137.1855,3386.4418,3386.4418,0.0000,0.0000,0.0000,0.0000,0.0000,-11.9016,-11.9016,17.3140,17.3140,-97.7704,-97.7704,82.0945,82.0945,0.0000,-0.6438,13770.7407,0.0000,1.0101,1.0101,0.8960,0.8960,0.0000,0.0000,39.7951,50.1482,0.1325,0.0000,12.5909,37.4247,-2.3703
4.2000,accel,12.2344,0.0000,0.0000,27.6910,7.6811,0.0000,0.0000,0.6000,0.0000,0.0000,1,2927.2356,2586.3230,2586.3230,4306.8314,4306.8314,-0.1633,-0.1633,0.0703,0.0703,0.0000,0.0000,0.0000,0.0000,-2660.6527,-2660.6527,3583.4553,3583.4553,0.0000,0.0000,0.0000,0.0000,0.0000,-12.2338,-12.2338,17.7222,17.7222,-244.0326,-244.0326,288.5506,288.5506,0.0000,-0.6601,13786.3090,0.0000,1.0287,1.0287,0.8320,0.8320,0.0000,0.0000,43.0672,53.6974,0.1529,0.0000,12.8814,40.6631,-2.4040
4.3000,accel,13.0194,0.0000,0.0000,28.7550,7.9953,0.0000,0.0000,0.6000,0.0000,0.0000,1,2927.4061,2736.4853,2736.4853,4156.8233,4156.8233,-0.1693,-0.1693,0.0323,0.0323,0.0000,0.0000,0.0000,0.0000,-2799.2876,-2799.2876,2160.4913,2160.4913,0.0000,0.0000,0.0000,0.0000,0.0000,-13.0855,-13.0855,18.1879,18.1879,-195.2525,-195.2525,223.4563,223.4563,0.0000,-0.6892,13786.6172,0.0000,1.0229,1.0229,0.5197,0.5197,0.0000,0.0000,46.5649,57.5567,0.1757,0.0000,13.4868,43.8942,-2.6707
4.4000,accel,13.8360,0.0000,0.0000,29.8769,8.2970,0.0000,0.0000,0.6000,0.0000,0.0000,1,3135.6812,2926.1359,2926.1359,3966.9701,3966.9701,-0.1578,-0.1578,0.0625,0.0625,0.0000,0.0000,0.0000,0.0000,-2973.3001,-2973.3001,3167.9317,3167.9317,0.0000,0.0000,0.0000,0.0000,0.0000,-12.9961,-12.9961,17.8620,17.8620,-141.9117,-141.9117,150.3399,150.3399,0.0000,-0.6800,13786.2119,0.0000,1.0161,1.0161,0.7986,0.7986,0.0000,0.0000,50.2299,61.4528,0.2014,0.0000,13.8151,47.4364,-2.7935
4.5000,accel,14.6834,0.0000,0.0000,30.9736,8.5997,0.0000,0.0000,0.6000,0.0000,0.0000,1,3425.0619,3155.2215,3155.2215,3737.2151,3737.2151,-0.1462,-0.1462,0.1104,0.1104,0.0000,0.0000,0.0000,0.0000,-3182.0030,-3182.0030,3543.3343,3543.3343,0.0000,0.0000,0.0000,0.0000,0.0000,-12.8136,-12.8136,17.5272,17.5272,-77.9770,-77.9770,61.3355,61.3355,0.0000,-0.6686,13784.8733,0.0000,1.0085,1.0085,0.9481,0.9481,0.0000,0.0000,54.1067,65.6068,0.2301,0.0000,14.3468,51.0299,-3.0767
4.6000,accel,15.5626,0.0000,0.0000,32.1164,8.9177,0.0000,0.0000,0.6000,0.0000,0.0000,1,3518.0589,3156.4881,3156.4881,3737.9819,3737.9819,-0.1332,-0.1332,0.1019,0.1019,0.0000,0.0000,0.0000,0.0000,-3183.1525,-3183.1525,3498.7179,3498.7179,0.0000,0.0000,0.0000,0.0000,0.0000,-13.0596,-13.0596,17.7116,17.7116,-76.0917,-76.0917,59.3065,59.3065,0.0000,-0.6781,13788.9399,0.0000,1.0084,1.0084,0.9360,0.9360,0.0000,0.0000,58.1792,69.9468,0.2622,0.0000,14.7717,54.9129,-3.2662
4.7000,accel,16.4738,0.0000,0.0000,33.2764,9.2397,0.0000,0.0000,0.6000,0.0000,0.0000,1,3647.1527,3148.9735,3148.9735,3747.7380,3747.7380,-0.1287,-0.1287,0.1024,0.1024,0.0000,0.0000,0.0000,0.0000,-3176.3314,-3176.3314,3510.0328,3510.0328,0.0000,0.0000,0.0000,0.0000,0.0000,-13.2994,-13.2994,17.8916,17.8916,-76.7720,-76.7720,60.8933,60.8933,0.0000,-0.6874,13793.4230,0.0000,1.0087,1.0087,0.9366,0.9366,0.0000,0.0000,62.4609,74.5138,0.2978,0.0000,15.2174,58.9985,-3.4624
4.8000,accel,17.4176,0.0000,0.0000,34.4604,9.5686,0.0000,0.0000,0.6000,0.0000,0.0000,1,3733.1989,3105.7722,3105.7722,3793.6346,3793.6346,-0.1228,-0.1228,0.0919,0.0919,0.0000,0.0000,0.0000,0.0000,-3132.5496,-3132.5496,3471.3636,3471.3636,0.0000,0.0000,0.0000,0.0000,0.0000,-13.5926,-13.5926,18.2068,18.2068,-87.2803,-87.2803,75.5541,75.5541,0.0000,-0.7008,13798.8136,0.0000,1.0086,1.0086,0.9150,0.9150,0.0000,0.0000,66.9570,79.3030,0.3375,0.0000,15.6467,63.3188,-3.6382
4.9000,accel,18.3943,0.0000,0.0000,35.6599,9.9016,0.0000,0.0000,0.6000,0.0000,0.0000,1,3832.6257,3062.8993,3062.8993,3839.3266,3839.3266,-0.1182,-0.1182,0.0847,0.0847,0.0000,0.0000,0.0000,0.0000,-3081.1532,-3081.1532,3436.9715,3436.9715,0.0000,0.0000,0.0000,0.0000,0.0000,-13.8766,-13.8766,18.4990,18.4990,-97.7736,-97.7736,90.3370,90.3370,0.0000,-0.7135,13804.4517,0.0000,1.0060,1.0060,0.8952,0.8952,0.0000,0.0000,71.6770,84.3309,0.3815,0.0000,16.0994,67.8501,-3.8269
5.0000,entry,19.4045,0.0000,0.0000,36.8760,10.2394,0.0000,0.0000,0.3000,0.0000,0.0000,1,3929.0055,3015.7217,3015.7217,3889.4793,3889.4793,-0.1131,-0.1131,0.0767,0.0767,0.0000,0.0000,0.0000,0.0000,-3022.4345,-3022.4345,3373.6853,3373.6853,0.0000,0.0000,0.0000,0.0000,0.0000,-14.1639,-14.1639,18.8073,18.8073,-109.4865,-109.4865,106.7151,106.7151,0.0000,-0.7266,13810.4022,0.0000,1.0022,1.0022,0.8674,0.8674,0.0000,11.7335,76.6284,89.6042,0.4301,0.0000,16.5714,72.6026,-4.0257
5.1000,entry,20.4390,0.0034,0.1109,37.4427,10.3958,0.0762,3.4477,0.3000,0.0000,5.1783,1,4015.5418,3346.3011,3641.0665,3301.6967,3517.1782,0.0085,-0.0500,0.1566,-0.0043,-4.7915,-3.0995,-0.0511,-0.0506,0.1696,-1797.6865,3259.0154,-332.4614,2357.4357,1385.2319,-0.3463,1.6311,0.2626,-9.7697,-7.7811,13.4603,14.8645,-46.5585,32.8383,-53.7233,-2.1871,0.0627,-0.5055,13806.2426,3.8946,0.7045,0.6233,0.9871,0.0945,172.7632,11.9127,79.0447,92.2908,0.4823,0.0000,16.9370,74.8715,-4.1732
5.2000,entry,21.4882,0.0285,0.9368,38.0925,10.5633,0.1690,10.6574,0.3000,0.0000,1.9352,1,4019.0653,2538.0491,3468.7998,3562.2520,4249.4297,-0.0020,-0.1335,0.0625,0.0748,0.1690,0.7081,-0.5474,-0.5325,-93.5883,-3464.7610,2838.1882,3591.3433,1084.7506,288.2490,35.7214,36.5537,0.0988,-15.8187,0.8497,6.6098,18.7786,-234.4285,-87.5601,97.2028,250.3858,0.5330,-0.4447,13818.5305,-0.1014,0.4290,1.0023,0.7968,0.8452,56.7894,12.1046,81.4939,95.0775,0.5368,0.0000,16.9796,77.5610,-3.9329
5.3000,entry,22.5536,0.0662,2.0276,38.6303,10.7219,0.0468,10.6507,0.3000,0.0000,3.2423,1,4229.5110,3219.2308,4178.0729,2857.7087,3559.0225,0.0037,-0.1070,0.0585,0.1404,-1.5417,-0.6682,-1.2320,-1.1984,-19.2173,-3997.2820,2124.7026,3427.1591,820.3636,84.8172,328.3381,247.6502,0.0970,-20.7454,7.8709,0.7745,21.5565,-4.7553,90.7161,-90.3983,-38.4653,0.9130,-0.3879,13814.0349,-0.1102,0.2549,0.9569,0.7523,0.9655,57.6792,12.2864,84.1210,97.9368,0.5940,0.0000,17.5578,79.7850,-4.3360
5.4000,entry,23.6351,0.1170,3.1481,39.2058,10.8927,-0.0024,11.3620,0.3000,0.0000,3.0856,1,4237.2130,2966.3710,3966.9033,3074.2347,3808.9274,0.0034,-0.1162,-0.0013,0.1628,-2.2899,-1.2577,-1.5248,-1.4824,-28.6425,-3807.3676,-49.9028,3656.2264,1333.0875,192.7398,676.5027,417.8240,0.1786,-24.1213,10.4673,-2.0736,23.1802,-53.0422,-14.2370,-8.4226,29.5481,1.1060,-0.3830,13816.4364,0.2702,0.4495,0.9610,0.2207,0.9662,54.9294,12.4821,86.7534,100.8583,0.6538,0.0000,17.9987,82.2058,-4.5477
5.5000,entry,24.7322,0.1878,4.3177,39.8035,11.0585,-0.0223,11.7426,0.3000,0.0000,3.2852,1,4295.6415,2938.2899,3985.8244,3063.3065,3832.2917,0.0038,-0.1104,0.0003,0.1595,-2.6282,-1.5165,-1.6556,-1.6088,-27.3726,-3755.6695,-45.7402,3662.9792,1483.3362,275.6539,774.4402,510.7948,0.2087,-26.1852,12.3069,-3.8528,24.3413,-46.4760,-22.1242,1.3084,26.9612,1.2325,-0.3787,13819.7126,0.4402,0.5049,0.9448,0.2533,0.9651,53.9580,12.6721,89.4161,103.8470,0.7165,0.0000,18.3768,84.7537,-4.6624
5.6000,entry,25.8441,0.2817,5.5241,40.4016,11.2244,-0.0317,12.0896,0.3000,0.0000,3.3775,1,4352.6974,2908.6274,4002.9015,3054.2457,3857.2565,0.0039,-0.1072,0.0014,0.1561,-2.7490,-1.6090,-1.7258,-1.6763,-27.2291,-3732.1054,-42.1673,3673.9172,1521.4172,312.4675,813.2226,564.5950,0.2207,-27.6895,13.5817,-5.0148,25.2623,-44.3617,-26.5062,8.9779,27.4118,1.3224,-0.3785,13823.0312,0.4779,0.5232,0.9356,0.2666,0.9637,53.1956,12.8623,92.1173,106.8976,0.7821,0.0000,18.7742,87.3414,-4.7760
5.7000,entry,26.9704,0.4002,6.7617,41.0007,11.3906,-0.0394,12.4000,0.3000,0.0000,3.4363,1,4408.3935,2877.6261,4016.1535,3048.5691,3883.9156,0.0039,-0.1039,0.0026,0.1522,-2.8389,-1.6783,-1.7797,-1.7281,-27.0007,-3704.2513,-33.5256,3685.2820,1554.3855,348.5273,837.4140,609.2070,0.2306,-28.8983,14.5791,-5.8702,26.0433,-44.7425,-30.0019,14.9298,29.9339,1.3934,-0.3801,13826.2643,0.5047,0.5402,0.9264,0.2749,0.9617,52.6316,13.0527,94.8610,110.0092,0.8506,0.0000,19.1869,89.9717,-4.8892
5.8000,entry,28.1103,0.5448,8.0274,41.6013,11.5571,-0.0465,12.6853,0.3000,0.0000,3.4737,1,4461.5834,2843.6392,4025.0384,3047.0647,3913.7979,0.0040,-0.1005,0.0041,0.1472,-2.9041,-1.7300,-1.8254,-1.7720,-26.7707,-3670.5395,-16.6723,3696.0426,1586.8691,385.2339,856.2638,655.2976,0.2403,-29.9580,15.4344,-6.5726,26.7527,-47.0447,-33.7333,21.0147,34.4551,1.4549,-0.3824,13829.5402,0.5184,0.5581,0.9169,0.2811,0.9591,52.2001,13.2435,97.6481,113.1818,0.9221,0.0000,19.6125,92.6472,-5.0008
5.9000,entry,29.2633,0.7166,9.3190,42.2029,11.7238,-0.0528,12.9511,0.3000,0.0000,3.5041,1,4514.1968,2810.5467,4033.9466,3045.3963,3942.9079,0.0040,-0.0973,0.0058,0.1419,-2.9525,-1.7693,-1.8638,-1.8090,-26.5104,-3635.8100,10.5766,3703.2644,1617.6231,422.1011,870.9605,701.6539,0.2497,-30.9322,16.2240,-7.2001,27.4220,-49.7039,-36.9910,26.2800,39.0639,1.5115,-0.3849,13832.7975,0.5245,0.5756,0.9074,0.2860,0.9559,51.8662,13.4345,100.4780,116.4138,0.9968,0.0000,20.0512,95.3658,-5.1122
6.0000,entry,30.4285,0.9170,10.6352,42.8039,11.8904,-0.0594,13.1989,0.3000,0.0000,3.5516,1,4571.3065,2785.0360,4049.6061,3036.7777,3964.4690,0.0040,-0.0944,0.0076,0.1381,-3.0133,-1.8178,-1.9003,-1.8442,-26.1615,-3604.9614,47.3386,3706.1740,1639.9137,457.7904,883.5916,739.2593,0.2576,-31.8406,17.0048,-7.8060,28.0570,-50.6692,-38.2594,28.5450,40.9910,1.5656,-0.3866,13835.8888,0.5433,0.5889,0.8973,0.2914,0.9533,51.6153,13.6254,103.3477,119.6994,1.0748,0.0000,20.5041,98.1205,-5.2271
6.1000,entry,31.6053,1.1468,11.9752,43.4044,12.0567,-0.0672,13.4358,0.3000,0.0000,3.6019,1,4629.6848,2762.4559,4067.8023,3025.5443,3983.1312,0.0041,-0.0916,0.0093,0.1350,-3.0819,-1.8734,-1.9402,-1.8827,-25.7966,-3570.7337,87.5465,3706.3410,1658.9189,496.2019,897.3306,773.9694,0.2653,-32.7118,17.7853,-8.4029,28.6737,-51.0655,-38.8031,29.6691,41.9380,1.6186,-0.3878,13838.9336,0.5662,0.6006,0.8862,0.2980,0.9506,51.4150,13.8160,106.2559,123.0364,1.1561,0.0000,20.9687,100.9115,-5.3443
6.2000,entry,32.7927,1.4073,13.3383,44.0032,12.2226,-0.0758,13.6654,0.3000,0.0000,3.6448,1,4687.8024,2741.0235,4086.9578,3013.3278,4000.6747,0.0042,-0.0888,0.0107,0.1320,-3.1507,-1.9302,-1.9825,-1.9235,-25.4055,-3531.5622,126.9390,3704.1087,1678.3734,538.8999,913.1080,809.5645,0.2735,-33.5554,18.5730,-9.0042,29.2712,-51.3319,-39.1254,30.4397,42.6248,1.6709,-0.3884,13841.9838,0.5874,0.6124,0.8741,0.3059,0.9477,51.2466,14.0061,109.1960,126.4182,1.2408,0.0000,21.4441,103.7333,-5.4626
6.3000,entry,33.9897,1.6993,14.7237,44.5996,12.3878,-0.0849,13.8894,0.3000,0.0000,3.6779,1,4744.9064,2718.6446,4105.2155,3002.0411,4019.1869,0.0042,-0.0860,0.0123,0.1287,-3.2021,-1.9755,-2.0252,-1.9648,-25.0632,-3488.8966,172.2788,3699.4977,1697.2977,583.6264,929.0358,846.7824,0.2821,-34.3826,19.3653,-9.6104,29.8551,-51.9884,-39.7392,31.6292,43.8326,1.7228,-0.3885,13845.0881,0.5938,0.6244,0.8617,0.3147,0.9443,51.1016,14.1954,112.1631,129.8408,1.3291,0.0000,21.9294,106.5823,-5.5808
6.4000,entry,35.1954,2.0239,16.1308,45.1930,12.5522,-0.0943,14.1097,0.3000,0.0000,3.6920,1,4799.0441,2695.2690,4122.6096,2991.6624,4038.7074,0.0042,-0.0831,0.0137,0.1247,-3.2305,-2.0048,-2.0678,-2.0060,-24.7776,-3443.3497,213.4804,3689.7125,1715.4841,629.1900,945.1549,885.1188,0.2909,-35.2008,20.1600,-10.2222,30.4284,-52.9954,-40.6181,33.2337,45.5456,1.7745,-0.3884,13848.2483,0.5807,0.6365,0.8491,0.3239,0.9395,50.9710,14.3837,115.1527,133.2993,1.4209,0.0000,22.4241,109.4544,-5.6983
6.5000,entry,36.4087,2.3821,17.5591,45.7828,12.7155,-0.1041,14.3265,0.3000,0.0000,3.6893,1,4851.4038,2670.5872,4138.9483,2982.4020,4059.5335,0.0042,-0.0801,0.0150,0.1203,-3.2240,-2.0101,-2.1110,-2.0477,-24.5849,-3397.9356,254.0255,3674.9943,1731.4939,673.2577,961.2788,924.0364,0.2996,-36.0156,20.9548,-10.8395,30.9935,-54.4009,-41.8002,35.3385,47.8607,1.8261,-0.3880,13851.4710,0.5377,0.6484,0.8369,0.3334,0.9335,50.8530,14.5709,118.1626,136.7921,1.5164,0.0000,22.9292,112.3465,-5.8161
6.6000,entry,37.6283,2.7748,19.0083,46.3689,12.8779,-0.1144,14.5399,0.3000,0.0000,3.6737,1,4901.6950,2644.5443,4154.2742,2974.2303,4081.7073,0.0042,-0.0772,0.0162,0.1154,-3.1736,-1.9852,-2.1553,-2.0906,-24.4985,-3355.6152,292.2212,3653.0880,1744.9544,714.8802,977.8388,964.3282,0.3082,-36.8342,21.7448,-11.4591,31.5553,-56.1691,-43.2390,37.8983,50.7453,1.8777,-0.3877,13854.7561,0.4565,0.6599,0.8259,0.3431,0.9256,50.7468,14.7570,121.1921,140.3191,1.6156,0.0000,23.4460,115.2575,-5.9346
6.7000,entry,38.8531,3.2030,20.4780,46.9511,13.0394,-0.1251,14.7492,0.3000,0.0000,3.6550,1,4949.5730,2617.0901,4168.6298,2967.1157,4105.2657,0.0041,-0.0743,0.0173,0.1100,-3.0678,-1.9221,-2.2010,-2.1347,-24.5278,-3320.6981,326.6447,3620.7162,1754.8467,753.2811,995.0357,1007.2087,0.3167,-37.6601,22.5282,-12.0787,32.1173,-58.2896,-44.9092,40.8794,54.1801,1.9293,-0.3875,13858.1013,0.3271,0.6706,0.8168,0.3530,0.9155,50.6536,14.9420,124.2401,143.8800,1.7186,0.0000,23.9756,118.1858,-6.0543
6.8000,entry,40.0817,3.6674,21.9677,47.5292,13.1998,-0.1362,14.9532,0.3000,0.0000,3.6524,1,4995.2005,2588.8131,4182.6071,2960.4573,4129.6102,0.0039,-0.0716,0.0182,0.1041,-2.9024,-1.8176,-2.2471,-2.1792,-24.6492,-3297.6022,356.1010,3574.5245,1759.4327,788.5075,1012.6453,1053.6919,0.3250,-38.4937,23.3058,-12.6974,32.6812,-60.5915,-46.6469,44.0313,57.9067,1.9809,-0.3875,13861.4876,0.1468,0.6797,0.8106,0.3626,0.9024,50.5774,15.1259,127.3055,147.4747,1.8255,0.0000,24.5200,121.1292,-6.1762
6.9000,entry,41.3130,4.1690,23.4772,48.1027,13.3591,-0.1473,15.1505,0.3000,0.0000,3.6871,1,5040.6608,2562.3679,4198.5097,2951.8742,4152.0991,0.0037,-0.0691,0.0191,0.0984,-2.7140,-1.6967,-2.2919,-2.2226,-24.7467,-3284.2473,379.6823,3517.4557,1758.6195,823.7100,1030.0088,1102.6779,0.3330,-39.3293,24.0835,-13.3191,33.2436,-62.3561,-47.8362,46.4418,60.9053,2.0326,-0.3875,13864.8510,-0.0519,0.6864,0.8065,0.3719,0.8878,50.5211,15.3084,130.3860,151.1021,1.9363,0.0000,25.0809,124.0848,-6.3012
7.0000,entry,42.5453,4.7086,25.0062,48.6712,13.5170,-0.1582,15.3437,0.3000,0.0000,3.7334,1,5089.7463,2542.2238,4219.9019,2937.6357,4168.3304,0.0036,-0.0667,0.0197,0.0944,-2.6106,-1.6348,-2.3337,-2.2629,-24.6883,-3255.1582,396.0202,3465.9233,1760.2463,868.0775,1046.3655,1149.4972,0.3415,-40.1536,24.8738,-13.9553,33.7918,-62.4025,-47.5468,46.7342,61.5415,2.0844,-0.3869,13868.0919,-0.1756,0.6925,0.7983,0.3809,0.8760,50.4744,15.4893,133.4777,154.7593,2.0512,0.0000,25.6592,127.0490,-6.4288
7.1000,entry,43.7773,5.2870,26.5544,49.2349,13.6733,-0.1687,15.5350,0.3000,0.0000,3.7671,1,5142.6968,2526.9366,4245.3116,2919.2261,4179.7680,0.0036,-0.0643,0.0203,0.0918,-2.6064,-1.6417,-2.3723,-2.3003,-24.5177,-3201.9646,413.3817,3427.1403,1766.8333,921.2920,1060.7748,1192.6424,0.3503,-40.9669,25.6757,-14.6048,34.3268,-61.1394,-46.1939,45.4899,60.3905,2.1361,-0.3858,13871.2424,-0.2123,0.6993,0.7848,0.3900,0.8682,50.4295,15.6685,136.5794,158.4454,2.1701,0.0000,26.2527,130.0226,-6.5568
7.2000,entry,45.0074,5.9049,28.1216,49.7938,13.8282,-0.1790,15.7249,0.3000,0.0000,3.7831,1,5196.2283,2513.4406,4272.1847,2899.2992,4189.4452,0.0037,-0.0620,0.0210,0.0897,-2.6445,-1.6777,-2.4089,-2.3358,-24.2826,-3133.6192,430.4011,3390.5879,1775.4242,979.3006,1073.9071,1234.5404,0.3594,-41.7752,26.4842,-15.2630,34.8538,-59.4010,-44.4699,43.7251,58.6162,2.1879,-0.3843,13874.3697,-0.2113,0.7064,0.7685,0.3990,0.8613,50.3850,15.8460,139.6887,162.1578,2.2931,0.0000,26.8603,133.0043,-6.6844
7.3000,entry,46.2340,6.5630,29.7074,50.3476,13.9816,-0.1893,15.9131,0.3000,0.0000,3.7837,1,5249.3554,2500.5657,4299.5709,2878.8460,4198.5163,0.0037,-0.0596,0.0217,0.0877,-2.6970,-1.7235,-2.4443,-2.3701,-24.0082,-3055.4411,447.3220,3352.3095,1783.8024,1040.2634,1086.0849,1276.5745,0.3685,-42.5814,27.2961,-15.9281,35.3741,-57.5003,-42.6242,41.8184,56.6644,2.2397,-0.3827,13877.4989,-0.1970,0.7134,0.7507,0.4080,0.8544,50.3414,16.0218,142.8035,165.8939,2.4203,0.0000,27.4816,135.9920,-6.8115
7.4000,entry,47.4554,7.2618,31.3118,50.8965,14.1337,-0.1995,16.1001,0.3000,0.0000,3.7638,1,5301.8742,2488.3901,4327.5527,2857.7843,4206.9027,0.0038,-0.0573,0.0223,0.0856,-2.7654,-1.7801,-2.4787,-2.4034,-23.6844,-2965.7857,463.5180,3311.2130,1792.0286,1104.9798,1097.4746,1319.2008,0.3780,-43.3891,28.1079,-16.5985,35.8893,-55.3897,-40.6073,39.7199,54.4895,2.2915,-0.3809,13880.6298,-0.1683,0.7202,0.7313,0.4169,0.8473,50.2977,16.1960,145.9231,169.6534,2.5518,0.0000,28.1166,138.9850,-6.9380
7.5000,entry,48.6701,8.0021,32.9345,51.4405,14.2843,-0.2097,16.2866,0.3000,0.0000,3.7124,1,5353.7596,2477.2678,4356.4338,2835.8021,4214.2550,0.0039,-0.0550,0.0229,0.0836,-2.8590,-1.8541,-2.5120,-2.4356,-23.2776,-2859.9558,478.6752,3266.9020,1800.5868,1175.1516,1108.0934,1362.5323,0.3878,-44.2004,28.9175,-17.2747,36.3986,-52.9522,-38.3185,37.3115,51.9601,2.3434,-0.3791,13883.7587,-0.1172,0.7269,0.7097,0.4257,0.8399,50.2517,16.3686,149.0468,173.4356,2.6876,0.0000,28.7647,141.9834,-7.0634
7.6000,entry,49.8761,8.7841,34.5753,51.9799,14.4335,-0.2198,16.4739,0.3000,0.0000,3.6060,1,5404.9807,2467.9715,4386.8725,2812.2218,4219.8118,0.0041,-0.0525,0.0235,0.0816,-2.9984,-1.9599,-2.5442,-2.4668,-22.7212,-2727.5789,492.2131,3218.7822,1810.2339,1254.4299,1117.8909,1406.6421,0.3983,-45.0181,29.7231,-17.9597,36.8988,-49.9478,-35.5558,34.3507,48.8018,2.3953,-0.3772,13886.8777,-0.0264,0.7335,0.6844,0.4343,0.8324,50.1992,16.5395,152.1742,177.2402,2.8276,0.0000,29.4249,144.9877,-7.1865
7.7000,entry,51.0719,9.6084,36.2340,52.5154,14.5813,-0.2299,16.6663,0.3000,0.0000,3.3725,1,5455.4334,2462.8642,4420.8712,2784.9801,4221.2434,0.0044,-0.0498,0.0240,0.0795,-3.2468,-2.1415,-2.5749,-2.4967,-21.8240,-2535.2769,502.4217,3165.2459,1822.7498,1354.3420,1126.7074,1451.7003,0.4104,-45.8476,30.5207,-18.6616,37.3813,-45.6623,-31.7197,30.0946,44.1708,2.4473,-0.3751,13889.9588,0.1583,0.7401,0.6502,0.4430,0.8249,50.1280,16.7090,155.3050,181.0667,2.9721,0.0000,30.0936,148.0010,-7.3040
7.8000,entry,52.2555,10.4752,37.9108,53.0515,14.7277,-0.2400,16.8990,0.3000,0.0000,2.4049,1,5504.3469,2479.4674,4472.9956,2738.9946,4201.2819,0.0054,-0.0439,0.0242,0.0775,-4.1056,-2.7488,-2.6027,-2.5237,-18.9028,-1992.8882,497.5186,3095.3519,1847.1636,1566.5127,1133.5658,1498.5682,0.4317,-46.7072,31.2968,-19.4271,37.7940,-34.9586,-22.5509,18.9764,31.6811,2.4993,-0.3722,13892.7394,0.8640,0.7450,0.5667,0.4520,0.8186,49.9338,16.8767,158.4369,184.9147,3.1211,0.0000,30.7446,151.0491,-7.3877
7.9000,entry,53.4249,11.3849,39.6002,53.5740,14.8641,-0.2467,17.1293,0.3000,0.0000,1.2045,1,5542.1080,2644.8865,4646.7077,2568.4086,4036.2011,0.0124,0.0100,0.0221,0.0751,-9.3754,-6.4293,-2.5964,-2.5187,4.4058,0.2984,397.5491,2931.1021,1447.8830,2296.6293,1122.8842,1560.6085,0.4655,-47.2831,32.1208,-20.3933,37.9192,22.7470,29.4367,-28.5373,-25.6860,2.5453,-0.3602,13896.2039,5.3448,0.5474,0.4942,0.4638,0.8227,49.7189,17.0330,161.4680,188.7843,3.2745,0.0000,31.4601,154.0497,-7.4183
8.0000,hold,54.5776,12.3376,41.3040,54.0712,15.0028,-0.2506,17.3193,0.3000,0.0000,0.6858,1,5588.5667,2612.2345,4653.5788,2568.3225,4064.9921,0.0137,0.0044,0.0223,0.0733,-9.4466,-6.4804,-2.6043,-2.5263,12.7489,-54.8615,403.0048,2900.5229,1491.0716,2454.2602,1121.2058,1582.8179,0.4811,-48.0510,32.7674,-21.0059,38.4359,17.1212,25.4747,-24.4469,-21.4117,2.5924,-0.3605,13899.1280,5.3982,0.5708,0.5275,0.4639,0.8129,49.6321,17.1919,164.4676,192.6727,3.4322,0.0000,32.3089,156.9316,-7.5360
8.1000,hold,55.7118,13.3330,43.0234,54.5618,15.1388,-0.2587,17.4502,0.3010,0.0000,1.1367,1,5637.5536,2605.5221,4682.5017,2545.8173,4068.6004,0.0152,0.0097,0.0232,0.0720,-9.8326,-6.7556,-2.6255,-2.5469,22.1430,-7.2163,427.1177,2860.7055,1480.0811,2468.4288,1122.1085,1612.5337,0.4839,-48.7568,33.5411,-21.6452,38.9223,21.2530,29.0659,-26.5690,-24.1132,2.6405,-0.3580,13902.4415,5.7079,0.5681,0.5272,0.4716,0.8071,49.7067,17.3478,167.4753,196.5863,3.5943,0.0000,33.1916,159.8004,-7.6749
8.2000,hold,56.8260,14.3710,44.7589,55.0517,15.2749,-0.2684,17.6069,0.3019,0.0000,1.1227,1,5686.6072,2589.0834,4704.5839,2530.4521,4081.4660,0.0151,0.0095,0.0241,0.0707,-9.7554,-6.7094,-2.6543,-2.5748,21.2927,-9.2760,452.1263,2822.3896,1501.9514,2522.3335,1127.7265,1650.5968,0.4926,-49.5134,34.2947,-22.2341,39.4557,22.0002,30.1190,-27.0138,-24.5085,2.6892,-0.3574,13905.5854,5.6178,0.5802,0.5361,0.4801,0.8011,49.7071,17.5038,170.4965,200.5316,3.7609,0.0000,34.0805,162.6903,-7.8061
8.3000,hold,57.9182,15.4514,46.5101,55.5392,15.4104,-0.2788,17.7635,0.3029,0.0000,1.0977,1,5735.2643,2569.0497,4723.4636,2518.3010,4097.8417,0.0146,0.0090,0.0251,0.0693,-9.6377,-6.6354,-2.6853,-2.6049,18.4582,-14.6812,476.8903,2782.4460,1524.7081,2577.5287,1134.6699,1692.0799,0.5017,-50.2839,35.0516,-22.8130,40.0010,21.4461,29.8567,-26.6127,-23.9867,2.7382,-0.3572,13908.6559,5.4915,0.5935,0.5457,0.4887,0.7947,49.7058,17.6590,173.5296,204.5086,3.9319,0.0000,34.9847,165.5920,-7.9376
8.4000,hold,58.9867,16.5741,48.2769,56.0242,15.5451,-0.2896,17.9110,0.3038,0.0000,1.2224,1,5783.9073,2549.6794,4742.7411,2505.7209,4113.6020,0.0147,0.0088,0.0260,0.0680,-9.5867,-6.6084,-2.7172,-2.6358,19.1273,-17.0003,501.4766,2742.2072,1535.7799,2619.3862,1141.7267,1734.4879,0.5092,-51.0577,35.8171,-23.3939,40.5488,21.1909,29.6677,-26.3212,-23.6600,2.7875,-0.3569,13911.7435,5.4210,0.6024,0.5523,0.4977,0.7888,49.7275,17.8133,176.5747,208.5170,4.1075,0.0000,35.9060,168.5035,-8.0712
8.5000,hold,60.0294,17.7387,50.0593,56.5065,15.6791,-0.3005,18.0654,0.3048,0.0000,1.2060,1,5832.6570,2531.2035,4763.2648,2491.9618,4128.4411,0.0139,0.0084,0.0269,0.0668,-9.5050,-6.5598,-2.7492,-2.6668,13.8738,-20.9806,525.6425,2703.1185,1560.9543,2675.0859,1148.7798,1776.6582,0.5186,-51.8388,36.5800,-23.9709,41.1017,21.3648,30.0015,-26.3950,-23.6333,2.8369,-0.3569,13914.8712,5.3244,0.6167,0.5616,0.5070,0.7835,49.7273,17.9669,179.6280,212.5567,4.2877,0.0000,36.8451,171.4239,-8.2041
8.6000,hold,61.0445,18.9451,51.8572,56.9862,15.8123,-0.3119,18.2095,0.3057,0.0000,1.3598,1,5881.3182,2512.0461,4782.8208,2479.1207,4143.9928,0.0140,0.0082,0.0278,0.0657,-9.4847,-6.5545,-2.7822,-2.6988,14.9223,-22.9200,549.2027,2664.9440,1570.8953,2714.9148,1155.8096,1819.2058,0.5258,-52.6182,37.3527,-24.5543,41.6534,21.2487,29.8497,-26.1612,-23.3960,2.8866,-0.3566,13917.9803,5.2791,0.6254,0.5677,0.5162,0.7786,49.7529,18.1196,182.6919,216.6275,4.4726,0.0000,37.8028,174.3521,-8.3397
8.7000,hold,62.0300,20.1927,53.6706,57.4624,15.9445,-0.3232,18.3803,0.3067,0.0000,1.0134,1,5929.8467,2489.5008,4800.7393,2468.1276,4162.6618,0.0127,0.0081,0.0288,0.0647,-9.1913,-6.3584,-2.8152,-2.7307,7.3781,-23.0511,572.3969,2629.7600,1607.7665,2792.5592,1162.8284,1861.4021,0.5378,-53.3993,38.1237,-25.1325,42.2093,19.7943,29.0597,-25.4375,-22.2973,2.9362,-0.3565,13921.0296,5.0019,0.6458,0.5817,0.5251,0.7740,49.7029,18.2711,185.7603,220.7292,4.6621,0.0000,38.7830,177.2841,-8.4761
8.8000,hold,62.9839,21.4811,55.4991,57.9354,16.0757,-0.3348,18.5423,0.3076,0.0000,0.8028,1,5978.3103,2466.9121,4818.4930,2457.2724,4181.3805,0.0118,0.0092,0.0296,0.0638,-8.9214,-6.1789,-2.8490,-2.7634,2.5710,-7.4604,594.1148,2597.5074,1624.3010,2843.9198,1169.5990,1903.2276,0.5465,-54.1700,38.9073,-25.7155,42.7628,18.2192,28.0781,-24.6398,-21.1678,2.9860,-0.3560,13924.0579,4.7439,0.6584,0.5902,0.5339,0.7701,49.6739,18.4214,188.8355,224.8618,4.8565,0.0000,39.7860,180.2193,-8.6161
8.9000,hold,63.9043,22.8097,57.3427,58.4059,16.2062,-0.3470,18.6886,0.3086,0.0000,0.8622,1,6027.0474,2444.7838,4836.5769,2446.0786,4199.6667,0.0112,0.0088,0.0305,0.0631,-8.6978,-6.0322,-2.8845,-2.7978,-0.3740,-12.5041,615.1040,2568.6542,1619.6173,2866.9900,1177.1522,1944.8270,0.5515,-54.9503,39.6862,-26.2904,43.3286,16.9224,27.2744,-23.9972,-20.2508,3.0359,-0.3559,13927.1061,4.5239,0.6625,0.5928,0.5430,0.7672,49.6853,18.5709,191.9163,229.0236,5.0556,0.0000,40.8054,183.1626,-8.7537
9.0000,hold,64.7892,24.1776,59.2011,58.8723,16.3356,-0.3599,18.8288,0.3095,0.0000,1.0078,1,6075.7688,2425.9568,4856.8247,2432.5927,4214.8368,0.0111,0.0087,0.0314,0.0625,-8.6596,-6.0153,-2.9210,-2.8332,-0.4361,-12.8816,634.8109,2541.2472,1621.1288,2899.8486,1185.2293,1985.6706,0.5576,-55.7210,40.4750,-26.8742,43.8861,16.8503,27.2372,-23.9463,-20.1641,3.0858,-0.3554,13930.2110,4.4604,0.6682,0.5971,0.5527,0.7652,49.7091,18.7192,194.9953,233.2098,5.2596,0.0000,41.8469,186.1034,-8.8918
9.1000,hold,65.6365,25.5842,61.0745,59.3340,16.4637,-0.3732,18.9735,0.3105,0.0000,1.0452,1,6123.8088,2407.8024,4877.6990,2418.4752,4229.3417,0.0111,0.0089,0.0322,0.0618,-8.6193,-5.9972,-2.9582,-2.8692,-0.5101,-10.5833,652.3490,2511.8002,1633.9796,2949.0369,1193.5118,2026.8769,0.5658,-56.4828,41.2709,-27.4637,44.4361,16.9589,27.3805,-24.0341,-20.2140,3.1356,-0.3546,13933.3182,4.3946,0.6786,0.6046,0.5624,0.7631,49.7168,18.8660,198.0678,237.4173,5.4684,0.0000,42.9121,189.0369,-9.0309
9.2000,hold,66.4444,27.0284,62.9625,59.7906,16.5904,-0.3866,19.1163,0.3114,0.0000,1.0865,1,6171.5231,2389.5629,4898.4472,2404.4698,4243.9282,0.0110,0.0090,0.0331,0.0613,-8.5652,-5.9696,-2.9958,-2.9057,-0.6984,-9.4453,668.8172,2484.4851,1645.1522,2993.4541,1201.7704,2067.7633,0.5734,-57.2366,42.0717,-28.0585,44.9787,16.9537,27.4247,-24.0520,-20.1864,3.1854,-0.3535,13936.4080,4.3167,0.6885,0.6111,0.5720,0.7616,49.7249,19.0112,201.1299,241.6418,5.6822,0.0000,43.9999,191.9597,-9.1702
9.3000,hold,67.2108,28.5093,64.8650,60.2419,16.7156,-0.4004,19.2570,0.3124,0.0000,1.1360,1,6219.0261,2371.6352,4919.2680,2390.3532,4258.2289,0.0110,0.0090,0.0339,0.0608,-8.5257,-5.9523,-3.0341,-2.9428,-0.7096,-8.3440,684.4805,2460.1791,1654.7945,3037.1594,1210.0001,2107.9211,0.5809,-57.9836,42.8737,-28.6536,45.5170,17.0072,27.4878,-24.0980,-20.2087,3.2350,-0.3523,13939.4854,4.2506,0.6977,0.6174,0.5816,0.7608,49.7341,19.1546,204.1799,245.8826,5.9008,0.0000,45.1114,194.8703,-9.3096
9.4000,hold,67.9337,30.0256,66.7817,60.6878,16.8392,-0.4146,19.3963,0.3133,0.0000,1.1806,1,6266.2859,2354.0120,4940.1661,2376.1220,4272.2487,0.0110,0.0091,0.0347,0.0604,-8.4959,-5.9420,-3.0732,-2.9807,-0.6325,-7.1609,699.3527,2438.6600,1663.9707,3081.8998,1218.2718,2147.5415,0.5883,-58.7247,43.6746,-29.2466,46.0525,17.1246,27.5930,-24.1903,-20.2901,3.2843,-0.3510,13942.5488,4.1921,0.7069,0.6238,0.5912,0.7606,49.7424,19.2963,207.2164,250.1394,6.1245,0.0000,46.2476,197.7673,-9.4490
9.5000,hold,68.6113,31.5762,68.7126,61.1284,16.9614,-0.4291,19.5338,0.3143,0.0000,1.2235,1,6313.2685,2336.6568,4961.0946,2361.8206,4286.0243,0.0110,0.0092,0.0355,0.0601,-8.4745,-5.9379,-3.1131,-3.0194,-0.4980,-5.9823,713.4408,2419.7276,1672.3782,3127.1331,1226.6077,2186.7353,0.5957,-59.4603,44.4733,-29.8364,46.5857,17.2949,27.7339,-24.3244,-20.4240,3.3334,-0.3497,13945.5963,4.1400,0.7157,0.6303,0.6008,0.7609,49.7503,19.4363,210.2379,254.4117,6.3530,0.0000,47.4093,200.6494,-9.5885
9.6000,hold,69.2416,33.1597,70.6574,61.5633,17.0819,-0.4441,19.6697,0.3152,0.0000,1.2647,1,6359.9391,2319.5618,4982.0269,2347.4726,4299.5653,0.0110,0.0093,0.0362,0.0599,-8.4615,-5.9398,-3.1539,-3.0589,-0.3169,-4.7914,726.7480,2403.1703,1680.0977,3172.9147,1235.0025,2225.5620,0.6031,-60.1904,45.2689,-30.4224,47.1167,17.5154,27.9083,-24.4976,-20.6075,3.3823,-0.3484,13948.6265,4.0943,0.7243,0.6369,0.6104,0.7618,49.7579,19.5745,213.2429,258.6991,6.5865,0.0000,48.5975,203.5150,-9.7279
9.7000,hold,69.8229,34.7746,72.6160,61.9927,17.2009,-0.4594,19.8039,0.3162,0.0000,1.3043,1,6406.2645,2302.7128,5002.9331,2333.1048,4312.8872,0.0110,0.0094,0.0370,0.0598,-8.4562,-5.9473,-3.1954,-3.0992,-0.1132,-3.5892,739.2821,2388.7851,1687.1766,3219.2185,1243.4392,2264.0582,0.6104,-60.9148,46.0609,-31.0042,47.6453,17.7799,28.1109,-24.7048,-20.8347,3.4308,-0.3470,13951.6380,4.0545,0.7327,0.6435,0.6200,0.7631,49.7650,19.7108,216.2302,263.0010,6.8250,0.0000,49.8131,206.3629,-9.8672
9.8000,hold,70.3531,36.4194,74.5880,62.4163,17.3183,-0.4751,19.9362,0.3171,0.0000,1.3424,1,6452.2137,2286.0983,5023.7868,2318.7412,4326.0031,0.0111,0.0095,0.0378,0.0597,-8.4581,-5.9601,-3.2378,-3.1402,0.0882,-2.3785,751.0562,2376.3773,1693.6414,3265.9759,1251.8958,2302.2467,0.6177,-61.6336,46.8485,-31.5816,48.1712,18.0827,28.3371,-24.9407,-21.0999,3.4791,-0.3457,13954.6294,4.0201,0.7408,0.6501,0.6296,0.7648,49.7719,19.8453,219.1981,267.3172,7.0685,0.0000,51.0570,209.1917,-10.0064
9.9000,hold,70.8307,38.0924,76.5734,62.8342,17.4340,-0.4911,20.0668,0.3181,0.0000,1.3792,1,6497.7588,2269.7100,5044.5651,2304.4020,4338.9223,0.0111,0.0096,0.0386,0.0597,-8.4665,-5.9776,-3.2808,-3.1820,0.2854,-1.1616,762.0875,2365.7653,1699.5233,3313.1157,1260.3490,2340.1420,0.6250,-62.3465,47.6313,-32.1543,48.6941,18.4188,28.5828,-25.2008,-21.3981,3.5269,-0.3444,13957.5994,3.9906,0.7488,0.6568,0.6391,0.7669,49.7785,19.9779,222.1455,271.6471,7.3169,0.0000,52.3301,212.0001,-10.1453
10.0000,hold,71.2539,39.7919,78.5720,63.2462,17.5481,-0.5074,20.1955,0.3190,0.0000,1.4160,1,6542.7507,2253.4079,5065.1451,2290.2111,4351.7811,0.0111,0.0097,0.0393,0.0596,-8.4765,-5.9964,-3.3244,-3.2243,0.4452,0.0152,772.4956,2355.3527,1704.9598,3360.4256,1268.7860,2378.0390,0.6322,-63.0539,48.4085,-32.7223,49.2138,18.7358,28.8069,-25.4513,-21.6888,3.5745,-0.3431,13960.5451,3.9621,0.7566,0.6634,0.6486,0.7691,49.7850,20.1087,225.0710,275.9904,7.5703,0.0000,53.6332,214.7869,-10.2841
10.1000,hold,71.6210,41.5159,80.5835,63.6524,17.6606,-0.5240,20.3223,0.3200,0.0000,1.4535,1,6587.0651,2237.0623,5085.4170,2276.2803,4364.7059,0.0112,0.0097,0.0401,0.0596,-8.4834,-6.0132,-3.3685,-3.2671,0.5703,1.1102,782.4257,2343.8120,1710.1619,3407.6534,1277.1525,2416.2365,0.6394,-63.7565,49.1792,-33.2858,49.7297,18.9907,28.9748,-25.6568,-21.9314,3.6217,-0.3418,13963.4654,3.9305,0.7645,0.6701,0.6580,0.7712,49.7914,20.2376,227.9738,280.3466,7.8286,0.0000,54.9668,217.5511,-10.4226
10.2000,hold,71.9304,43.2626,82.6077,64.0527,17.7714,-0.5408,20.4471,0.3210,0.0000,1.4942,1,6630.6938,2220.6860,5105.3786,2262.6102,4377.6864,0.0112,0.0098,0.0408,0.0595,-8.4878,-6.0282,-3.4129,-3.3101,0.6863,2.1416,791.8663,2331.2074,1715.4333,3453.6608,1285.3845,2454.6153,0.6466,-64.4548,49.9429,-33.8451,50.2412,19.1910,29.0912,-25.8157,-22.1246,3.6685,-0.3406,13966.3611,3.8965,0.7725,0.6765,0.6672,0.7733,49.7982,20.3646,230.8530,284.7153,8.0919,0.0000,56.3314,220.2920,-10.5610
10.3000,hold,72.1806,45.0299,84.6446,64.4471,17.8806,-0.5578,20.5699,0.3219,0.0000,1.5353,1,6673.6353,2204.2872,5125.0303,2249.1993,4390.7154,0.0112,0.0099,0.0416,0.0594,-8.4893,-6.0414,-3.4575,-3.3533,0.7916,3.0925,800.8214,2317.6040,1720.4919,3499.3312,1293.4469,2493.0909,0.6537,-65.1487,50.6991,-34.4003,50.7479,19.3400,29.1599,-25.9284,-22.2684,3.7149,-0.3393,13969.2321,3.8600,0.7805,0.6828,0.6764,0.7753,49.8050,20.4897,233.7080,289.0962,8.3602,0.0000,57.7272,223.0089,-10.6991
10.4000,hold,72.3701,46.8157,86.6938,64.8357,17.9882,-0.5749,20.6909,0.3229,0.0000,1.5766,1,6715.8934,2187.8772,5144.3749,2236.0435,4403.7825,0.0112,0.0100,0.0423,0.0593,-8.4881,-6.0526,-3.5021,-3.3966,0.8875,3.9635,809.3008,2303.0698,1725.1418,3544.8210,1301.3216,2531.6070,0.6608,-65.8380,51.4477,-34.9512,51.2499,19.4412,29.1834,-25.9961,-22.3648,3.7609,-0.3381,13972.0781,3.8210,0.7885,0.6891,0.6853,0.7772,49.8117,20.6130,236.5381,293.4889,8.6333,0.0000,59.1545,225.7011,-10.8370
10.5000,hold,72.4976,48.6177,88.7553,65.2185,18.0942,-0.5922,20.8100,0.3238,0.0000,1.6183,1,6757.4737,2171.4676,5163.4155,2223.1384,4416.8771,0.0112,0.0100,0.0431,0.0592,-8.4844,-6.0622,-3.5469,-3.4400,0.9738,4.7600,817.3176,2287.6730,1729.3757,3590.0948,1309.0017,2570.1236,0.6678,-66.5227,52.1886,-35.4979,51.7470,19.4980,29.1643,-26.0210,-22.4160,3.8066,-0.3370,13974.8986,3.7798,0.7964,0.6953,0.6942,0.7790,49.8183,20.7344,239.3427,297.8930,8.9114,0.0000,60.6135,228.3681,-10.9746
10.6000,hold,72.5617,50.4336,90.8288,65.5955,18.1985,-0.6096,20.9272,0.3248,0.0000,1.6603,1,6798.3832,2155.0703,5182.1553,2210.4793,4429.9884,0.0112,0.0101,0.0438,0.0590,-8.4784,-6.0701,-3.5918,-3.4835,1.0503,5.4875,824.8869,2271.4806,1733.1960,3635.1272,1316.4859,2608.6102,0.6747,-67.2025,52.9218,-36.0400,52.2391,19.5131,29.1051,-26.0052,-22.4246,3.8518,-0.3358,13977.6933,3.7367,0.8042,0.7015,0.7028,0.7808,49.8249,20.8539,242.1214,302.3082,9.1944,0.0000,62.1043,231.0095,-11.1118
10.7000,hold,72.5612,52.2610,92.9142,65.9668,18.3012,-0.6271,21.0426,0.3257,0.0000,1.7027,1,6838.6289,2138.6964,5200.5977,2198.0616,4443.1057,0.0112,0.0101,0.0445,0.0589,-8.4703,-6.0767,-3.6367,-3.5270,1.1166,6.1510,832.0250,2254.5574,1736.6084,3679.8989,1323.7760,2647.0412,0.6816,-67.8772,53.6470,-36.5776,52.7261,19.4891,29.0081,-25.9509,-22.3931,3.8966,-0.3347,13980.4615,3.6917,0.8120,0.7076,0.7113,0.7826,49.8315,20.9716,244.8735,306.7341,9.4823,0.0000,63.6272,233.6247,-11.2488
10.8000,hold,72.4951,54.0975,95.0112,66.3323,18.4023,-0.6448,21.1561,0.3267,0.0000,1.7453,1,6878.2182,2122.3572,5218.7458,2185.8808,4456.2189,0.0112,0.0102,0.0452,0.0587,-8.4604,-6.0819,-3.6816,-3.5706,1.1725,6.7550,838.7483,2236.9657,1739.6204,3724.3935,1330.8754,2685.3939,0.6884,-68.5466,54.3642,-37.1104,53.2080,19.4285,28.8756,-25.8605,-22.3237,3.9410,-0.3336,13983.2027,3.6451,0.8197,0.7137,0.7197,0.7843,49.8380,21.0875,247.5986,311.1705,9.7750,0.0000,65.1823,236.2132,-11.3853
10.9000,hold,72.3624,55.9404,97.1198,66.6922,18.5019,-0.6625,21.2678,0.3276,0.0000,1.7883,1,6917.1584,2106.0635,5236.6024,2173.9328,4469.3178,0.0112,0.0102,0.0459,0.0585,-8.4489,-6.0861,-3.7266,-3.6143,1.2181,7.3037,845.0736,2218.7654,1742.2407,3768.5962,1337.7885,2723.6469,0.6951,-69.2106,55.0733,-37.6384,53.6846,19.3336,28.7097,-25.7361,-22.2190,3.9850,-0.3326,13985.9165,3.5970,0.8273,0.7197,0.7279,0.7860,49.8444,21.2016,250.2961,315.6170,10.0725,0.0000,66.7698,238.7746,-11.5215
11.0000,hold,72.1621,57.7872,99.2397,67.0464,18.5998,-0.6804,21.3776,0.3286,0.0000,1.8316,1,6955.4563,2089.8257,5254.1705,2162.2134,4482.3927,0.0112,0.0102,0.0466,0.0583,-8.4359,-6.0893,-3.7717,-3.6580,1.2534,7.8011,851.0172,2200.0137,1744.4786,3812.4933,1344.5202,2761.7798,0.7018,-69.8690,55.7742,-38.1613,54.1561,19.2067,28.5126,-25.5798,-22.0811,4.0285,-0.3315,13988.6023,3.5477,0.8347,0.7256,0.7359,0.7877,49.8509,21.3138,252.9657,320.0733,10.3749,0.0000,68.3899,241.3084,-11.6572
11.1000,hold,71.8934,59.6351,101.3707,67.3950,18.6962,-0.6984,21.4856,0.3295,0.0000,1.8753,1,6993.1188,2073.6539,5271.4524,2150.7189,4495.4345,0.0112,0.0103,0.0473,0.0581,-8.4218,-6.0916,-3.8169,-3.7017,1.2788,8.2504,856.5953,2180.7651,1746.3438,3856.0715,1351.0755,2799.7728,0.7084,-70.5215,56.4669,-38.6790,54.6222,19.0500,28.2863,-25.3938,-21.9122,4.0715,-0.3305,13991.2597,3.4974,0.8422,0.7315,0.7438,0.7894,49.8573,21.4243,255.6067,324.5391,10.6821,0.0000,70.0428,243.8142,-11.7925
11.2000,hold,71.5557,61.4815,103.5127,67.7376,18.7909,-0.7165,21.5917,0.3305,0.0000,1.9199,1,7029.8625,2057.8682,5288.7486,2139.1477,4508.1269,0.0112,0.0103,0.0479,0.0578,-8.4052,-6.0923,-3.8620,-3.7455,1.3004,8.6680,860.7553,2159.6693,1748.0460,3899.5256,1357.8837,2837.8373,0.7150,-71.1652,57.1537,-39.1938,55.0805,18.9626,28.1259,-25.2484,-21.7848,4.1141,-0.3294,13993.8914,3.4450,0.8494,0.7373,0.7516,0.7911,49.8637,21.5328,258.2151,329.0103,10.9940,0.0000,71.7271,246.2891,-11.9260
11.3000,hold,71.1484,63.3234,105.6654,68.0735,18.8838,-0.7345,21.6956,0.3314,0.0000,1.9648,1,7065.7377,2042.3752,5305.8679,2127.6709,4520.5701,0.0112,0.0103,0.0485,0.0575,-8.3873,-6.0920,-3.9068,-3.7889,1.3543,9.0585,864.0711,2137.6849,1749.5792,3942.6792,1364.8084,2875.6780,0.7215,-71.7946,57.8385,-39.7092,55.5259,18.8526,27.9190,-25.0677,-21.6335,4.1561,-0.3280,13996.4840,3.3918,0.8566,0.7431,0.7592,0.7926,49.8701,21.6392,260.7853,333.4809,11.3106,0.0000,73.4433,248.7270,-12.0583
11.4000,hold,70.6711,65.1579,107.8287,68.4027,18.9748,-0.7525,21.7973,0.3324,0.0000,2.0120,1,7100.5249,2027.0172,5322.6480,2116.4493,4532.9209,0.0112,0.0103,0.0491,0.0572,-8.3669,-6.0898,-3.9513,-3.8320,1.3900,9.3916,866.4674,2112.8230,1751.0104,3985.7878,1371.5586,2913.4842,0.7280,-72.4125,58.5165,-40.2213,55.9613,18.6840,27.6463,-24.8347,-21.4329,4.1976,-0.3265,13999.0354,3.3367,0.8638,0.7488,0.7665,0.7940,49.8767,21.7435,263.3163,337.9499,11.6320,0.0000,75.1916,251.1264,-12.1899
11.5000,hold,70.1235,66.9821,110.0023,68.7244,19.0638,-0.7703,21.8964,0.3333,0.0000,2.0615,1,7133.8760,2011.7303,5339.0101,2105.5567,4545.2425,0.0112,0.0103,0.0496,0.0567,-8.3350,-6.0794,-3.9950,-3.8744,1.3973,9.6155,867.8076,2082.6776,1752.4212,4028.7439,1378.1352,2951.7494,0.7346,-73.0156,59.1900,-40.7347,56.3808,18.3998,27.2560,-24.4951,-21.1241,4.2384,-0.3247,14001.5396,3.2725,0.8711,0.7546,0.7735,0.7948,49.8836,21.8454,265.8016,342.4102,11.9579,0.0000,76.9712,253.4811,-12.3204
11.6000,hold,69.5054,68.7930,112.1861,69.0386,19.1506,-0.7879,21.9932,0.3343,0.0000,2.1106,1,7166.3998,1996.6468,5354.9816,2094.9520,4557.4168,0.0111,0.0103,0.0501,0.0562,-8.3033,-6.0689,-4.0380,-3.9161,1.4358,9.8043,868.9416,2052.6323,1753.4314,4070.8501,1384.3474,2989.2139,0.7409,-73.6055,59.8550,-41.2449,56.7874,18.0682,26.7970,-24.0911,-20.7605,4.2786,-0.3228,14003.9973,3.2091,0.8782,0.7602,0.7802,0.7957,49.8903,21.9450,268.2402,346.8603,12.2884,0.0000,78.7815,255.7904,-12.4498
11.7000,hold,68.8168,70.5875,114.3796,69.3454,19.2354,-0.8054,22.0877,0.3352,0.0000,2.1596,1,7198.1235,1981.7715,5370.5734,2084.6253,4569.4383,0.0111,0.0103,0.0506,0.0557,-8.2717,-6.0584,-4.0803,-3.9572,1.4681,9.9585,869.9047,2022.6721,1754.0483,4112.1046,1390.2604,3025.9625,0.7471,-74.1838,60.5088,-41.7483,57.1840,17.7088,26.3028,-23.6531,-20.3658,4.3180,-0.3208,14006.4085,3.1463,0.8851,0.7657,0.7867,0.7965,49.8969,22.0422,270.6326,351.3002,12.6233,0.0000,80.6222,258.0547,-12.5779
11.8000,hold,68.0578,72.3626,116.5828,69.6449,19.3182,-0.8227,22.1798,0.3362,0.0000,2.2088,1,7229.0681,1967.1076,5385.7915,2074.5711,4581.3034,0.0111,0.0103,0.0511,0.0552,-8.2404,-6.0479,-4.1223,-3.9978,1.4883,10.0806,870.7232,1992.7962,1754.3209,4152.5820,1395.9242,3062.0744,0.7532,-74.7514,61.1502,-42.2431,57.5720,17.3300,25.7874,-23.1940,-19.9503,4.3566,-0.3188,14008.7735,3.0841,0.8918,0.7710,0.7930,0.7975,49.9035,22.1370,272.9789,355.7299,12.9627,0.0000,82.4931,260.2741,-12.7048
11.9000,hold,67.2287,74.1151,118.7954,69.9374,19.3990,-0.8400,22.2697,0.3371,0.0000,2.2582,1,7259.2508,1952.6584,5400.6404,2064.7851,4593.0084,0.0111,0.0103,0.0516,0.0547,-8.2094,-6.0375,-4.1638,-4.0381,1.4963,10.1727,871.4169,1963.0135,1754.2873,4192.3332,1401.3722,3097.5942,0.7591,-75.3086,61.7786,-42.7288,57.9520,16.9361,25.2572,-22.7195,-19.5191,4.3945,-0.3168,14011.0924,3.0225,0.8984,0.7763,0.7992,0.7984,49.9100,22.2296,275.2792,360.1494,13.3064,0.0000,84.3942,262.4488,-12.8304
12.0000,hold,66.3300,75.8420,121.0172,70.2228,19.4778,-0.8571,22.3573,0.3381,0.0000,2.3078,1,7288.6865,1938.4273,5415.1243,2055.2633,4604.5502,0.0111,0.0103,0.0521,0.0543,-8.1789,-6.0274,-4.2050,-4.0780,1.4931,10.2365,872.0022,1933.3385,1753.9762,4231.3884,1406.6269,3132.5454,0.7649,-75.8554,62.3939,-43.2051,58.3242,16.5296,24.7154,-22.2330,-19.0748,4.4317,-0.3149,14013.3652,2.9616,0.9048,0.7814,0.8052,0.7995,49.9166,22.3200,277.5337,364.5588,13.6545,0.0000,86.3254,264.5789,-12.9548
12.1000,hold,65.3621,77.5401,123.2479,70.5013,19.5547,-0.8743,22.4425,0.3390,0.0000,2.3592,1,7317.3885,1924.4188,5429.2446,2046.0041,4615.9246,0.0110,0.0103,0.0526,0.0538,-8.1495,-6.0181,-4.2460,-4.1177,1.4836,10.2756,872.4936,1903.7890,1753.4939,4269.4059,1411.7058,3166.9376,0.7706,-76.3918,62.9961,-43.6718,58.6887,16.1125,24.1633,-21.7358,-18.6195,4.4681,-0.3131,14015.5921,2.9019,0.9112,0.7864,0.8111,0.8005,49.9232,22.4081,279.7425,368.9582,14.0067,0.0000,88.2869,266.6646,-13.0779
12.2000,hold,64.3259,79.2063,125.4873,70.7729,19.6297,-0.8913,22.5255,0.3400,0.0000,2.4120,1,7345.3667,1910.6378,5443.0038,2037.0045,4627.1270,0.0110,0.0103,0.0530,0.0533,-8.1214,-6.0095,-4.2866,-4.1571,1.4644,10.2898,872.9038,1874.3867,1752.9550,4306.3628,1416.6214,3200.7698,0.7761,-76.9179,63.5851,-44.1288,59.0455,15.6858,23.6031,-21.2298,-18.1541,4.5038,-0.3113,14017.7730,2.8436,0.9175,0.7912,0.8169,0.8016,49.9300,22.4940,281.9055,373.3476,14.3631,0.0000,90.2788,268.7058,-13.1997
12.3000,hold,63.2222,80.8377,127.7352,71.0378,19.7029,-0.9082,22.6064,0.3410,0.0000,2.4652,1,7372.6324,1897.0861,5456.4069,2028.2599,4638.1552,0.0110,0.0103,0.0535,0.0529,-8.0943,-6.0015,-4.3269,-4.1962,1.4358,10.2788,873.2445,1845.1509,1752.1818,4342.7054,1421.3807,3234.0418,0.7815,-77.4335,64.1608,-44.5761,59.3946,15.2503,23.0360,-20.7164,-17.6799,4.5387,-0.3095,14019.9080,2.7863,0.9236,0.7959,0.8225,0.8028,49.9368,22.5778,284.0228,377.7272,14.7235,0.0000,92.3011,270.7026,-13.3202
