time,phase,pos_x,pos_y,yaw_deg,speed_kph,vx_body,vy_body,yaw_rate_dps,throttle,brake,steer_deg,gear,rpm,fz_fl,fz_fr,fz_rl,fz_rr,sr_fl,sr_fr,sr_rl,sr_rr,sa_fl_deg,sa_fr_deg,sa_rl_deg,sa_rr_deg,fx_fl,fx_fr,fx_rl,fx_rr,fy_fl,fy_fr,fy_rl,fy_rr,lat_accel_g,susp_defl_fl_mm,susp_defl_fr_mm,susp_defl_rl_mm,susp_defl_rr_mm,susp_vel_fl,susp_vel_fr,susp_vel_rl,susp_vel_rr,roll_deg,pitch_deg,fz_total,understeer_deg,fc_util_fl,fc_util_fr,fc_util_rl,fc_util_rr,radius_m,yaw_rate_ref_dps,ke_total_kj,energy_engine_kj,energy_drag_kj,energy_brake_kj,energy_tire_loss_kj,energy_body_kj,integrator_err_kj
0.0000,accel,0.0000,0.0000,0.0000,0.0000,0.0000,0.0000,0.0000,0.0000,0.0000,0.0000,1,1000.0000,3776.8500,3776.8500,3090.1500,3090.1500,0.0000,0.0000,0.0000,0.0000,0.0000,0.0000,0.0000,0.0000,0.0000,0.0000,0.0000,0.0000,0.0000,0.0000,0.0000,0.0000,0.0000,0.0000,0.0000,0.0000,0.0000,0.0000,0.0000,0.0000,0.0000,0.0000,0.0000,13734.0000,0.0000,0.0000,0.0000,0.0000,0.0000,0.0000,0.0000,0.0000,0.0000,0.0000,0.0000,0.0000,0.0000,0.0000
0.1000,accel,-0.0000,0.0000,0.0000,0.0121,0.0024,0.0000,0.0000,0.0500,0.0000,0.0000,1,1000.0000,3724.4543,3724.4543,3142.6177,3142.6177,0.0008,0.0008,0.0022,0.0022,0.0000,0.0000,0.0000,0.0000,-0.7653,-0.7653,84.2013,84.2013,0.0000,0.0000,0.0000,0.0000,0.0000,-0.0739,-0.0739,0.1346,0.1346,-3.2309,-3.2309,3.9452,3.9452,0.0000,-0.0046,13734.1441,0.0000,0.0002,0.0002,0.0268,0.0268,0.0000,0.0000,0.0002,0.0008,0.0000,0.0000,0.0008,0.0000,-0.0002
0.2000,accel,0.0012,0.0000,0.0000,0.0820,0.0206,0.0000,0.0000,0.1000,0.0000,0.0000,1,1000.0000,3707.7630,3707.7630,3159.3041,3159.3041,0.0008,0.0008,0.0038,0.0038,0.0000,0.0000,0.0000,0.0000,-2.0074,-2.0074,182.2539,182.2539,0.0000,0.0000,0.0000,0.0000,0.0000,-0.5009,-0.5009,0.6345,0.6345,-4.9501,-4.9501,5.6210,5.6210,0.0000,-0.0250,13734.1340,0.0000,0.0005,0.0005,0.0577,0.0577,0.0000,0.0000,0.0007,0.0042,0.0000,0.0000,0.0039,0.0003,-0.0003
0.3000,accel,0.0052,0.0000,0.0000,0.2014,0.0526,0.0000,0.0000,0.1500,0.0000,0.0000,1,1000.0000,3691.4035,3691.4035,3175.6398,3175.6398,0.0007,0.0007,0.0054,0.0054,0.0000,0.0000,0.0000,0.0000,-3.7866,-3.7866,279.6112,279.6112,0.0000,0.0000,0.0000,0.0000,0.0000,-1.0441,-1.0441,1.2321,1.2321,-5.7442,-5.7442,6.1788,6.1788,0.0000,-0.0502,13734.0866,0.0000,0.0010,0.0010,0.0880,0.0880,0.0000,0.0000,0.0027,0.0120,0.0000,0.0000,0.0099,0.0021,-0.0006
0.4000,accel,0.0132,0.0000,0.0000,0.3753,0.0976,0.0000,0.0000,0.2000,0.0000,0.0000,1,1000.0000,3689.9006,3689.9006,3176.9640,3176.9640,0.0007,0.0007,0.0102,0.0102,0.0000,0.0000,0.0000,0.0000,-3.3669,-3.3669,563.4171,563.4171,0.0000,0.0000,0.0000,0.0000,0.0000,-1.6182,-1.6182,1.8299,1.8299,-2.0734,-2.0734,0.7295,0.7295,0.0000,-0.0760,13733.7292,0.0000,0.0009,0.0009,0.1773,0.1773,0.0000,0.0000,0.0081,0.0256,0.0000,0.0000,0.0182,0.0074,-0.0007
0.5000,accel,0.0266,0.0000,0.0000,0.6375,0.1525,0.0000,0.0000,0.2500,0.0000,0.0000,1,1000.0000,3796.9017,3796.9017,3069.5261,3069.5261,0.0049,0.0049,0.0355,0.0355,0.0000,0.0000,0.0000,0.0000,294.9882,294.9882,1772.5050,1772.5050,0.0000,0.0000,0.0000,0.0000,0.0000,-1.1625,-1.1625,3.3215,3.3215,35.3403,35.3403,-40.8305,-40.8305,0.0000,-0.0988,13732.8554,0.0000,0.0777,0.0777,0.5775,0.5775,0.0000,0.0000,0.0234,0.0521,0.0000,0.0000,0.0347,0.0174,-0.0059
0.6000,accel,0.0470,0.0000,0.0000,0.9689,0.1902,0.0000,0.0000,0.3000,0.0000,0.0000,1,1000.0000,4590.0917,4590.0917,2281.9948,2281.9948,0.2603,0.2603,0.3816,0.3816,0.0000,0.0000,0.0000,0.0000,4353.0375,4353.0375,2281.1265,2281.1265,0.0000,0.0000,0.0000,0.0000,0.0000,1.6783,1.6783,4.4244,4.4244,324.2072,324.2072,-273.7177,-273.7177,0.0000,-0.0605,13744.1729,0.0000,0.9484,0.9484,0.9996,0.9996,0.0000,0.0000,0.0822,0.1169,0.0000,0.0000,0.0975,0.0194,-0.0628
0.7000,accel,0.0758,0.0000,0.0000,1.1440,0.3529,0.0000,0.0000,0.3500,0.0000,0.0000,1,1000.0000,2702.2277,2702.2277,4168.2253,4168.2253,-0.5600,-0.5600,-0.0027,-0.0027,0.0000,0.0000,0.0000,0.0000,-2677.8005,-2677.8005,-272.9461,-272.9461,0.0000,0.0000,0.0000,0.0000,0.0000,-0.8300,-0.8300,9.1287,9.1287,-289.9001,-289.9001,324.2365,324.2365,0.0000,-0.2195,13740.9060,0.0000,0.9910,0.9910,0.0655,0.0655,0.0000,0.0000,0.0822,0.1997,0.0000,0.0000,0.1863,0.0133,-0.0688
0.8000,accel,0.1142,0.0000,0.0000,1.6264,0.4049,0.0000,0.0000,0.4000,0.0000,0.0000,1,1000.0000,3852.1476,3852.1476,3012.6633,3012.6633,0.1465,0.1465,0.0042,0.0042,0.0000,0.0000,0.0000,0.0000,3734.4133,3734.4133,200.2196,200.2196,0.0000,0.0000,0.0000,0.0000,0.0000,-1.1605,-1.1605,6.3882,6.3882,57.4107,57.4107,-78.9909,-78.9909,0.0000,-0.1664,13729.6218,0.0000,0.9694,0.9694,0.0665,0.0665,0.0000,0.0000,0.1725,0.2874,0.0000,0.0000,0.2060,0.0814,-0.0910
0.9000,accel,0.1622,0.0000,0.0000,1.9644,0.4965,0.0000,0.0000,0.4500,0.0000,0.0000,1,1000.0000,4376.8767,4376.8767,2492.6062,2492.6062,0.0236,0.0236,0.6031,0.6031,0.0000,0.0000,0.0000,0.0000,1728.3813,1728.3813,2403.7331,2403.7331,0.0000,0.0000,0.0000,0.0000,0.0000,-0.1640,-0.1640,7.1611,7.1611,257.3321,257.3321,-233.1045,-233.1045,0.0000,-0.1614,13738.9658,0.0000,0.3949,0.3949,0.9643,0.9643,0.0000,0.0000,0.2304,0.4613,0.0000,0.0000,0.3360,0.1253,-0.1051
1.0000,accel,0.2221,0.0000,0.0000,2.2957,0.6475,0.0000,0.0000,0.5000,0.0000,0.0000,1,1000.0000,3758.6354,3758.6354,3103.8884,3103.8884,-0.2812,-0.2812,0.6429,0.6429,0.0000,0.0000,0.0000,0.0000,-3738.6685,-3738.6685,2915.1002,2915.1002,0.0000,0.0000,0.0000,0.0000,0.0000,-1.8263,-1.8263,8.9776,8.9776,26.6486,26.6486,-71.4384,-71.4384,0.0000,-0.2381,13725.0475,0.0000,0.9947,0.9947,0.9392,0.9392,0.0000,0.0000,0.3406,0.7043,0.0000,0.0000,0.5220,0.1823,-0.1583
1.1000,accel,0.2960,0.0000,0.0000,2.9748,0.8098,0.0000,0.0000,0.5500,0.0000,0.0000,1,1000.0000,2594.4221,2594.4221,4276.1451,4276.1451,-0.8061,-0.8061,0.5935,0.5935,0.0000,0.0000,0.0000,0.0000,-2520.3594,-2520.3594,3907.6406,3907.6406,0.0000,0.0000,0.0000,0.0000,0.0000,-2.4382,-2.4382,11.5782,11.5782,-309.2370,-309.2370,342.8618,342.8618,0.0000,-0.3089,13741.1343,0.0000,0.9715,0.9715,0.9138,0.9138,0.0000,0.0000,0.4888,1.0620,0.0000,0.0000,0.7202,0.3418,-0.1470
1.2000,accel,0.3841,0.0000,0.0000,3.4721,0.9492,0.0000,0.0000,0.6000,0.0000,0.0000,1,1173.6950,2595.1382,2595.1382,4275.4463,4275.4463,-0.5179,-0.5179,0.6633,0.6633,0.0000,0.0000,0.0000,0.0000,-2593.9798,-2593.9798,3878.7575,3878.7575,0.0000,0.0000,0.0000,0.0000,0.0000,-2.6630,-2.6630,11.7997,11.7997,-307.4371,-307.4371,340.3462,340.3462,0.0000,-0.3187,13741.1689,0.0000,0.9996,0.9996,0.9072,0.9072,0.0000,0.0000,0.6955,1.5100,0.0001,0.0000,1.0223,0.4876,-0.2078
1.3000,accel,0.4880,0.0000,0.0000,4.0586,1.1268,0.0000,0.0000,0.6000,0.0000,0.0000,1,1000.0000,3524.4485,3524.4485,3337.3141,3337.3141,0.3657,0.3657,-0.3469,-0.3469,0.0000,0.0000,0.0000,0.0000,3378.6760,3378.6760,-3326.0575,-3326.0575,0.0000,0.0000,0.0000,0.0000,0.0000,-4.7350,-4.7350,12.2498,12.2498,-27.1351,-27.1351,-28.1717,-28.1717,0.0000,-0.3743,13723.5252,0.0000,0.9586,0.9586,0.9966,0.9966,0.0000,0.0000,0.9753,1.9511,0.0001,0.0000,1.2409,0.7101,-0.2651
1.4000,accel,0.6087,0.0000,0.0000,4.6607,1.2792,0.0000,0.0000,0.6000,0.0000,0.0000,1,1292.9110,2601.1551,2601.1551,4270.1187,4270.1187,-0.5333,-0.5333,0.6165,0.6165,0.0000,0.0000,0.0000,0.0000,-2594.9319,-2594.9319,3893.1526,3893.1526,0.0000,0.0000,0.0000,0.0000,0.0000,-4.1179,-4.1179,12.3850,12.3850,-295.3566,-295.3566,332.2967,332.2967,0.0000,-0.3637,13742.5476,0.0000,0.9976,0.9976,0.9117,0.9117,0.0000,0.0000,1.2472,2.5246,0.0002,0.0000,1.5568,0.9676,-0.2796
1.5000,accel,0.7461,0.0000,0.0000,5.1708,1.4411,0.0000,0.0000,0.6000,0.0000,0.0000,1,1224.9249,3545.5993,3545.5993,3316.5953,3316.5953,-0.3219,-0.3219,0.5475,0.5475,0.0000,0.0000,0.0000,0.0000,-3525.5059,-3525.5059,3125.8491,3125.8491,0.0000,0.0000,0.0000,0.0000,0.0000,-4.4290,-4.4290,11.7654,11.7654,-23.3115,-23.3115,-30.6825,-30.6825,0.0000,-0.3569,13724.3892,0.0000,0.9943,0.9943,0.9425,0.9425,0.0000,0.0000,1.6089,3.1338,0.0003,0.0000,1.9133,1.2202,-0.3887
1.6000,accel,0.9010,0.0000,0.0000,5.5745,1.5816,0.0000,0.0000,0.6000,0.0000,0.0000,1,1602.9477,4945.9103,4945.9103,1930.8382,1930.8382,-0.1067,-0.1067,0.6365,0.6365,0.0000,0.0000,0.0000,0.0000,-4682.7676,-4682.7676,1904.2302,1904.2302,0.0000,0.0000,0.0000,0.0000,0.0000,-2.5461,-2.5461,10.9739,10.9739,508.6339,508.6339,-420.9856,-420.9856,0.0000,-0.2979,13753.4970,0.0000,0.9468,0.9468,0.9862,0.9862,0.0000,0.0000,2.1633,3.8599,0.0005,0.0000,2.4327,1.4267,-0.7366
1.7000,accel,1.0739,0.0000,0.0000,6.5211,1.7340,0.0000,0.0000,0.6000,0.0000,0.0000,1,1618.9657,4878.3518,4878.3518,1997.2271,1997.2271,0.3486,0.3486,0.6078,0.6078,0.0000,0.0000,0.0000,0.0000,4536.0347,4536.0347,1968.8504,1968.8504,0.0000,0.0000,0.0000,0.0000,0.0000,-1.6566,-1.6566,10.4523,10.4523,472.6863,472.6863,-398.3235,-398.3235,0.0000,-0.2668,13751.1578,0.0000,0.9298,0.9298,0.9858,0.9858,0.0000,0.0000,2.5528,4.6011,0.0008,0.0000,2.5849,2.0155,-0.5373
1.8000,accel,1.2645,0.0000,0.0000,7.2169,1.9874,0.0000,0.0000,0.6000,0.0000,0.0000,1,1501.9607,2582.9104,2582.9104,4289.2562,4289.2562,-0.8661,-0.8661,0.5161,0.5161,0.0000,0.0000,0.0000,0.0000,-2497.0844,-2497.0844,3952.5660,3952.5660,0.0000,0.0000,0.0000,0.0000,0.0000,-5.1477,-5.1477,13.2941,13.2941,-293.3106,-293.3106,330.6575,330.6575,0.0000,-0.4064,13744.3331,0.0000,0.9668,0.9668,0.9215,0.9215,0.0000,0.0000,2.9367,5.3089,0.0011,0.0000,2.7938,2.5141,-0.4227
1.9000,accel,1.4729,0.0000,0.0000,7.7103,2.1488,0.0000,0.0000,0.6000,0.0000,0.0000,1,1488.9716,3736.3277,3736.3277,3128.0507,3128.0507,-0.5618,-0.5618,0.4743,0.4743,0.0000,0.0000,0.0000,0.0000,-3585.6114,-3585.6114,2991.4747,2991.4747,0.0000,0.0000,0.0000,0.0000,0.0000,-4.6880,-4.6880,12.1955,12.1955,46.0960,46.0960,-87.7841,-87.7841,0.0000,-0.3721,13728.7569,0.0000,0.9597,0.9597,0.9563,0.9563,0.0000,0.0000,3.4663,5.9992,0.0015,0.0000,3.1051,2.8925,-0.5738
2.0000,accel,1.6987,0.0000,0.0000,8.4541,2.3368,0.0000,0.0000,0.6000,0.0000,0.0000,1,1367.3230,2853.1157,2853.1157,4016.8346,4016.8346,-0.5405,-0.5405,0.3782,0.3782,0.0000,0.0000,0.0000,0.0000,-2818.2352,-2818.2352,3793.0806,3793.0806,0.0000,0.0000,0.0000,0.0000,0.0000,-5.2368,-5.2368,12.8907,12.8907,-215.5359,-215.5359,225.5895,225.5895,0.0000,-0.3995,13739.9007,0.0000,0.9878,0.9878,0.9443,0.9443,0.0000,0.0000,4.0268,6.7634,0.0021,0.0000,3.2389,3.5225,-0.5042
2.1000,accel,1.9417,0.0000,0.0000,8.8500,2.5410,0.0000,0.0000,0.6000,0.0000,0.0000,1,1000.0000,2574.9508,2574.9508,4298.3525,4298.3525,-0.2288,-0.2288,-0.1652,-0.1652,0.0000,0.0000,0.0000,0.0000,-2678.5038,-2678.5038,-4264.5301,-4264.5301,0.0000,0.0000,0.0000,0.0000,0.0000,-6.3532,-6.3532,14.0516,14.0516,-287.0797,-287.0797,326.4991,326.4991,0.0000,-0.4497,13746.6067,0.0000,1.0402,1.0402,0.9921,0.9921,0.0000,0.0000,4.7901,7.6612,0.0027,0.0000,3.7930,3.8655,-0.9246
2.2000,accel,2.2042,0.0000,0.0000,9.6353,2.7577,0.0000,0.0000,0.6000,0.0000,0.0000,1,1000.0000,2561.1942,2561.1942,4312.3643,4312.3643,-0.5710,-0.5710,-0.1947,-0.1947,0.0000,0.0000,0.0000,0.0000,-2548.4757,-2548.4757,-4277.9188,-4277.9188,0.0000,0.0000,0.0000,0.0000,0.0000,-7.5928,-7.5928,15.2540,15.2540,-282.2039,-282.2039,319.9785,319.9785,0.0000,-0.5035,13747.1170,0.0000,0.9950,0.9950,0.9920,0.9920,0.0000,0.0000,5.5100,8.7449,0.0036,0.0000,4.1189,4.6224,-0.8876
2.3000,accel,2.4856,0.0000,0.0000,10.5684,2.9209,0.0000,0.0000,0.6000,0.0000,0.0000,1,1156.5873,2580.1263,2580.1263,4293.5543,4293.5543,-0.2250,-0.2250,0.0975,0.0975,0.0000,0.0000,0.0000,0.0000,-2684.6161,-2684.6161,3929.5209,3929.5209,0.0000,0.0000,0.0000,0.0000,0.0000,-6.5893,-6.5893,14.5255,14.5255,-284.0018,-284.0018,319.6581,319.6581,0.0000,-0.4653,13747.3611,0.0000,1.0405,1.0405,0.9152,0.9152,0.0000,0.0000,6.2706,9.8943,0.0046,0.0000,4.2720,5.6176,-0.6529
2.4000,accel,2.7875,0.0000,0.0000,11.1530,3.1010,0.0000,0.0000,0.6000,0.0000,0.0000,1,1560.3250,3490.3212,3490.3212,3373.9597,3373.9597,-0.2029,-0.2029,0.2887,0.2887,0.0000,0.0000,0.0000,0.0000,-3533.2970,-3533.2970,3286.8612,3286.8612,0.0000,0.0000,0.0000,0.0000,0.0000,-5.6569,-5.6569,13.8951,13.8951,-30.6516,-30.6516,-29.9792,-29.9792,0.0000,-0.4309,13728.5619,0.0000,1.0123,1.0123,0.9742,0.9742,0.0000,0.0000,7.1561,11.1505,0.0059,0.0000,4.8671,6.2775,-0.8786
2.5000,accel,3.1099,0.0000,0.0000,12.0226,3.3334,0.0000,0.0000,0.6000,0.0000,0.0000,1,1397.2692,3128.6382,3128.6382,3739.2687,3739.2687,-0.4104,-0.4104,0.1489,0.1489,0.0000,0.0000,0.0000,0.0000,-3110.6560,-3110.6560,3638.4625,3638.4625,0.0000,0.0000,0.0000,0.0000,0.0000,-7.0695,-7.0695,14.9434,14.9434,-123.9621,-123.9621,93.5372,93.5372,0.0000,-0.4851,13735.8139,0.0000,0.9943,0.9943,0.9730,0.9730,0.0000,0.0000,8.0932,12.4152,0.0075,0.0000,5.0680,7.3397,-0.7534
2.6000,accel,3.4527,0.0000,0.0000,12.7966,3.4748,0.0000,0.0000,0.6000,0.0000,0.0000,1,1744.5211,3683.7487,3683.7487,3182.3675,3182.3675,0.2237,0.2237,0.2901,0.2901,0.0000,0.0000,0.0000,0.0000,3590.8375,3590.8375,3118.0225,3118.0225,0.0000,0.0000,0.0000,0.0000,0.0000,-4.6138,-4.6138,12.5660,12.5660,23.8839,23.8839,-75.3817,-75.3817,0.0000,-0.3786,13732.2324,0.0000,0.9748,0.9748,0.9798,0.9798,0.0000,0.0000,9.1415,13.7794,0.0094,0.0000,5.4203,8.3497,-0.7918
2.7000,accel,3.8163,0.0000,0.0000,13.2288,3.7571,0.0000,0.0000,0.6000,0.0000,0.0000,1,1141.4396,2575.8886,2575.8886,4300.1104,4300.1104,-0.1959,-0.1959,-0.1360,-0.1360,0.0000,0.0000,0.0000,0.0000,-2688.2017,-2688.2017,-4234.6466,-4234.6466,0.0000,0.0000,0.0000,0.0000,0.0000,-7.9726,-7.9726,15.3264,15.3264,-275.5662,-275.5662,313.7790,313.7790,0.0000,-0.5134,13751.9980,0.0000,1.0436,1.0436,0.9848,0.9848,0.0000,0.0000,10.3353,15.1583,0.0117,0.0000,6.2112,8.9354,-1.3998
2.8000,accel,4.2012,0.0000,0.0000,14.2510,3.9419,0.0000,0.0000,0.6000,0.0000,0.0000,1,2413.5692,2579.0998,2579.0998,4295.9924,4295.9924,-0.4569,-0.4569,0.4204,0.4204,0.0000,0.0000,0.0000,0.0000,-2598.1504,-2598.1504,4005.7234,4005.7234,0.0000,0.0000,0.0000,0.0000,0.0000,-6.1290,-6.1290,15.3047,15.3047,-287.8772,-287.8772,312.2233,312.2233,0.0000,-0.4723,13750.1845,0.0000,1.0074,1.0074,0.9324,0.9324,0.0000,0.0000,11.5806,17.0529,0.0144,0.0000,6.6177,10.4208,-1.1597
2.9000,accel,4.6096,0.0000,0.0000,15.2536,4.1572,0.0000,0.0000,0.6000,0.0000,0.0000,1,1734.3994,3733.0638,3733.0638,3135.5643,3135.5643,0.2761,0.2761,0.1485,0.1485,0.0000,0.0000,0.0000,0.0000,3606.6190,3606.6190,3105.7620,3105.7620,0.0000,0.0000,0.0000,0.0000,0.0000,-6.1877,-6.1877,14.7391,14.7391,59.0426,59.0426,-104.6037,-104.6037,0.0000,-0.4612,13737.2562,0.0000,0.9661,0.9661,0.9905,0.9905,0.0000,0.0000,12.9622,18.9263,0.0176,0.0000,6.9213,11.9874,-0.9748
3.0000,accel,5.0417,0.0000,0.0000,16.0369,4.3751,0.0000,0.0000,0.6000,0.0000,0.0000,1,2371.1047,4667.1024,4667.1024,2212.5182,2212.5182,0.1854,0.1854,0.3454,0.3454,0.0000,0.0000,0.0000,0.0000,4455.7143,4455.7143,2230.3111,2230.3111,0.0000,0.0000,0.0000,0.0000,0.0000,-5.1383,-5.1383,14.4244,14.4244,422.0539,422.0539,-366.2008,-366.2008,0.0000,-0.4311,13759.2411,0.0000,0.9547,0.9547,1.0080,1.0080,0.0000,0.0000,14.5759,21.0013,0.0214,0.0000,7.7018,13.2780,-1.2978
3.1000,accel,5.4987,0.0000,0.0000,16.6582,4.6401,0.0000,0.0000,0.6000,0.0000,0.0000,1,2404.6645,4230.0618,4230.0618,2647.3576,2647.3576,-0.0731,-0.0731,0.3156,0.3156,0.0000,0.0000,0.0000,0.0000,-3705.3915,-3705.3915,2632.3129,2632.3129,0.0000,0.0000,0.0000,0.0000,0.0000,-7.1335,-7.1335,14.3629,14.3629,267.0502,267.0502,-241.6724,-241.6724,0.0000,-0.4737,13754.8388,0.0000,0.8760,0.8760,0.9943,0.9943,0.0000,0.0000,16.1374,22.8917,0.0259,0.0000,8.5013,14.3645,-1.7729
3.2000,accel,5.9796,0.0000,0.0000,17.5718,4.8795,0.0000,0.0000,0.6000,0.0000,0.0000,1,2586.2229,4208.9502,4208.9502,2669.7405,2669.7405,-0.0362,-0.0362,0.3311,0.3311,0.0000,0.0000,0.0000,0.0000,-2510.0576,-2510.0576,2646.0553,2646.0553,0.0000,0.0000,0.0000,0.0000,0.0000,-7.5692,-7.5692,14.0606,14.0606,262.8279,262.8279,-233.2613,-233.2613,0.0000,-0.4767,13757.3815,0.0000,0.5964,0.5964,0.9911,0.9911,0.0000,0.0000,17.8733,25.0786,0.0312,0.0000,9.0085,16.0390,-1.8344
3.3000,accel,6.4861,0.0000,0.0000,18.5315,5.1572,0.0000,0.0000,0.6000,0.0000,0.0000,1,2683.9604,3810.5244,3810.5244,3064.9487,3064.9487,-0.2536,-0.2536,0.3189,0.3189,0.0000,0.0000,0.0000,0.0000,-3800.7135,-3800.7135,3001.0470,3001.0470,0.0000,0.0000,0.0000,0.0000,0.0000,-8.8460,-8.8460,15.1378,15.1378,116.0616,116.0616,-128.2146,-128.2146,0.0000,-0.5285,13750.9461,0.0000,0.9974,0.9974,0.9792,0.9792,0.0000,0.0000,19.7474,27.4486,0.0373,0.0000,9.5202,17.8911,-1.8563
3.4000,accel,7.0185,0.0000,0.0000,19.3893,5.3993,0.0000,0.0000,0.6000,0.0000,0.0000,1,2773.9834,4084.2129,4084.2129,2795.5025,2795.5025,-0.0984,-0.0984,0.3101,0.3101,0.0000,0.0000,0.0000,0.0000,-3886.1678,-3886.1678,2766.6281,2766.6281,0.0000,0.0000,0.0000,0.0000,0.0000,-8.4357,-8.4357,14.5257,14.5257,221.2844,221.2844,-200.9884,-200.9884,0.0000,-0.5060,13759.4307,0.0000,0.9515,0.9515,0.9897,0.9897,0.0000,0.0000,21.7874,29.8509,0.0444,0.0000,10.1730,19.6334,-2.1539
3.5000,accel,7.5775,0.0000,0.0000,20.5776,5.7104,0.0000,0.0000,0.6000,0.0000,0.0000,1,2243.1872,3016.6332,3016.6332,3861.4321,3861.4321,-0.2222,-0.2222,0.0977,0.0977,0.0000,0.0000,0.0000,0.0000,-3091.8753,-3091.8753,3574.0508,3574.0508,0.0000,0.0000,0.0000,0.0000,0.0000,-10.6240,-10.6240,16.6873,16.6873,-131.4772,-131.4772,123.0676,123.0676,0.0000,-0.6019,13756.1306,0.0000,1.0249,1.0249,0.9256,0.9256,0.0000,0.0000,23.8063,32.2274,0.0527,0.0000,9.9925,22.1822,-1.6240
3.6000,accel,8.1622,0.0000,0.0000,21.5652,5.9729,0.0000,0.0000,0.6000,0.0000,0.0000,1,2532.8417,2568.1218,2568.1218,4316.6127,4316.6127,-0.2202,-0.2202,0.1643,0.1643,0.0000,0.0000,0.0000,0.0000,-2674.8995,-2674.8995,4150.9687,4150.9687,0.0000,0.0000,0.0000,0.0000,0.0000,-10.9148,-10.9148,16.8016,16.8016,-257.6747,-257.6747,303.7262,303.7262,0.0000,-0.6108,13769.4691,0.0000,1.0416,1.0416,0.9616,0.9616,0.0000,0.0000,26.1336,35.0442,0.0621,0.0000,10.5663,24.4158,-1.7178
3.7000,accel,8.7748,0.0000,0.0000,22.4083,6.2274,0.0000,0.0000,0.6000,0.0000,0.0000,1,2955.2777,3502.8330,3502.8330,3374.8688,3374.8688,-0.2196,-0.2196,0.2533,0.2533,0.0000,0.0000,0.0000,0.0000,-3538.7867,-3538.7867,3305.5665,3305.5665,0.0000,0.0000,0.0000,0.0000,0.0000,-10.5684,-10.5684,15.6200,15.6200,9.4931,9.4931,-43.8779,-43.8779,0.0000,-0.5771,13755.4035,0.0000,1.0103,1.0103,0.9795,0.9795,0.0000,0.0000,28.6101,37.9081,0.0729,0.0000,11.4276,26.4075,-2.2026
3.8000,accel,9.4153,0.0000,0.0000,23.5968,6.5084,0.0000,0.0000,0.6000,0.0000,0.0000,1,2323.1154,3573.6182,3573.6182,3305.4935,3305.4935,0.1398,0.1398,0.0074,0.0074,0.0000,0.0000,0.0000,0.0000,3482.6725,3482.6725,412.9880,412.9880,0.0000,0.0000,0.0000,0.0000,0.0000,-10.4187,-10.4187,16.3948,16.3948,36.0995,36.0995,-69.4588,-69.4588,0.0000,-0.5909,13758.2234,0.0000,0.9746,0.9746,0.1249,0.1249,0.0000,0.0000,31.2538,41.0080,0.0853,0.0000,11.5829,29.3397,-1.9141
3.9000,accel,10.0849,0.0000,0.0000,24.4817,6.8154,0.0000,0.0000,0.6000,0.0000,0.0000,1,2263.4782,3588.0702,3588.0702,3293.3275,3293.3275,0.0252,0.0252,-0.0625,-0.0625,0.0000,0.0000,0.0000,0.0000,1532.3613,1532.3613,-2778.4512,-2778.4512,0.0000,0.0000,0.0000,0.0000,0.0000,-11.4590,-11.4590,17.0327,17.0327,52.0429,52.0429,-77.7493,-77.7493,0.0000,-0.6279,13762.7954,0.0000,0.4271,0.4271,0.8437,0.8437,0.0000,0.0000,34.0485,44.0704,0.0995,0.0000,12.3462,31.6247,-2.4238
4.0000,accel,10.7826,0.0000,0.0000,25.5254,7.0900,0.0000,0.0000,0.6000,0.0000,0.0000,1,3130.9838,3357.9221,3357.9221,3523.4849,3523.4849,-0.1581,-0.1581,0.1977,0.1977,0.0000,0.0000,0.0000,0.0000,-3410.4838,-3410.4838,3459.2335,3459.2335,0.0000,0.0000,0.0000,0.0000,0.0000,-11.1958,-11.1958,16.5530,16.5530,-30.6234,-30.6234,-8.8038,-8.8038,0.0000,-0.6115,13762.8141,0.0000,1.0157,1.0157,0.9818,0.9818,0.0000,0.0000,36.9904,47.4911,0.1155,0.0000,12.9468,34.4288,-2.5617
4.1000,accel,11.5107,0.0000,0.0000,26.6750,7.4185,0.0000,0.0000,0.6000,0.0000,0.0000,1,2726.1428,2892.4864,2892.4864,3995.2628,3995.2628,-0.1716,-0.1716,0.0358,0.0358,0.0000,0.0000,0.0000,0.0000,-2985.2906,-2985.2906,2259.8256,2259.8256,0.0000,0.0000,0.0000,0.0000,0.0000,-12.5057,-12.5057,18.1323,18.1323,-154.4492,-154.4492,160.1717,160.1717,0.0000,-0.6752,13775.4984,0.0000,1.0321,1.0321,0.5656,0.5656,0.0000,0.0000,40.1011,50.9380,0.1337,0.0000,13.1503,37.6539,-2.4471
4.2000,accel,12.2683,0.0000,0.0000,27.7589,7.7074,0.0000,0.0000,0.6000,0.0000,0.0000,1,3042.3858,3136.9797,3136.9797,3749.7943,3749.7943,-0.1589,-0.1589,0.1024,0.1024,0.0000,0.0000,0.0000,0.0000,-3207.9494,-3207.9494,3511.7448,3511.7448,0.0000,0.0000,0.0000,0.0000,0.0000,-12.4856,-12.4856,17.7683,17.7683,-84.9207,-84.9207,65.2398,65.2398,0.0000,-0.6667,13773.5480,0.0000,1.0226,1.0226,0.9365,0.9365,0.0000,0.0000,43.4417,54.6576,0.1543,0.0000,13.6756,40.8278,-2.6139
4.3000,accel,13.0572,0.0000,0.0000,28.8750,8.0187,0.0000,0.0000,0.6000,0.0000,0.0000,1,3040.4784,2942.2644,2942.2644,3949.0342,3949.0342,-0.1659,-0.1659,0.0656,0.0656,0.0000,0.0000,0.0000,0.0000,-3030.3774,-3030.3774,3222.7958,3222.7958,0.0000,0.0000,0.0000,0.0000,0.0000,-12.9228,-12.9228,17.7490,17.7490,-137.6364,-137.6364,144.6968,144.6968,0.0000,-0.6759,13782.5971,0.0000,1.0299,1.0299,0.8161,0.8161,0.0000,0.0000,46.9157,58.3651,0.1774,0.0000,13.9565,44.2312,-2.6844
4.4000,accel,13.8766,0.0000,0.0000,29.9652,8.3199,0.0000,0.0000,0.6000,0.0000,0.0000,1,3276.6317,3115.1717,3115.1717,3775.9216,3775.9216,-0.1534,-0.1534,0.1004,0.1004,0.0000,0.0000,0.0000,0.0000,-3184.6885,-3184.6885,3520.8230,3520.8230,0.0000,0.0000,0.0000,0.0000,0.0000,-12.7140,-12.7140,17.5307,17.5307,-89.9324,-89.9324,77.2001,77.2001,0.0000,-0.6665,13782.1867,0.0000,1.0223,1.0223,0.9324,0.9324,0.0000,0.0000,50.6090,62.3256,0.2034,0.0000,14.4376,47.6847,-2.9243
4.5000,accel,14.7273,0.0000,0.0000,31.1150,8.6427,0.0000,0.0000,0.6000,0.0000,0.0000,1,3242.5651,2889.8487,2889.8487,4005.8562,4005.8562,-0.1492,-0.1492,0.0556,0.0556,0.0000,0.0000,0.0000,0.0000,-2973.4137,-2973.4137,3017.3704,3017.3704,0.0000,0.0000,0.0000,0.0000,0.0000,-13.2919,-13.2919,18.0775,18.0775,-150.4129,-150.4129,163.2236,163.2236,0.0000,-0.6913,13791.4097,0.0000,1.0289,1.0289,0.7532,0.7532,0.0000,0.0000,54.4956,66.4706,0.2324,0.0000,14.7721,51.4661,-3.0294
4.6000,accel,15.6097,0.0000,0.0000,32.2605,8.9630,0.0000,0.0000,0.6000,0.0000,0.0000,1,3327.5763,2792.2813,2792.2813,4106.6137,4106.6137,-0.1431,-0.1431,0.0457,0.0457,0.0000,0.0000,0.0000,0.0000,-2877.4935,-2877.4935,2747.7926,2747.7926,0.0000,0.0000,0.0000,0.0000,0.0000,-13.5951,-13.5951,18.3645,18.3645,-176.3601,-176.3601,200.1585,200.1585,0.0000,-0.7043,13797.7901,0.0000,1.0305,1.0305,0.6691,0.6691,0.0000,0.0000,58.5887,70.8422,0.2648,0.0000,15.2017,55.3757,-3.2130
4.7000,accel,16.5241,0.0000,0.0000,33.4244,9.2834,0.0000,0.0000,0.6000,0.0000,0.0000,1,3484.0711,2858.8151,2858.8151,4041.4657,4041.4657,-0.1353,-0.1353,0.0560,0.0560,0.0000,0.0000,0.0000,0.0000,-2929.8163,-2929.8163,3050.6700,3050.6700,0.0000,0.0000,0.0000,0.0000,0.0000,-13.7446,-13.7446,18.4404,18.4404,-156.5279,-156.5279,172.8250,172.8250,0.0000,-0.7093,13800.5614,0.0000,1.0248,1.0248,0.7548,0.7548,0.0000,0.0000,62.8915,75.4268,0.3009,0.0000,15.6322,59.4938,-3.3977
4.8000,accel,17.4711,0.0000,0.0000,34.6018,9.6092,0.0000,0.0000,0.6000,0.0000,0.0000,1,3626.9697,2890.4342,2890.4342,4011.6923,4011.6923,-0.1280,-0.1280,0.0613,0.0613,0.0000,0.0000,0.0000,0.0000,-2946.9898,-2946.9898,3171.7694,3171.7694,0.0000,0.0000,0.0000,0.0000,0.0000,-13.9056,-13.9056,18.5974,18.5974,-146.6024,-146.6024,158.8031,158.8031,0.0000,-0.7163,13804.2529,0.0000,1.0196,1.0196,0.7906,0.7906,0.0000,0.0000,67.4114,80.2443,0.3410,0.0000,16.0947,63.8086,-3.6028
4.9000,accel,18.4511,0.0000,0.0000,35.7947,9.9399,0.0000,0.0000,0.6000,0.0000,0.0000,1,3767.9147,2921.1302,2921.1302,3982.9769,3982.9769,-0.1210,-0.1210,0.0654,0.0654,0.0000,0.0000,0.0000,0.0000,-2959.7391,-2959.7391,3242.7231,3242.7231,0.0000,0.0000,0.0000,0.0000,0.0000,-14.0867,-14.0867,18.7595,18.7595,-136.8106,-136.8106,145.1253,145.1253,0.0000,-0.7238,13808.2142,0.0000,1.0132,1.0132,0.8141,0.8141,0.0000,0.0000,72.1560,85.3003,0.3854,0.0000,16.5819,68.3330,-3.8230
5.0000,entry,19.4647,0.0000,0.0000,37.0039,10.2753,0.0000,0.0000,0.3000,0.0000,0.0000,1,3909.4289,2951.8474,2951.8474,3954.3436,3954.3436,-0.1142,-0.1142,0.0688,0.0688,0.0000,0.0000,0.0000,0.0000,-2968.1790,-2968.1790,3290.9678,3290.9678,0.0000,0.0000,0.0000,0.0000,0.0000,-14.2661,-14.2661,18.9329,18.9329,-127.0372,-127.0372,131.3399,131.3399,0.0000,-0.7316,13812.3820,0.0000,1.0055,1.0055,0.8322,0.8322,0.0000,11.7747,77.1328,90.6029,0.4345,0.0000,17.0924,73.0760,-4.0568
5.1000,entry,20.5026,0.0034,0.1084,37.5714,10.4264,0.0772,3.5254,0.3000,0.0000,5.1527,1,3994.0274,3487.1052,3770.9782,3171.8044,3378.2798,0.0060,0.0053,0.1524,-0.0166,-4.0649,-4.0716,-0.0241,-0.0239,-21.0936,-30.7002,3141.0067,-1079.6866,2018.6669,2087.9518,-0.3966,-0.0467,0.2976,-9.6833,-7.6204,13.3994,14.7444,-6.9726,83.1587,-90.4410,-41.0549,0.0630,-0.5008,13808.1676,4.0442,0.5789,0.5537,0.9903,0.3196,169.4521,11.9478,79.5652,93.2987,0.4872,0.0000,17.4560,75.3555,-4.2097
5.2000,entry,21.5550,0.0304,0.9601,38.1769,10.5950,0.1884,10.7414,0.3000,0.0000,1.8782,1,3829.6244,2774.6737,3730.2256,3302.2179,4007.5658,-0.0018,-0.0039,0.0508,-0.0122,0.8246,0.7618,-0.4746,-0.4614,-52.8631,-129.2330,2374.7550,-792.2030,429.1717,480.4460,33.7626,67.2914,0.0732,-16.4215,0.7393,5.8377,18.4874,-162.5444,-12.1069,0.8498,156.4926,0.5510,-0.4408,13814.6830,0.3252,0.1558,0.1334,0.7192,0.1984,56.5150,12.1410,82.0332,96.0931,0.5423,0.0000,17.6786,77.8722,-4.1609
5.3000,entry,22.6238,0.0681,2.0316,38.7309,10.7679,0.0367,10.4620,0.3000,0.0000,3.6767,1,4181.5856,2859.8084,3748.7307,3277.6390,3931.2979,-0.0623,-0.1056,0.0023,0.1579,-2.6744,-2.7078,-1.1724,-1.1428,-1917.7763,-3292.2780,-33.5108,3778.6799,496.3984,469.1975,447.4772,243.1871,0.0940,-21.4977,6.9384,0.7980,21.4642,-102.1150,-51.2525,41.0925,95.8950,0.9075,-0.4057,13817.4760,1.5335,0.6927,0.8871,0.1369,0.9632,58.9710,12.3391,84.6793,98.9704,0.6000,0.0000,18.2030,80.1675,-4.5118
5.4000,entry,23.7089,0.1193,3.1404,39.3331,10.9276,0.0083,11.4992,0.3000,0.0000,2.8523,1,4248.7081,2951.7366,3968.2077,3075.4673,3822.0649,0.0023,-0.1128,-0.0015,0.1622,-1.4570,-1.4932,-1.4817,-1.4401,-33.1501,-3759.1057,-51.0569,3669.7928,999.7629,485.4285,661.5065,400.0311,0.1721,-24.1373,10.2818,-2.0845,23.0253,-57.1411,-12.5714,-8.0404,36.2844,1.1002,-0.3834,13817.4766,0.0142,0.3389,0.9552,0.2157,0.9658,54.4479,12.5221,87.3153,101.9140,0.6604,0.0000,18.5436,82.7100,-4.6053
5.5000,entry,24.8095,0.1907,4.3111,39.9345,11.0937,-0.0193,11.7790,0.3000,0.0000,3.2969,1,4308.9477,2944.5755,3995.6317,3054.3182,3825.8929,0.0033,-0.1009,0.0004,0.1593,-2.1611,-2.1936,-1.6347,-1.5887,-28.4110,-3553.4488,-45.4506,3658.7978,1233.1542,606.4203,761.6295,500.8938,0.2106,-26.2575,12.2628,-3.9394,24.2502,-44.1963,-19.0397,-1.0639,25.2447,1.2330,-0.3780,13820.4183,0.5656,0.4189,0.9022,0.2498,0.9652,53.9623,12.7124,90.0010,104.9152,0.7237,0.0000,18.9100,85.2815,-4.7196
5.6000,entry,25.9250,0.2849,5.5204,40.5362,11.2605,-0.0304,12.1280,0.3000,0.0000,3.3880,1,4365.9667,2914.1922,4013.0100,3045.0731,3851.4386,0.0033,-0.0983,0.0015,0.1558,-2.2676,-2.2996,-1.7146,-1.6655,-28.7997,-3512.3960,-41.4298,3669.3443,1247.2010,630.2805,805.4648,560.6622,0.2207,-27.8263,13.5948,-5.1458,25.2265,-41.8288,-23.7454,6.5479,25.3704,1.3269,-0.3781,13823.7139,0.5935,0.4281,0.8892,0.2649,0.9638,53.1976,12.9036,92.7240,107.9784,0.7899,0.0000,19.2950,87.8935,-4.8305
5.7000,entry,27.0550,0.4040,6.7612,41.1385,11.4275,-0.0382,12.4503,0.3000,0.0000,3.4025,1,4421.6615,2881.7936,4026.2001,3039.6712,3879.3448,0.0034,-0.0956,0.0029,0.1517,-2.3166,-2.3484,-1.7707,-1.7195,-28.7600,-3475.1608,-31.2323,3681.2266,1268.8219,674.0402,831.3750,608.2591,0.2309,-29.0782,14.6158,-6.0311,26.0303,-42.3026,-27.4288,12.9055,28.1612,1.4001,-0.3797,13827.0097,0.5874,0.4404,0.8792,0.2737,0.9618,52.5887,13.0949,95.4891,111.1033,0.8591,0.0000,19.6972,90.5470,-4.9421
5.8000,entry,28.1986,0.5492,8.0305,41.7424,11.5948,-0.0451,12.7444,0.3000,0.0000,3.3974,1,4474.4476,2847.1748,4035.2721,3038.1197,3909.7775,0.0034,-0.0924,0.0044,0.1464,-2.3575,-2.3889,-1.8161,-1.7631,-28.5073,-3426.6412,-11.7346,3691.6297,1293.4348,723.3576,850.1448,656.3162,0.2412,-30.1698,15.4833,-6.7568,26.7494,-44.5578,-31.1951,19.2024,32.8037,1.4631,-0.3821,13830.3440,0.5836,0.4544,0.8679,0.2799,0.9590,52.1275,13.2867,98.2983,114.2896,0.9313,0.0000,20.1117,93.2466,-5.0516
5.9000,entry,29.3554,0.7219,9.3262,42.3473,11.7623,-0.0511,13.0162,0.3000,0.0000,3.3909,1,4527.2169,2814.7632,4045.3959,3035.3238,3938.1501,0.0034,-0.0893,0.0063,0.1409,-2.3938,-2.4249,-1.8533,-1.7988,-28.1380,-3375.6240,19.8537,3697.6666,1316.4690,772.9337,864.0254,703.4603,0.2511,-31.1674,16.2833,-7.4064,27.4206,-46.8573,-34.1815,24.2346,37.0956,1.5207,-0.3845,13833.6330,0.5833,0.4678,0.8560,0.2847,0.9558,51.7764,13.4786,101.1507,117.5350,1.0068,0.0000,20.5384,95.9898,-5.1608
6.0000,entry,30.5244,0.9233,10.6469,42.9515,11.9296,-0.0575,13.2690,0.3000,0.0000,3.4012,1,4585.0202,2790.3558,4062.5599,3025.2655,3958.5643,0.0035,-0.0866,0.0081,0.1373,-2.4472,-2.4778,-1.8892,-1.8334,-27.7312,-3327.4622,59.5474,3699.7853,1332.6019,818.4452,875.9558,740.1671,0.2592,-32.0930,17.0750,-8.0337,28.0537,-47.3855,-35.0992,26.1347,38.5801,1.5757,-0.3861,13836.7455,0.6012,0.4777,0.8435,0.2902,0.9531,51.5123,13.6704,104.0432,120.8333,1.0855,0.0000,20.9790,98.7688,-5.2744
6.1000,entry,31.7050,1.1544,11.9917,43.5551,12.0968,-0.0653,13.5114,0.3000,0.0000,3.4058,1,4643.6347,2768.6542,4081.9963,3012.8545,3976.3134,0.0035,-0.0840,0.0097,0.1342,-2.5109,-2.5409,-1.9293,-1.8721,-27.2995,-3272.9119,99.3042,3699.0853,1347.9995,866.6215,889.6757,774.7226,0.2674,-32.9806,17.8638,-8.6501,28.6676,-47.4149,-35.3487,26.9796,39.1868,1.6295,-0.3871,13839.8184,0.6252,0.4870,0.8294,0.2971,0.9505,51.2971,13.8619,106.9746,124.1826,1.1677,0.0000,21.4302,101.5848,-5.3898
6.2000,entry,32.8963,1.4163,13.3598,44.1570,12.2634,-0.0740,13.7464,0.3000,0.0000,3.3978,1,4701.8800,2747.7694,4102.0347,2999.8192,3993.2839,0.0036,-0.0813,0.0112,0.1311,-2.5757,-2.6047,-1.9717,-1.9130,-26.8230,-3211.9361,140.4483,3695.8792,1365.0028,919.5152,905.3394,810.6920,0.2764,-33.8390,18.6591,-9.2717,29.2595,-47.4213,-35.4747,27.6235,39.6981,1.6824,-0.3875,13842.9072,0.6478,0.4969,0.8145,0.3054,0.9475,51.1144,14.0528,109.9370,127.5753,1.2533,0.0000,21.8910,104.4311,-5.5059
6.3000,entry,34.0973,1.7101,14.7505,44.7565,12.4293,-0.0831,13.9761,0.3000,0.0000,3.3726,1,4758.2069,2726.2014,4121.4235,2987.4624,4010.9609,0.0037,-0.0786,0.0126,0.1276,-2.6276,-2.6557,-2.0144,-1.9543,-26.3544,-3148.0691,182.4266,3689.0575,1381.9593,974.5719,921.3288,848.4586,0.2858,-34.6834,19.4552,-9.8969,29.8378,-47.7242,-35.7938,28.5718,40.6239,1.7350,-0.3875,13846.0482,0.6573,0.5070,0.7996,0.3144,0.9438,50.9547,14.2430,112.9264,131.0079,1.3424,0.0000,22.3607,107.3049,-5.6215
6.4000,entry,35.3069,2.0366,16.1631,45.3527,12.5944,-0.0925,14.2018,0.3000,0.0000,3.3249,1,4811.8684,2703.9153,4140.1940,2975.7627,4029.3713,0.0037,-0.0758,0.0139,0.1234,-2.6621,-2.6893,-2.0570,-1.9955,-25.8920,-3081.8212,220.3913,3676.8668,1398.1710,1030.5267,937.4640,887.1259,0.2953,-35.5188,20.2529,-10.5292,30.4032,-48.2983,-36.3021,29.8505,41.9695,1.7873,-0.3872,13849.2432,0.6495,0.5172,0.7849,0.3236,0.9387,50.8108,14.4321,115.9381,134.4755,1.4352,0.0000,22.8392,110.2012,-5.7369
6.5000,entry,36.5240,2.3970,17.5973,45.9453,12.7585,-0.1023,14.4233,0.3000,0.0000,3.2615,1,4863.5465,2680.7317,4158.3134,2964.7735,4048.6765,0.0038,-0.0731,0.0150,0.1188,-2.6696,-2.6957,-2.1004,-2.0374,-25.4692,-3019.0231,256.2606,3658.6169,1411.9954,1084.7307,953.7480,926.6374,0.3047,-36.3537,21.0475,-11.1661,30.9608,-49.1328,-36.9752,31.4565,43.7481,1.8395,-0.3868,13852.4952,0.6138,0.5268,0.7715,0.3331,0.9322,50.6825,14.6202,118.9709,137.9775,1.5316,0.0000,23.3278,113.1181,-5.8528
6.6000,entry,37.7475,2.7922,19.0524,46.5343,12.9217,-0.1126,14.6403,0.3000,0.0000,3.1909,1,4912.8871,2656.7514,4175.9808,2954.3071,4068.7612,0.0037,-0.0704,0.0161,0.1136,-2.6426,-2.6677,-2.1450,-2.0805,-25.0969,-2963.8214,288.1832,3631.4789,1422.6488,1136.2502,970.5837,967.9755,0.3140,-37.1946,21.8354,-11.8052,31.5151,-50.1541,-37.7314,33.2908,45.8695,1.8917,-0.3864,13855.8004,0.5424,0.5356,0.7601,0.3427,0.9237,50.5699,14.8072,122.0242,141.5139,1.6319,0.0000,23.8277,116.0543,-5.9699
6.7000,entry,38.9761,3.2230,20.5282,47.1194,13.0840,-0.1234,14.8519,0.3000,0.0000,3.1295,1,4959.6394,2632.2380,4193.5252,2944.0381,4089.3480,0.0037,-0.0677,0.0170,0.1079,-2.5742,-2.5981,-2.1906,-2.1247,-24.7869,-2920.3431,314.9810,3591.6384,1428.6171,1184.0580,988.0143,1012.4264,0.3230,-38.0442,22.6161,-12.4452,32.0688,-51.2670,-38.4725,35.2110,48.1947,1.9439,-0.3862,13859.1492,0.4285,0.5428,0.7515,0.3522,0.9125,50.4757,14.9932,125.0970,145.0844,1.7360,0.0000,24.3403,119.0081,-6.0889
6.8000,entry,40.2085,3.6905,22.0243,47.7005,13.2453,-0.1345,15.0570,0.3000,0.0000,3.0948,1,5004.6611,2608.7114,4212.3013,2932.5719,4108.9197,0.0036,-0.0651,0.0178,0.1018,-2.4774,-2.5002,-2.2360,-2.1685,-24.5321,-2884.7553,335.9644,3537.0527,1429.1840,1229.7375,1005.5391,1060.4708,0.3318,-38.9010,23.3922,-13.0878,32.6212,-52.0472,-38.8301,36.6755,50.1243,1.9962,-0.3861,13862.5043,0.2865,0.5479,0.7445,0.3615,0.8987,50.4019,15.1780,128.1882,148.6889,1.8440,0.0000,24.8672,121.9777,-6.2105
6.9000,entry,41.4434,4.1953,23.5404,48.2772,13.4054,-0.1453,15.2569,0.3000,0.0000,3.0790,1,5051.2692,2589.9669,4235.4538,2916.6393,4123.7243,0.0036,-0.0625,0.0184,0.0967,-2.4148,-2.4366,-2.2791,-2.2102,-24.3154,-2835.9197,350.5725,3476.8538,1427.5028,1281.1408,1022.3328,1109.3174,0.3408,-39.7571,24.1720,-13.7424,33.1627,-51.4670,-37.9645,36.4716,50.2550,2.0485,-0.3857,13865.7843,0.1810,0.5512,0.7347,0.3706,0.8850,50.3427,15.3615,131.2948,152.3257,1.9560,0.0000,25.4088,124.9608,-6.3340
7.0000,entry,42.6794,4.7386,25.0763,48.8498,13.5640,-0.1559,15.4593,0.3000,0.0000,2.9929,1,5102.5237,2578.7043,4264.8524,2894.2392,4131.1460,0.0037,-0.0597,0.0189,0.0934,-2.4757,-2.4964,-2.3186,-2.2484,-24.1124,-2725.0614,362.3660,3427.8095,1433.0032,1355.1428,1037.3511,1154.6588,0.3514,-40.6037,24.9633,-14.4214,33.6792,-48.8180,-35.3969,33.9240,47.6815,2.1009,-0.3845,13868.9419,0.2026,0.5558,0.7136,0.3797,0.8756,50.2713,15.5432,134.4133,155.9921,2.0721,0.0000,25.9622,127.9578,-6.4554
7.1000,entry,43.9149,5.3209,26.6316,49.4189,13.7212,-0.1662,15.6673,0.3000,0.0000,2.7913,1,5155.9803,2573.8318,4299.5758,2866.3384,4132.2791,0.0038,-0.0563,0.0194,0.0911,-2.6595,-2.6790,-2.3549,-2.2836,-23.9520,-2536.9696,373.6846,3384.4981,1442.8824,1455.6379,1050.3020,1197.8394,0.3637,-41.4536,25.7552,-15.1266,34.1688,-44.3191,-31.3124,29.4373,42.8601,2.1533,-0.3828,13872.0251,0.3500,0.5607,0.6803,0.3889,0.8688,50.1788,15.7233,137.5426,159.6873,2.1923,0.0000,26.5237,130.9713,-6.5713
7.2000,entry,45.1485,5.9431,28.2065,49.9872,13.8766,-0.1764,15.9071,0.3000,0.0000,2.1103,1,5208.1325,2589.2257,4351.6090,2820.6051,4113.3951,0.0042,-0.0494,0.0196,0.0888,-3.2007,-3.2191,-2.3872,-2.3151,-23.9869,-2041.4238,370.1787,3326.3710,1458.2180,1643.6326,1060.9810,1242.2810,0.3831,-42.3264,26.5326,-15.9002,34.5852,-33.8675,-22.1794,18.5018,30.7636,2.2058,-0.3799,13874.8349,0.8588,0.5633,0.6023,0.3984,0.8632,49.9822,15.9014,140.6776,163.4077,2.3167,0.0000,27.0749,134.0161,-6.6615
7.3000,entry,46.3782,6.6060,29.7983,50.5479,14.0232,-0.1838,16.2045,0.3000,0.0000,0.4211,1,5252.4145,2765.7971,4540.9653,2635.2219,3936.8230,0.0072,0.0078,0.0172,0.0873,-6.5530,-6.5699,-2.3878,-2.3166,-18.8189,-26.5662,267.9157,3172.6779,1398.1987,2143.5529,1055.0916,1302.6673,0.4272,-42.9405,27.4080,-16.9399,34.7075,29.1144,35.6971,-32.5831,-29.6066,2.2548,-0.3669,13878.8073,4.2093,0.5056,0.4721,0.4131,0.8712,49.5834,16.0695,143.7607,167.1525,2.4453,0.0000,27.6517,137.0555,-6.7052
7.4000,entry,47.6020,7.3102,31.4057,51.0826,14.1719,-0.1880,16.3997,0.3000,0.0000,0.0815,1,5298.1646,2731.9482,4546.9723,2635.9896,3966.6994,0.0083,0.0102,0.0175,0.0838,-6.6742,-6.6910,-2.3985,-2.3269,-11.6580,0.5909,276.2785,3129.5867,1419.0353,2247.5470,1055.2302,1333.4556,0.4388,-43.6757,28.1292,-17.5678,35.2644,22.6805,30.6416,-28.1427,-25.3128,2.3036,-0.3663,13881.6095,4.3199,0.5194,0.4943,0.4138,0.8576,49.5126,16.2398,146.8160,170.9185,2.5780,0.0000,28.3566,139.9839,-6.8321
7.5000,entry,48.8182,8.0560,33.0301,51.6116,14.3190,-0.1961,16.5678,0.3000,0.0000,0.0906,1,5349.6319,2713.6655,4567.4144,2622.2848,3981.3467,0.0088,0.0106,0.0182,0.0821,-6.9478,-6.9638,-2.4243,-2.3519,-9.6068,3.2941,295.2335,3099.1765,1433.9794,2295.7409,1061.1293,1363.5105,0.4458,-44.4173,28.9007,-18.1745,35.8178,22.5367,30.8566,-27.9887,-25.3445,2.3530,-0.3654,13884.7114,4.5677,0.5284,0.5026,0.4200,0.8504,49.5187,16.4083,149.8685,174.7071,2.7150,0.0000,29.0811,142.9110,-6.9574
7.6000,entry,50.0253,8.8435,34.6715,52.1337,14.4641,-0.2057,16.7323,0.3000,0.0000,0.1233,1,5400.5287,2695.6277,4588.2028,2608.2241,3995.7387,0.0092,0.0111,0.0190,0.0803,-7.1934,-7.2085,-2.4558,-2.3824,-7.7237,6.6612,316.0028,3064.5502,1448.6570,2342.8256,1070.3161,1400.5120,0.4536,-45.1598,29.6933,-18.7763,36.3627,22.5012,30.9999,-27.9707,-25.3883,2.4026,-0.3642,13887.7932,4.7819,0.5374,0.5106,0.4279,0.8433,49.5290,16.5746,152.9127,178.5174,2.8562,0.0000,29.8317,145.8294,-7.0833
7.7000,entry,51.2215,9.6730,36.3296,52.6489,14.6073,-0.2157,16.8943,0.3000,0.0000,0.1608,1,5450.6914,2677.3945,4608.7486,2594.3844,4010.3287,0.0096,0.0115,0.0198,0.0786,-7.4227,-7.4369,-2.4884,-2.4140,-6.0059,9.7564,337.1781,3027.1385,1463.7852,2391.6728,1080.2254,1440.1343,0.4617,-45.9033,30.4915,-19.3752,36.9024,22.3980,30.9910,-27.9097,-25.3371,2.4521,-0.3629,13890.8563,4.9786,0.5467,0.5189,0.4362,0.8359,49.5395,16.7387,155.9463,182.3487,3.0017,0.0000,30.6100,148.7370,-7.2093
7.8000,entry,52.4050,10.5448,38.0043,53.1570,14.7486,-0.2258,17.0540,0.3000,0.0000,0.2040,1,5500.1453,2658.9712,4629.0163,2580.8008,4025.1156,0.0100,0.0118,0.0206,0.0768,-7.6375,-7.6508,-2.5208,-2.4454,-4.4163,12.5361,358.3382,2987.7333,1478.3341,2440.6046,1089.9530,1480.7238,0.4699,-46.6471,31.2895,-19.9722,37.4381,22.2219,30.8747,-27.7881,-25.2003,2.5015,-0.3617,13893.9040,5.1610,0.5560,0.5272,0.4446,0.8284,49.5503,16.9006,158.9679,186.2007,3.1515,0.0000,31.4168,151.6325,-7.3354
7.9000,entry,53.5739,11.4589,39.6952,53.6581,14.8879,-0.2358,17.2113,0.3000,0.0000,0.2517,1,5548.9184,2640.3695,4649.0085,2567.4716,4040.0880,0.0103,0.0122,0.0214,0.0751,-7.8369,-7.8493,-2.5526,-2.4762,-2.9597,14.9014,379.3657,2946.6560,1492.0465,2489.1545,1099.2648,1521.7790,0.4780,-47.3905,32.0846,-20.5676,37.9704,21.9729,30.6772,-27.6042,-24.9854,2.5508,-0.3604,13896.9376,5.3287,0.5651,0.5354,0.4529,0.8209,49.5612,17.0603,161.9766,190.0728,3.3056,0.0000,32.2522,154.5150,-7.4616
8.0000,hold,54.7263,12.4156,41.4021,54.1524,15.0253,-0.2458,17.3664,0.3000,0.0000,0.3028,1,5597.0445,2621.5789,4668.7128,2554.4095,4055.2558,0.0106,0.0124,0.0222,0.0734,-8.0195,-8.0311,-2.5839,-2.5065,-1.6536,16.5535,400.2305,2904.1471,1504.9123,2537.3055,1108.1240,1563.1257,0.4859,-48.1336,32.8758,-21.1615,38.4997,21.6450,30.4048,-27.3535,-24.6912,2.5999,-0.3592,13899.9570,5.4801,0.5740,0.5435,0.4612,0.8133,49.5719,17.2177,164.9718,193.9645,3.4641,0.0000,33.1165,157.3839,-7.5879
8.1000,hold,55.8603,13.4147,43.1250,54.6417,15.1613,-0.2559,17.5195,0.3010,0.0000,0.3526,1,5645.4769,2601.5236,4687.1398,2542.6126,4071.6794,0.0103,0.0118,0.0231,0.0719,-7.9347,-7.9454,-2.6150,-2.5366,-3.2673,9.5299,425.1323,2864.6092,1515.6287,2583.7620,1116.0104,1604.4277,0.4936,-48.8837,33.6559,-21.7499,39.0306,20.8829,29.7334,-26.7801,-24.0500,2.6489,-0.3582,13902.9554,5.3643,0.5826,0.5512,0.4697,0.8064,49.5835,17.3735,167.9663,197.8812,3.6269,0.0000,34.0044,160.2499,-7.7164
8.2000,hold,56.9740,14.4564,44.8636,55.1287,15.2965,-0.2662,17.6702,0.3019,0.0000,0.4304,1,5693.9415,2581.4400,4705.5189,2530.8756,4088.1489,0.0099,0.0114,0.0240,0.0705,-7.8537,-7.8635,-2.6463,-2.5670,-5.4390,4.6744,450.7416,2824.8628,1526.6829,2627.6755,1123.3815,1646.1821,0.5012,-49.6470,34.4221,-22.3313,39.5674,20.2392,29.1800,-26.2404,-23.4385,2.6979,-0.3577,13905.9833,5.2520,0.5914,0.5584,0.4783,0.7998,49.5993,17.5286,170.9729,201.8296,3.7942,0.0000,34.9085,163.1268,-7.8461
8.3000,hold,58.0655,15.5404,46.6179,55.6124,15.4309,-0.2766,17.8247,0.3029,0.0000,0.4203,1,5742.3372,2564.4771,4726.9423,2516.1197,4101.5444,0.0100,0.0120,0.0250,0.0692,-7.8011,-7.8100,-2.6775,-2.5973,-4.8298,12.7522,475.8229,2783.7049,1544.9474,2688.3119,1130.3436,1688.0290,0.5106,-50.4070,35.1915,-22.9120,40.1047,20.8114,29.8126,-26.5685,-23.7094,2.7468,-0.3571,13909.0835,5.1682,0.6024,0.5687,0.4874,0.7937,49.6012,17.6825,173.9893,205.8094,3.9660,0.0000,35.8335,166.0099,-7.9793
8.4000,hold,59.1331,16.6667,48.3877,56.0940,15.5646,-0.2872,17.9774,0.3038,0.0000,0.4298,1,5790.2541,2541.6919,4743.5303,2506.2782,4120.5706,0.0098,0.0115,0.0259,0.0678,-7.6265,-7.6345,-2.7093,-2.6280,-5.3759,8.1266,499.3718,2743.2758,1551.8138,2728.8426,1137.5302,1730.8867,0.5178,-51.1784,35.9554,-23.4849,40.6541,19.1673,28.5650,-25.5501,-22.4591,2.7959,-0.3569,13912.0709,4.9619,0.6105,0.5753,0.4957,0.7872,49.6061,17.8357,177.0169,209.8204,4.1422,0.0000,36.7739,168.9043,-8.1126
8.5000,hold,60.1746,17.8350,50.1729,56.5730,15.6976,-0.2981,18.1200,0.3048,0.0000,0.6055,1,5838.6023,2521.2582,4761.7805,2494.7087,4137.3699,0.0097,0.0112,0.0268,0.0666,-7.5715,-7.5786,-2.7413,-2.6590,-5.4315,5.3175,523.5229,2705.2252,1553.0218,2759.9144,1144.5897,1773.1965,0.5237,-51.9529,36.7200,-24.0579,41.2065,18.4937,27.9736,-25.0248,-21.8677,2.8451,-0.3568,13915.1173,4.8749,0.6160,0.5796,0.5045,0.7818,49.6361,17.9881,180.0543,213.8626,4.3231,0.0000,37.7316,171.8079,-8.2464
8.6000,hold,61.1883,19.0449,51.9735,57.0489,15.8297,-0.3093,18.2717,0.3057,0.0000,0.6007,1,5886.9218,2502.6448,4782.0112,2481.2032,4152.3501,0.0097,0.0115,0.0277,0.0656,-7.5095,-7.5156,-2.7737,-2.6904,-5.1359,10.0404,547.1207,2667.3768,1568.2558,2818.3257,1151.3341,1815.1014,0.5327,-52.7239,37.4906,-24.6348,41.7565,18.5136,28.1147,-25.0259,-21.7793,2.8945,-0.3565,13918.2094,4.7805,0.6266,0.5894,0.5138,0.7770,49.6384,18.1395,183.0991,217.9357,4.5086,0.0000,38.7106,174.7166,-8.3825
8.7000,hold,62.1721,20.2961,53.7894,57.5223,15.9611,-0.3207,18.4195,0.3067,0.0000,0.6511,1,5935.2995,2482.6115,4801.1350,2468.8370,4168.6975,0.0096,0.0114,0.0286,0.0646,-7.4198,-7.4250,-2.8068,-2.7225,-5.5032,9.0673,570.1690,2632.2542,1575.5858,2862.5730,1158.2227,1856.9179,0.5401,-53.4997,38.2616,-25.2110,42.3111,18.0119,27.8087,-24.7069,-21.3331,2.9440,-0.3563,13921.2810,4.6578,0.6347,0.5962,0.5229,0.7727,49.6489,18.2901,186.1523,222.0396,4.6987,0.0000,39.7075,177.6334,-8.5188
8.8000,hold,63.1240,21.5879,55.6204,57.9927,16.0917,-0.3326,18.5661,0.3076,0.0000,0.7050,1,5983.7991,2463.1264,4820.7290,2455.9970,4184.5152,0.0095,0.0114,0.0296,0.0637,-7.3546,-7.3588,-2.8408,-2.7554,-5.6165,9.2496,592.7042,2599.6924,1583.5776,2908.8265,1165.1624,1898.3368,0.5476,-54.2752,39.0357,-25.7885,42.8666,17.7266,27.6584,-24.5146,-21.0457,2.9935,-0.3561,13924.3676,4.5586,0.6429,0.6034,0.5323,0.7693,49.6597,18.4397,189.2120,226.1742,4.8937,0.0000,40.7247,180.5558,-8.6562
8.9000,hold,64.0422,22.9198,57.4665,58.4600,16.2214,-0.3448,18.7123,0.3086,0.0000,0.7484,1,6032.2822,2444.0318,4840.7571,2442.7330,4199.9409,0.0094,0.0113,0.0305,0.0630,-7.2933,-7.2965,-2.8757,-2.7893,-5.7190,9.4475,613.6809,2569.7127,1591.6180,2955.8127,1172.4930,1939.3034,0.5552,-55.0490,39.8140,-26.3675,43.4225,17.5794,27.6400,-24.4334,-20.8737,3.0432,-0.3558,13927.4628,4.4624,0.6512,0.6106,0.5418,0.7665,49.6688,18.5883,192.2756,230.3375,5.0934,0.0000,41.7623,183.4818,-8.7937
9.0000,hold,64.9246,24.2911,59.3275,58.9234,16.3500,-0.3575,18.8571,0.3095,0.0000,0.7944,1,6080.6532,2425.3456,4861.1282,2429.1163,4214.9664,0.0094,0.0113,0.0313,0.0624,-7.2409,-7.2431,-2.9117,-2.8241,-5.7577,9.6859,633.2218,2542.2127,1599.1258,3002.2749,1180.4165,1979.8171,0.5627,-55.8157,40.6001,-26.9512,43.9744,17.5251,27.6807,-24.4188,-20.7872,3.0929,-0.3552,13930.5565,4.3741,0.6593,0.6176,0.5514,0.7645,49.6781,18.7357,195.3376,234.5248,5.2979,0.0000,42.8209,186.4060,-8.9316
9.1000,hold,65.7693,25.7009,61.2033,59.3823,16.4773,-0.3706,19.0004,0.3105,0.0000,0.8413,1,6128.2928,2406.8541,4881.6154,2415.3687,4229.8038,0.0093,0.0113,0.0322,0.0617,-7.1915,-7.1926,-2.9485,-2.8598,-5.7690,9.9831,650.5335,2512.3209,1606.9112,3049.9050,1188.6067,2020.8976,0.5703,-56.5751,41.3922,-27.5395,44.5210,17.4766,27.7080,-24.4087,-20.7161,3.1425,-0.3544,13933.6419,4.2879,0.6676,0.6248,0.5610,0.7623,49.6874,18.8816,198.3938,238.7328,5.5073,0.0000,43.9018,189.3237,-9.0700
9.2000,hold,66.5742,27.1482,63.0936,59.8361,16.6032,-0.3838,19.1422,0.3114,0.0000,0.8861,1,6175.6854,2388.6365,4902.1968,2401.4969,4244.3858,0.0093,0.0113,0.0330,0.0612,-7.1496,-7.1495,-2.9856,-2.8958,-5.7241,10.3500,666.9552,2484.9570,1614.3606,3097.4321,1196.7258,2061.4809,0.5779,-57.3261,42.1892,-28.1325,45.0603,17.4543,27.7248,-24.3991,-20.6654,3.1921,-0.3533,13936.7160,4.2089,0.6759,0.6318,0.5705,0.7607,49.6962,19.0259,201.4395,242.9575,5.7215,0.0000,45.0052,192.2308,-9.2087
9.3000,hold,67.3375,28.6321,64.9984,60.2847,16.7276,-0.3975,19.2824,0.3124,0.0000,0.9291,1,6222.8733,2370.7163,4922.8706,2387.4989,4258.6919,0.0093,0.0113,0.0338,0.0607,-7.1161,-7.1150,-3.0234,-2.9324,-5.6395,10.8062,682.5805,2460.5756,1621.4018,3144.6670,1204.8224,2101.3555,0.5854,-58.0707,42.9872,-28.7256,45.5958,17.4870,27.7698,-24.4244,-20.6650,3.2414,-0.3521,13939.7778,4.1377,0.6839,0.6388,0.5800,0.7598,49.7046,19.1685,204.4735,247.1986,5.9407,0.0000,46.1319,195.1260,-9.3475
9.4000,hold,68.0570,30.1513,66.9174,60.7280,16.8506,-0.4115,19.4210,0.3133,0.0000,0.9704,1,6269.8254,2353.0835,4943.6107,2373.3981,4272.7332,0.0093,0.0113,0.0346,0.0603,-7.0909,-7.0886,-3.0620,-2.9698,-5.5183,11.3530,697.4278,2438.9617,1628.1482,3191.8111,1212.9692,2140.7127,0.5928,-58.8095,43.7842,-29.3164,46.1288,17.5785,27.8526,-24.4937,-20.7212,3.2906,-0.3508,13942.8255,4.0739,0.6919,0.6456,0.5895,0.7595,49.7127,19.3093,207.4942,251.4556,6.1647,0.0000,47.2830,198.0079,-9.4863
9.5000,hold,68.7310,31.7047,68.8505,61.1660,16.9720,-0.4258,19.5579,0.3143,0.0000,1.0101,1,6316.5071,2335.7257,4964.3887,2359.2199,4286.5234,0.0093,0.0113,0.0353,0.0600,-7.0734,-7.0700,-3.1014,-3.0080,-5.3647,11.9820,711.5002,2419.9137,1634.6455,3238.9388,1221.1859,2179.6552,0.6002,-59.5428,44.5790,-29.9040,46.6597,17.7263,27.9736,-24.6069,-20.8325,3.3395,-0.3495,13945.8577,4.0170,0.6998,0.6524,0.5991,0.7598,49.7203,19.4485,210.5002,255.7280,6.3937,0.0000,48.4593,200.8750,-9.6252
9.6000,hold,69.3575,33.2907,70.7974,61.5985,17.0919,-0.4406,19.6932,0.3152,0.0000,1.0482,1,6362.8833,2318.6307,4985.1760,2344.9899,4300.0762,0.0093,0.0114,0.0361,0.0598,-7.0632,-7.0585,-3.1417,-3.0471,-5.1829,12.6842,724.7997,2403.2297,1640.9121,3286.0733,1229.4669,2218.2396,0.6075,-60.2706,45.3708,-30.4878,47.1884,17.9257,28.1296,-24.7606,-20.9947,3.3882,-0.3482,13948.8728,3.9664,0.7077,0.6592,0.6086,0.7606,49.7276,19.5859,213.4900,260.0155,6.6277,0.0000,49.6618,203.7260,-9.7640
9.7000,hold,69.9347,34.9081,72.7580,62.0255,17.2102,-0.4557,19.8267,0.3162,0.0000,1.0850,1,6408.9199,2301.7866,5005.9448,2330.7331,4313.4048,0.0093,0.0114,0.0369,0.0596,-7.0596,-7.0538,-3.1828,-3.0869,-4.9767,13.4503,737.3323,2388.7108,1646.9527,3333.2105,1237.7948,2256.5007,0.6148,-60.9929,46.1590,-31.0675,47.7147,18.1709,28.3159,-24.9502,-21.2024,3.4365,-0.3469,13951.8694,3.9218,0.7155,0.6659,0.6182,0.7618,49.7346,19.7215,216.4622,264.3176,6.8666,0.0000,50.8916,206.5594,-9.9028
9.8000,hold,70.4608,36.5552,74.7321,62.4468,17.3270,-0.4712,19.9585,0.3171,0.0000,1.1206,1,6454.5856,2285.1827,5026.6689,2316.4731,4326.5213,0.0093,0.0114,0.0377,0.0596,-7.0623,-7.0552,-3.2247,-3.1275,-4.7497,14.2717,749.1095,2376.1657,1652.7652,3380.3317,1246.1478,2294.4604,0.6220,-61.7094,46.9429,-31.6427,48.2383,18.4564,28.5279,-25.1706,-21.4501,3.4846,-0.3456,13954.8460,3.8827,0.7233,0.6725,0.6277,0.7635,49.7413,19.8553,219.4152,268.6338,7.1104,0.0000,52.1496,209.3738,-10.0414
9.9000,hold,70.9339,38.2303,76.7194,62.8624,17.4421,-0.4870,20.0885,0.3181,0.0000,1.1549,1,6499.8516,2268.8096,5047.3240,2302.2314,4339.4365,0.0094,0.0115,0.0384,0.0595,-7.0706,-7.0622,-3.2672,-3.1687,-4.5051,15.1403,760.1479,2365.4153,1658.3445,3427.4104,1254.5027,2332.1321,0.6292,-62.4200,47.7222,-32.2133,48.7590,18.7769,28.7611,-25.4171,-21.7324,3.5323,-0.3443,13957.8014,3.8485,0.7309,0.6791,0.6371,0.7655,49.7477,19.9872,222.3478,272.9637,7.3592,0.0000,53.4366,212.1679,-10.1798
10.0000,hold,71.3524,39.9317,78.7199,63.2721,17.5556,-0.5032,20.2167,0.3190,0.0000,1.1889,1,6544.6077,2252.5683,5067.8180,2288.0998,4352.2470,0.0094,0.0116,0.0392,0.0595,-7.0816,-7.0719,-3.3104,-3.2106,-4.2653,16.0017,770.5328,2355.3167,1663.6717,3474.4351,1262.8445,2369.7132,0.6364,-63.1248,48.4960,-32.7791,49.2766,19.0945,28.9859,-25.6650,-22.0202,3.5796,-0.3430,13960.7330,3.8163,0.7386,0.6856,0.6465,0.7677,49.7540,20.1172,225.2586,277.3070,7.6129,0.0000,54.7536,214.9405,-10.3180
10.1000,hold,71.7147,41.6575,80.7332,63.6761,17.6675,-0.5196,20.3430,0.3200,0.0000,1.2235,1,6588.6955,2236.2878,5088.0088,2274.2233,4365.1190,0.0094,0.0116,0.0399,0.0595,-7.0901,-7.0791,-3.3540,-3.2529,-4.0549,16.7772,780.4410,2344.1326,1668.7186,3521.4430,1271.1305,2407.5891,0.6436,-63.8249,49.2634,-33.3402,49.7904,19.3505,29.1555,-25.8705,-22.2621,3.6266,-0.3417,13963.6389,3.7811,0.7462,0.6921,0.6559,0.7698,49.7602,20.2454,228.1467,281.6631,7.8715,0.0000,56.1010,217.6906,-10.4561
10.2000,hold,72.0192,43.4057,82.7593,64.0742,17.7777,-0.5362,20.4673,0.3210,0.0000,1.2586,1,6632.1058,2219.9728,5107.8919,2260.6059,4378.0495,0.0095,0.0117,0.0407,0.0594,-7.0960,-7.0836,-3.3979,-3.2955,-3.8667,17.4698,789.8698,2331.8938,1673.4362,3568.3161,1279.2914,2445.6620,0.6507,-64.5206,50.0239,-33.8973,50.3000,19.5508,29.2733,-26.0297,-22.4550,3.6732,-0.3405,13966.5202,3.7431,0.7538,0.6986,0.6651,0.7719,49.7665,20.3717,231.0115,286.0319,8.1351,0.0000,57.4793,220.4175,-10.5939
10.3000,hold,72.2642,45.1743,84.7979,64.4665,17.8863,-0.5530,20.5898,0.3219,0.0000,1.2940,1,6674.8380,2203.6342,5127.4690,2247.2446,4391.0292,0.0095,0.0117,0.0414,0.0593,-7.0994,-7.0857,-3.4420,-3.3383,-3.6986,18.0836,798.8201,2318.6628,1677.7925,3614.9537,1287.2881,2483.8402,0.6578,-65.2120,50.7771,-34.4502,50.8051,19.7003,29.3431,-26.1428,-22.5993,3.7195,-0.3393,13969.3770,3.7024,0.7614,0.7050,0.6742,0.7738,49.7726,20.4962,233.8522,290.4127,8.4036,0.0000,58.8885,223.1206,-10.7316
10.4000,hold,72.4485,46.9611,86.8489,64.8531,17.9933,-0.5699,20.7105,0.3229,0.0000,1.3297,1,6716.8959,2187.2831,5146.7428,2234.1354,4404.0478,0.0095,0.0117,0.0422,0.0592,-7.1004,-7.0855,-3.4863,-3.3812,-3.5486,18.6237,807.3006,2304.5049,1681.7775,3661.2989,1295.1029,2522.0668,0.6649,-65.8990,51.5229,-34.9990,51.3054,19.8026,29.3678,-26.2113,-22.6967,3.7654,-0.3381,13972.2091,3.6592,0.7689,0.7114,0.6831,0.7757,49.7787,20.6188,236.6685,294.8053,8.6770,0.0000,60.3288,225.7995,-10.8689
10.5000,hold,72.5705,48.7639,88.9121,65.2340,18.0987,-0.5870,20.8293,0.3238,0.0000,1.3658,1,6758.2855,2170.9310,5165.7168,2221.2736,4417.0947,0.0095,0.0118,0.0429,0.0591,-7.0993,-7.0830,-3.5306,-3.4241,-3.4150,19.0953,815.3241,2289.4857,1685.3915,3707.3160,1302.7287,2560.3035,0.6719,-66.5813,52.2611,-35.5436,51.8009,19.8607,29.3503,-26.2372,-22.7493,3.8109,-0.3369,13975.0161,3.6138,0.7763,0.7177,0.6919,0.7776,49.7848,20.7396,239.4597,299.2094,8.9553,0.0000,61.8005,228.4536,-11.0060
10.6000,hold,72.6291,50.5804,90.9873,65.6091,18.2026,-0.6042,20.9462,0.3248,0.0000,1.4021,1,6799.0138,2154.5890,5184.3944,2208.6545,4430.1597,0.0095,0.0118,0.0436,0.0590,-7.0962,-7.0786,-3.5750,-3.4672,-3.2960,19.5032,822.9054,2273.6696,1688.6404,3752.9810,1310.1643,2598.5211,0.6788,-67.2589,52.9917,-36.0838,52.2915,19.8771,29.2930,-26.2228,-22.7595,3.8559,-0.3358,13977.7977,3.5663,0.7837,0.7239,0.7005,0.7794,49.7908,20.8586,242.2253,303.6245,9.2385,0.0000,63.3036,231.0825,-11.1428
10.7000,hold,72.6230,52.4082,93.0743,65.9786,18.3048,-0.6216,21.0614,0.3257,0.0000,1.4388,1,6839.0882,2138.2683,5202.7793,2196.2733,4443.2324,0.0095,0.0118,0.0443,0.0588,-7.0913,-7.0724,-3.6195,-3.5103,-3.1902,19.8521,830.0602,2257.1192,1691.5330,3798.2757,1317.4113,2636.6953,0.6856,-67.9316,53.7145,-36.6195,52.7772,19.8546,29.1983,-26.1702,-22.7297,3.9006,-0.3347,13980.5533,3.5169,0.7911,0.7301,0.7090,0.7812,49.7968,20.9758,244.9649,308.0504,9.5265,0.0000,64.8383,233.6856,-11.2793
10.8000,hold,72.5512,54.2447,95.1729,66.3425,18.4055,-0.6390,21.1747,0.3267,0.0000,1.4757,1,6878.5161,2121.9794,5220.8748,2184.1254,4456.3028,0.0095,0.0118,0.0450,0.0586,-7.0848,-7.0645,-3.6641,-3.5536,-3.0962,20.1462,836.8045,2239.8948,1694.0792,3843.1853,1324.4731,2674.8044,0.6924,-68.5991,54.4294,-37.1506,53.2577,19.7955,29.0684,-26.0817,-22.6622,3.9448,-0.3336,13983.2825,3.4658,0.7983,0.7361,0.7173,0.7829,49.8027,21.0911,247.6780,312.4867,9.8194,0.0000,66.4048,236.2626,-11.4154
10.9000,hold,72.4125,56.0875,97.2831,66.7008,18.5046,-0.6566,21.2862,0.3276,0.0000,1.5130,1,6917.3052,2105.7328,5238.6839,2172.2066,4469.3614,0.0095,0.0118,0.0457,0.0584,-7.0768,-7.0551,-3.7087,-3.5968,-3.0128,20.3893,843.1547,2222.0544,1696.2900,3887.6967,1331.3537,2712.8282,0.6991,-69.2613,55.1364,-37.6769,53.7332,19.7021,28.9054,-25.9596,-22.5594,3.9887,-0.3325,13985.9848,3.4132,0.8056,0.7421,0.7255,0.7846,49.8086,21.2047,250.3642,316.9332,10.1170,0.0000,68.0031,238.8130,-11.5511
11.0000,hold,72.2063,57.9338,99.4045,67.0535,18.6021,-0.6743,21.3959,0.3286,0.0000,1.5505,1,6955.4625,2089.5385,5256.2098,2160.5125,4482.3989,0.0095,0.0118,0.0464,0.0582,-7.0674,-7.0444,-3.7534,-3.6402,-2.9388,20.5848,849.1265,2203.6536,1698.1764,3931.7980,1338.0579,2750.7471,0.7057,-69.9179,55.8354,-38.1984,54.2035,19.5766,28.7116,-25.8058,-22.4234,4.0321,-0.3315,13988.6597,3.3592,0.8127,0.7480,0.7335,0.7863,49.8145,21.3165,253.0229,321.3895,10.4195,0.0000,69.6335,241.3364,-11.6865
11.1000,hold,71.9316,59.7811,101.5371,67.4007,18.6981,-0.6922,21.5038,0.3295,0.0000,1.5883,1,6992.9950,2073.4061,5273.4551,2149.0394,4495.4061,0.0095,0.0118,0.0471,0.0580,-7.0570,-7.0326,-3.7982,-3.6835,-2.8733,20.7360,854.7359,2184.7452,1699.7499,3975.4783,1344.5905,2788.5424,0.7123,-70.5689,56.5264,-38.7148,54.6687,19.4211,28.4886,-25.6223,-22.2564,4.0750,-0.3305,13991.3068,3.3040,0.8198,0.7539,0.7414,0.7880,49.8203,21.4265,255.6538,325.8553,10.7268,0.0000,71.2962,243.8324,-11.8214
11.2000,hold,71.5878,61.6265,103.6806,67.7421,18.7925,-0.7101,21.6098,0.3305,0.0000,1.6270,1,7029.6215,2057.6502,5290.7158,2137.4902,4508.0726,0.0095,0.0118,0.0478,0.0577,-7.0443,-7.0186,-3.8429,-3.7269,-2.8077,20.8538,858.9385,2163.9727,1701.2026,4018.9225,1351.3770,2826.4261,0.7189,-71.2113,57.2116,-39.2283,55.1261,19.3332,28.3305,-25.4786,-22.1296,4.1175,-0.3294,13993.9288,3.2465,0.8268,0.7596,0.7491,0.7896,49.8262,21.5347,258.2528,330.3266,11.0388,0.0000,72.9896,246.2982,-11.9545
11.3000,hold,71.1745,63.4671,105.8349,68.0769,18.8851,-0.7279,21.7137,0.3314,0.0000,1.6660,1,7065.3896,2042.1813,5307.8056,2126.0314,4520.4944,0.0095,0.0118,0.0484,0.0575,-7.0303,-7.0033,-3.8874,-3.7701,-2.7173,20.9516,862.2938,2142.2826,1702.5239,4061.9627,1358.2871,2864.1067,0.7254,-71.8396,57.8950,-39.7427,55.5709,19.2225,28.1263,-25.2997,-21.9788,4.1595,-0.3280,13996.5127,3.1881,0.8337,0.7653,0.7568,0.7912,49.8320,21.6407,260.8143,334.7973,11.3555,0.0000,74.7141,248.7277,-12.0866
11.4000,hold,70.6910,65.3001,107.9997,68.4050,18.9758,-0.7458,21.8154,0.3324,0.0000,1.7067,1,7100.1033,2026.8433,5324.5653,2114.8210,4532.8266,0.0095,0.0118,0.0489,0.0571,-7.0140,-6.9856,-3.9316,-3.8129,-2.6419,20.9761,864.7600,2117.8669,1703.7655,4104.8995,1365.0214,2901.7409,0.7319,-72.4566,58.5718,-40.2538,56.0058,19.0542,27.8581,-25.0699,-21.7795,4.2009,-0.3266,13999.0562,3.1276,0.8406,0.7709,0.7641,0.7925,49.8380,21.7447,263.3375,339.2666,11.6768,0.0000,76.4701,251.1197,-12.2178
11.5000,hold,70.1373,67.1226,110.1749,68.7258,19.0645,-0.7635,21.9145,0.3333,0.0000,1.7518,1,7133.3805,2011.5680,5340.9094,2103.9391,4545.1370,0.0095,0.0117,0.0495,0.0566,-6.9879,-6.9583,-3.9750,-3.8550,-2.5807,20.8771,866.1426,2088.0294,1704.8563,4147.3254,1371.5935,2939.8788,0.7383,-73.0592,59.2443,-40.7662,56.4250,18.7693,27.4714,-24.7330,-21.4714,4.2416,-0.3248,14001.5534,3.0581,0.8475,0.7765,0.7710,0.7934,49.8444,21.8463,265.8160,343.7273,12.0028,0.0000,78.2567,253.4678,-12.3482
11.6000,hold,69.5130,68.9314,112.3602,69.0392,19.1512,-0.7809,22.0114,0.3343,0.0000,1.7960,1,7165.8425,1996.4909,5356.8693,2093.3406,4557.3043,0.0095,0.0117,0.0500,0.0562,-6.9619,-6.9310,-4.0176,-3.8963,-2.5033,20.7524,867.3176,2058.2727,1705.6367,4188.8857,1377.8042,2977.2351,0.7446,-73.6486,59.9086,-41.2758,56.8314,18.4365,27.0160,-24.3314,-21.1078,4.2817,-0.3228,14004.0050,2.9895,0.8543,0.7820,0.7777,0.7942,49.8507,21.9456,268.2488,348.1779,12.3333,0.0000,80.0731,255.7715,-12.4773
11.7000,hold,68.8183,70.7235,114.5553,69.3454,19.2358,-0.7982,22.1059,0.3352,0.0000,1.8402,1,7197.5160,1981.6165,5372.4569,2083.0148,4569.3229,0.0095,0.0117,0.0505,0.0557,-6.9358,-6.9036,-4.0597,-3.9371,-2.4310,20.5958,868.3201,2028.5814,1706.0910,4229.4888,1383.7186,3013.8949,0.7508,-74.2267,60.5619,-41.7788,57.2279,18.0753,26.5255,-23.8958,-20.7126,4.3211,-0.3208,14006.4112,2.9213,0.8610,0.7873,0.7842,0.7951,49.8569,22.0426,270.6362,352.6183,12.6682,0.0000,81.9192,258.0309,-12.6053
11.8000,hold,68.0532,72.4959,116.7600,69.6444,19.3185,-0.8154,22.1981,0.3362,0.0000,1.8845,1,7228.4220,1966.9482,5387.6777,2072.9568,4581.1892,0.0095,0.0116,0.0510,0.0552,-6.9097,-6.8762,-4.1014,-3.9775,-2.3647,20.4112,869.1760,1998.9544,1706.2679,4269.2134,1389.3873,3049.9382,0.7568,-74.7943,61.2030,-42.2734,57.6159,17.6944,26.0137,-23.4388,-20.2963,4.3598,-0.3188,14008.7719,2.8535,0.8675,0.7924,0.7906,0.7960,49.8630,22.1373,272.9783,357.0486,13.0076,0.0000,83.7947,260.2463,-12.7320
11.9000,hold,67.2180,74.2455,118.9742,69.9364,19.3991,-0.8326,22.2881,0.3371,0.0000,1.9290,1,7258.5776,1952.4889,5402.5360,2063.1624,4592.9001,0.0095,0.0116,0.0514,0.0547,-6.8837,-6.8490,-4.1427,-4.0175,-2.3040,20.2006,869.9051,1969.4006,1706.2060,4308.1203,1394.8434,3085.4098,0.7626,-75.3515,61.8314,-42.7591,57.9960,17.2981,25.4871,-22.9666,-19.8640,4.3977,-0.3169,14011.0874,2.7862,0.8739,0.7974,0.7968,0.7970,49.8691,22.2298,275.2754,361.4688,13.3513,0.0000,85.6996,262.4179,-12.8575
12.0000,hold,66.3131,75.9692,121.1976,70.2216,19.4779,-0.8496,22.3759,0.3381,0.0000,1.9737,1,7287.9977,1938.2417,5417.0360,2053.6277,4604.4523,0.0094,0.0116,0.0519,0.0543,-6.8580,-6.8221,-4.1837,-4.0573,-2.2484,19.9654,870.5236,1939.9346,1705.9338,4346.2462,1400.1091,3120.3329,0.7684,-75.8987,62.4471,-43.2356,58.3685,16.8889,24.9490,-22.4821,-19.4184,4.4349,-0.3150,14013.3578,2.7196,0.8801,0.8023,0.8028,0.7980,49.8752,22.3200,277.5276,365.8789,13.6994,0.0000,87.6338,264.5457,-12.9819
12.1000,hold,65.3393,77.6638,123.4299,70.4999,19.5548,-0.8666,22.4615,0.3390,0.0000,2.0188,1,7316.6958,1924.2098,5431.1816,2044.3490,4615.8428,0.0094,0.0115,0.0524,0.0538,-6.8327,-6.7956,-4.2244,-4.0968,-2.1975,19.7071,871.0454,1910.5734,1705.4732,4383.6142,1405.2002,3154.7181,0.7740,-76.4357,63.0499,-43.7027,58.7334,16.4684,24.4011,-21.9873,-18.9613,4.4713,-0.3131,14015.5832,2.6535,0.8863,0.8071,0.8087,0.7990,49.8812,22.4081,279.7350,370.2790,14.0516,0.0000,89.5974,266.6300,-13.1050
12.2000,hold,64.2971,79.3263,125.6709,70.7715,19.6298,-0.8836,22.5449,0.3400,0.0000,2.0642,1,7344.6843,1910.3959,5444.9764,2035.3228,4627.0687,0.0094,0.0115,0.0528,0.0533,-6.8079,-6.7695,-4.2649,-4.1360,-2.1509,19.4267,871.4831,1881.3353,1704.8425,4420.2396,1410.1284,3188.5686,0.7795,-76.9627,63.6399,-44.1605,59.0908,16.0379,23.8448,-21.4834,-18.4941,4.5070,-0.3113,14017.7637,2.5883,0.8924,0.8118,0.8145,0.8001,49.8872,22.4941,281.8979,374.6692,14.4079,0.0000,91.5903,268.6709,-13.2269
12.3000,hold,63.1875,80.9537,127.9205,71.0366,19.7029,-0.9004,22.6262,0.3410,0.0000,2.1100,1,7371.9752,1896.8029,5458.4240,2026.5456,4638.1270,0.0094,0.0114,0.0533,0.0529,-6.7836,-6.7440,-4.3051,-4.1749,-2.1083,19.1252,871.8480,1852.2383,1704.0577,4456.1332,1414.9029,3221.8836,0.7848,-77.4796,64.2170,-44.6089,59.4409,15.5986,23.2812,-20.9716,-18.0178,4.5420,-0.3096,14019.8995,2.5238,0.8984,0.8164,0.8201,0.8013,49.8933,22.5779,284.0162,379.0495,14.7684,0.0000,93.6126,270.6686,-13.3476
