time,phase,pos_x,pos_y,yaw_deg,speed_kph,vx_body,vy_body,yaw_rate_dps,throttle,brake,steer_deg,gear,rpm,fz_fl,fz_fr,fz_rl,fz_rr,sr_fl,sr_fr,sr_rl,sr_rr,sa_fl_deg,sa_fr_deg,sa_rl_deg,sa_rr_deg,fx_fl,fx_fr,fx_rl,fx_rr,fy_fl,fy_fr,fy_rl,fy_rr,lat_accel_g,susp_defl_fl_mm,susp_defl_fr_mm,susp_defl_rl_mm,susp_defl_rr_mm,susp_vel_fl,susp_vel_fr,susp_vel_rl,susp_vel_rr,roll_deg,pitch_deg,fz_total,understeer_deg,fc_util_fl,fc_util_fr,fc_util_rl,fc_util_rr,radius_m,yaw_rate_ref_dps,ke_total_kj,energy_engine_kj,energy_drag_kj,energy_brake_kj,energy_tire_loss_kj,energy_body_kj,integrator_err_kj
0.0000,accel,0.0000,0.0000,0.0000,0.0000,0.0000,0.0000,0.0000,0.0000,0.0000,0.0000,1,1000.0000,3776.8500,3776.8500,3090.1500,3090.1500,0.0000,0.0000,0.0000,0.0000,0.0000,0.0000,0.0000,0.0000,0.0000,0.0000,0.0000,0.0000,0.0000,0.0000,0.0000,0.0000,0.0000,0.0000,0.0000,0.0000,0.0000,0.0000,0.0000,0.0000,0.0000,0.0000,0.0000,13734.0000,0.0000,0.0000,0.0000,0.0000,0.0000,0.0000,0.0000,0.0000,0.0000,0.0000,0.0000,0.0000,0.0000,0.0000
0.1000,accel,0.0001,0.0000,0.0000,0.0322,-0.0211,0.0000,0.0000,0.0500,0.0000,0.0000,1,1239.2969,4157.6656,4157.6656,2711.3116,2711.3116,0.0011,0.0011,0.9903,0.9903,0.0000,0.0000,0.0000,0.0000,20.5340,20.5340,2500.1909,2500.1909,0.0000,0.0000,0.0000,0.0000,0.0000,2.3876,2.3876,0.6927,0.6927,144.1461,144.1461,-124.3991,-124.3991,0.0000,0.0373,13737.9543,0.0000,0.0049,0.0049,0.9221,0.9221,0.0000,0.0000,1.5193,3.1339,0.0000,0.0000,3.1421,-0.0082,-0.3225
0.2000,accel,0.0002,0.0000,0.0000,0.0640,-0.0107,0.0000,0.0000,0.1000,0.0000,0.0000,1,1291.4246,4358.9920,4358.9920,2511.1621,2511.1621,0.0015,0.0015,0.9786,0.9786,0.0000,0.0000,0.0000,0.0000,55.8682,55.8682,2336.0731,2336.0731,0.0000,0.0000,0.0000,0.0000,0.0000,2.7355,2.7355,1.8331,1.8331,221.1983,221.1983,-189.7304,-189.7304,0.0000,0.0199,13740.3080,0.0000,0.0128,0.0128,0.9303,0.9303,0.0000,0.0000,1.6585,6.7002,0.0000,0.0000,6.7168,-0.0166,-0.4700
0.3000,accel,0.0002,0.0000,0.0000,0.0659,-0.0102,0.0000,0.0000,0.1500,0.0000,0.0000,1,1379.1105,4358.5077,4358.5077,2511.0134,2511.0134,0.0015,0.0015,0.9779,0.9779,0.0000,0.0000,0.0000,0.0000,56.0055,56.0055,2336.0987,2336.0987,0.0000,0.0000,0.0000,0.0000,0.0000,3.0791,3.0791,2.1802,2.1802,217.5680,217.5680,-192.2518,-192.2518,0.0000,0.0198,13739.0421,0.0000,0.0128,0.0128,0.9303,0.9303,0.0000,0.0000,1.8903,10.2604,0.0000,0.0000,10.2858,-0.0254,-0.7106
0.4000,accel,0.0002,0.0000,0.0000,0.0679,-0.0096,0.0000,0.0000,0.2000,0.0000,0.0000,1,1504.5525,4359.9553,4359.9553,2509.3350,2509.3350,0.0015,0.0015,0.9790,0.9790,0.0000,0.0000,0.0000,0.0000,56.5476,56.5476,2334.4683,2334.4683,0.0000,0.0000,0.0000,0.0000,0.0000,3.1983,3.1983,2.3407,2.3407,216.9547,216.9547,-193.8777,-193.8777,0.0000,0.0189,13738.5808,0.0000,0.0130,0.0130,0.9303,0.9303,0.0000,0.0000,2.2459,13.8077,0.0000,0.0000,13.8417,-0.0340,-1.0749
0.5000,accel,0.0013,0.0000,0.0000,0.1104,0.0745,0.0000,0.0000,0.2500,0.0000,0.0000,1,1389.4570,3171.8171,3171.8171,3696.1077,3696.1077,0.0000,0.0000,-0.3619,-0.3619,0.0000,0.0000,0.0000,0.0000,-46.3937,-46.3937,-3638.9902,-3638.9902,0.0000,0.0000,0.0000,0.0000,0.0000,0.0301,0.0301,5.5182,5.5182,-161.8701,-161.8701,171.5043,171.5043,0.0000,-0.1209,13735.8496,0.0000,0.0146,0.0146,0.9845,0.9845,0.0000,0.0000,2.2387,17.5631,0.0000,0.0000,17.6061,-0.0430,-1.0766
0.6000,accel,0.0061,0.0000,0.0000,0.1908,0.0552,0.0000,0.0000,0.3000,0.0000,0.0000,1,1604.2834,3313.6962,3313.6962,3552.8099,3552.8099,-0.0001,-0.0001,-0.0012,-0.0012,0.0000,0.0000,0.0000,0.0000,-55.9223,-55.9223,-133.6800,-133.6800,0.0000,0.0000,0.0000,0.0000,0.0000,1.8847,1.8847,3.9065,3.9065,-134.5803,-134.5803,130.3029,130.3029,0.0000,-0.0446,13733.0123,0.0000,0.0169,0.0169,0.0376,0.0376,0.0000,0.0000,2.7626,20.9825,0.0000,0.0000,21.0317,-0.0492,-1.6067
0.7000,accel,0.0242,0.0000,0.0000,0.6389,0.2577,0.0000,0.0000,0.3500,0.0000,0.0000,1,1509.0588,2607.6498,2607.6498,4265.5046,4265.5046,-0.6512,-0.6512,-0.1679,-0.1679,0.0000,0.0000,0.0000,0.0000,-2568.9004,-2568.9004,-4173.9484,-4173.9484,0.0000,0.0000,0.0000,0.0000,0.0000,-2.6878,-2.6878,8.9892,8.9892,-303.6497,-303.6497,364.5485,364.5485,0.0000,-0.2573,13746.3089,0.0000,0.9851,0.9851,0.9785,0.9785,0.0000,0.0000,2.7265,25.0665,0.0000,0.0000,25.1126,-0.0461,-1.5675
0.8000,accel,0.0518,0.0000,0.0000,1.0452,0.2977,0.0000,0.0000,0.4000,0.0000,0.0000,1,1809.7185,3647.6496,3647.6496,3214.4127,3214.4127,-0.4635,-0.4635,0.9233,0.9233,0.0000,0.0000,0.0000,0.0000,-3548.4183,-3548.4183,2930.1494,2930.1494,0.0000,0.0000,0.0000,0.0000,0.0000,-0.5124,-0.5124,7.0605,7.0605,-22.0467,-22.0467,-26.1458,-26.1458,0.0000,-0.1669,13724.1246,0.0000,0.9728,0.9728,0.9116,0.9116,0.0000,0.0000,3.3092,28.2970,0.0000,0.0000,28.3232,-0.0261,-2.1302
0.9000,accel,0.0854,0.0000,0.0000,1.6488,0.4358,0.0000,0.0000,0.4500,0.0000,0.0000,1,1803.2176,3119.1518,3119.1518,3749.0823,3749.0823,-0.0265,-0.0265,0.8936,0.8936,0.0000,0.0000,0.0000,0.0000,-1506.5493,-1506.5493,3373.2932,3373.2932,0.0000,0.0000,0.0000,0.0000,0.0000,-4.2213,-4.2213,8.9378,8.9378,-146.5580,-146.5580,158.4818,158.4818,0.0000,-0.2900,13736.4681,0.0000,0.4830,0.4830,0.8998,0.8998,0.0000,0.0000,3.3871,32.1575,0.0000,0.0000,32.1016,0.0559,-2.1261
1.0000,accel,0.1330,0.0000,0.0000,2.0141,0.5467,0.0000,0.0000,0.5000,0.0000,0.0000,1,1835.4173,2802.6661,2802.6661,4070.2246,4070.2246,-0.2445,-0.2445,0.2100,0.2100,0.0000,0.0000,0.0000,0.0000,-2860.1442,-2860.1442,3933.7072,3933.7072,0.0000,0.0000,0.0000,0.0000,0.0000,-4.7174,-4.7174,8.5647,8.5647,-233.4433,-233.4433,290.6603,290.6603,0.0000,-0.2927,13745.7814,0.0000,1.0205,1.0205,0.9665,0.9665,0.0000,0.0000,3.6690,36.0083,0.0000,0.0000,35.8840,0.1243,-2.3396
1.1000,accel,0.1996,0.0000,0.0000,2.5775,0.7038,0.0000,0.0000,0.5500,0.0000,0.0000,1,1854.2424,3891.6245,3891.6245,2974.3793,2974.3793,0.5918,0.5918,-0.0646,-0.0646,0.0000,0.0000,0.0000,0.0000,3591.1508,3591.1508,-2572.1233,-2572.1233,0.0000,0.0000,0.0000,0.0000,0.0000,-3.9141,-3.9141,9.4386,9.4386,100.7172,100.7172,-111.7388,-111.7388,0.0000,-0.2943,13732.0075,0.0000,0.9228,0.9228,0.8648,0.8648,0.0000,0.0000,4.2209,39.8201,0.0000,0.0000,39.5752,0.2448,-2.7710
1.2000,accel,0.2802,0.0000,0.0000,3.3557,0.9143,0.0000,0.0000,0.6000,0.0000,0.0000,1,1794.8542,4307.7740,4307.7740,2564.1419,2564.1419,-0.0108,-0.0108,0.8147,0.8147,0.0000,0.0000,0.0000,0.0000,-916.1931,-916.1931,2414.9863,2414.9863,0.0000,0.0000,0.0000,0.0000,0.0000,-6.5379,-6.5379,12.0373,12.0373,293.3954,293.3954,-247.5326,-247.5326,0.0000,-0.4093,13743.8319,0.0000,0.2127,0.2127,0.9418,0.9418,0.0000,0.0000,4.5257,44.0729,0.0000,0.0000,43.5913,0.4815,-2.8392
1.3000,accel,0.3944,0.0000,0.0000,4.3077,1.1897,0.0000,0.0000,0.6000,0.0000,0.0000,1,1808.9317,3861.1730,3861.1730,3006.5108,3006.5108,0.4578,0.4578,-0.1686,-0.1686,0.0000,0.0000,0.0000,0.0000,3621.8841,3621.8841,-3046.7035,-3046.7035,0.0000,0.0000,0.0000,0.0000,0.0000,-7.8028,-7.8028,12.6107,12.6107,127.3702,127.3702,-125.2739,-125.2739,0.0000,-0.4498,13735.3675,0.0000,0.9380,0.9380,1.0134,1.0134,0.0000,0.0000,4.7893,47.8278,0.0001,0.0000,46.9631,0.8646,-2.7197
1.4000,accel,0.5141,0.0000,0.0000,4.5493,1.1865,0.0000,0.0000,0.6000,0.0000,0.0000,1,2305.9728,3849.0152,3849.0152,3018.0514,3018.0514,0.4557,0.4557,0.5406,0.5406,0.0000,0.0000,0.0000,0.0000,3612.6248,3612.6248,2874.1373,2874.1373,0.0000,0.0000,0.0000,0.0000,0.0000,-2.6536,-2.6536,6.0482,6.0482,71.0153,71.0153,-75.1009,-75.1009,0.0000,-0.1918,13734.1332,0.0000,0.9386,0.9386,0.9523,0.9523,0.0000,0.0000,6.7365,51.3890,0.0002,0.0000,50.4132,0.9755,-4.5559
1.5000,accel,0.6570,0.0000,0.0000,5.8661,1.6153,0.0000,0.0000,0.6000,0.0000,0.0000,1,2214.9788,2637.3974,2637.3974,4234.3127,4234.3127,-0.5918,-0.5918,0.7852,0.7852,0.0000,0.0000,0.0000,0.0000,-2610.9878,-2610.9878,3800.1536,3800.1536,0.0000,0.0000,0.0000,0.0000,0.0000,-11.2930,-11.2930,17.0488,17.0488,-233.7920,-233.7920,271.2505,271.2505,0.0000,-0.6246,13743.4201,0.0000,0.9900,0.9900,0.8975,0.8975,0.0000,0.0000,6.7519,56.0276,0.0003,0.0000,54.3363,1.6910,-3.8558
1.6000,accel,0.8289,0.0000,0.0000,6.3386,1.7664,0.0000,0.0000,0.6000,0.0000,0.0000,1,2478.2093,3626.6171,3626.6171,3238.3945,3238.3945,-0.6172,-0.6172,0.7543,0.7543,0.0000,0.0000,0.0000,0.0000,-3470.3547,-3470.3547,2995.3092,2995.3092,0.0000,0.0000,0.0000,0.0000,0.0000,-7.3396,-7.3396,12.6063,12.6063,28.8149,28.8149,-59.0975,-59.0975,0.0000,-0.4395,13730.0232,0.0000,0.9569,0.9569,0.9249,0.9249,0.0000,0.0000,8.3230,60.0259,0.0006,0.0000,58.0362,1.9890,-5.1289
1.7000,accel,1.0132,0.0000,0.0000,7.2519,1.9374,0.0000,0.0000,0.6000,0.0000,0.0000,1,2334.5932,3780.3218,3780.3218,3087.4393,3087.4393,0.4597,0.4597,0.5858,0.5858,0.0000,0.0000,0.0000,0.0000,3552.8621,3552.8621,2918.7438,2918.7438,0.0000,0.0000,0.0000,0.0000,0.0000,-7.6066,-7.6066,12.0863,12.0863,92.9301,92.9301,-98.5528,-98.5528,0.0000,-0.4340,13735.5223,0.0000,0.9398,0.9398,0.9454,0.9454,0.0000,0.0000,8.9249,65.0384,0.0009,0.0000,62.3896,2.6479,-5.0719
1.8000,accel,1.2305,0.0000,0.0000,8.4091,2.2586,0.0000,0.0000,0.6000,0.0000,0.0000,1,2498.2459,3867.0400,3867.0400,3002.6504,3002.6504,0.3719,0.3719,0.6704,0.6704,0.0000,0.0000,0.0000,0.0000,3669.0745,3669.0745,2821.6478,2821.6478,0.0000,0.0000,0.0000,0.0000,0.0000,-9.8064,-9.8064,14.6293,14.6293,149.5363,149.5363,-141.0277,-141.0277,0.0000,-0.5385,13739.3809,0.0000,0.9488,0.9488,0.9397,0.9397,0.0000,0.0000,10.0306,69.1270,0.0014,0.0000,65.5137,3.6119,-5.2136
1.9000,accel,1.4704,0.0000,0.0000,8.8072,2.4529,0.0000,0.0000,0.6000,0.0000,0.0000,1,2787.5188,3645.9638,3645.9638,3220.4074,3220.4074,-0.4687,-0.4687,0.6724,0.6724,0.0000,0.0000,0.0000,0.0000,-3544.7034,-3544.7034,3004.2230,3004.2230,0.0000,0.0000,0.0000,0.0000,0.0000,-7.4248,-7.4248,12.6349,12.6349,37.2362,37.2362,-64.6231,-64.6231,0.0000,-0.4421,13732.7424,0.0000,0.9722,0.9722,0.9329,0.9329,0.0000,0.0000,12.0503,73.3869,0.0020,0.0000,69.4165,3.9683,-6.8769
2.0000,accel,1.7332,0.0000,0.0000,10.0266,2.7175,0.0000,0.0000,0.6000,0.0000,0.0000,1,2770.3800,4941.2875,4941.2875,1940.3692,1940.3692,0.0598,0.0598,0.6515,0.6515,0.0000,0.0000,0.0000,0.0000,3778.9322,3778.9322,1909.7354,1909.7354,0.0000,0.0000,0.0000,0.0000,0.0000,-8.0903,-8.0903,14.5182,14.5182,561.9394,561.9394,-443.8871,-443.8871,0.0000,-0.4982,13763.3134,0.0000,0.7648,0.7648,0.9842,0.9842,0.0000,0.0000,13.1109,78.0565,0.0029,0.0000,72.8693,5.1843,-6.7216
2.1000,accel,2.0144,0.0000,0.0000,10.7886,2.9205,0.0000,0.0000,0.6000,0.0000,0.0000,1,2830.3082,3535.2517,3535.2517,3329.5513,3329.5513,0.2066,0.2066,0.0776,0.0776,0.0000,0.0000,0.0000,0.0000,3467.0725,3467.0725,2945.3746,2945.3746,0.0000,0.0000,0.0000,0.0000,0.0000,-7.6804,-7.6804,14.7047,14.7047,-3.3146,-3.3146,-48.3817,-48.3817,0.0000,-0.4933,13729.6059,0.0000,0.9807,0.9807,0.8846,0.8846,0.0000,0.0000,14.6250,82.9639,0.0039,0.0000,76.9437,6.0162,-7.4037
2.2000,accel,2.3270,0.0000,0.0000,11.5854,3.2209,0.0000,0.0000,0.6000,0.0000,0.0000,1,2789.8056,3473.1511,3473.1511,3391.9192,3391.9192,-0.1646,-0.1646,0.4198,0.4198,0.0000,0.0000,0.0000,0.0000,-3469.1655,-3469.1655,3239.8668,3239.8668,0.0000,0.0000,0.0000,0.0000,0.0000,-8.7914,-8.7914,16.3566,16.3566,-13.1999,-13.1999,-42.4781,-42.4781,0.0000,-0.5542,13730.1407,0.0000,0.9989,0.9989,0.9552,0.9552,0.0000,0.0000,16.0312,88.2553,0.0054,0.0000,81.2920,6.9579,-7.8682
2.3000,accel,2.6695,0.0000,0.0000,12.8259,3.5704,0.0000,0.0000,0.6000,0.0000,0.0000,1,2793.1271,2595.1432,2595.1432,4279.2029,4279.2029,-0.3083,-0.3083,0.0290,0.0290,0.0000,0.0000,0.0000,0.0000,-2666.3809,-2666.3809,2025.8681,2025.8681,0.0000,0.0000,0.0000,0.0000,0.0000,-11.8643,-11.8643,18.9709,18.9709,-242.2095,-242.2095,269.0917,269.0917,0.0000,-0.6795,13748.6922,0.0000,1.0275,1.0275,0.4734,0.4734,0.0000,0.0000,17.3731,93.6285,0.0073,0.0000,85.0522,8.5690,-7.5991
2.4000,accel,3.0378,0.0000,0.0000,13.6360,3.7885,0.0000,0.0000,0.6000,0.0000,0.0000,1,3124.7387,3367.1956,3367.1956,3499.4706,3499.4706,-0.3822,-0.3822,0.5487,0.5487,0.0000,0.0000,0.0000,0.0000,-3336.3106,-3336.3106,3279.8292,3279.8292,0.0000,0.0000,0.0000,0.0000,0.0000,-9.5079,-9.5079,16.8968,16.8968,-38.5217,-38.5217,-15.8584,-15.8584,0.0000,-0.5819,13733.3324,0.0000,0.9908,0.9908,0.9372,0.9372,0.0000,0.0000,20.0824,98.2258,0.0096,0.0000,88.5161,9.7000,-9.1773
2.5000,accel,3.4244,0.0000,0.0000,14.6160,3.9816,0.0000,0.0000,0.6000,0.0000,0.0000,1,3285.4364,3520.2933,3520.2933,3348.4177,3348.4177,0.1665,0.1665,0.6042,0.6042,0.0000,0.0000,0.0000,0.0000,3456.7763,3456.7763,3133.2975,3133.2975,0.0000,0.0000,0.0000,0.0000,0.0000,-9.4217,-9.4217,15.0939,15.0939,6.3580,6.3580,-46.2329,-46.2329,0.0000,-0.5402,13737.4219,0.0000,0.9820,0.9820,0.9358,0.9358,0.0000,0.0000,22.5370,103.7163,0.0124,0.0000,92.5217,11.1822,-10.1497
2.6000,accel,3.8446,0.0000,0.0000,15.6009,4.2821,0.0000,0.0000,0.6000,0.0000,0.0000,1,3359.5249,4964.8573,4964.8573,1920.6465,1920.6465,0.0306,0.0306,0.5797,0.5797,0.0000,0.0000,0.0000,0.0000,2423.0078,2423.0078,1906.6343,1906.6343,0.0000,0.0000,0.0000,0.0000,0.0000,-8.9683,-8.9683,16.3230,16.3230,579.5035,579.5035,-463.1036,-463.1036,0.0000,-0.5573,13771.0076,0.0000,0.4880,0.4880,0.9927,0.9927,0.0000,0.0000,24.7616,109.2610,0.0159,0.0000,96.4797,12.7655,-10.7911
2.7000,accel,4.2959,0.0000,0.0000,16.9140,4.6194,0.0000,0.0000,0.6000,0.0000,0.0000,1,3128.1362,3509.5595,3509.5595,3360.4880,3360.4880,0.1660,0.1660,0.4725,0.4725,0.0000,0.0000,0.0000,0.0000,3447.1446,3447.1446,3191.1460,3191.1460,0.0000,0.0000,0.0000,0.0000,0.0000,-10.8764,-10.8764,17.8353,17.8353,16.2889,16.2889,-62.7116,-62.7116,0.0000,-0.6327,13740.0949,0.0000,0.9822,0.9822,0.9496,0.9496,0.0000,0.0000,26.1538,115.3093,0.0202,0.0000,100.2429,15.0462,-9.9025
2.8000,accel,4.7754,0.0000,0.0000,17.5953,4.8093,0.0000,0.0000,0.6000,0.0000,0.0000,1,3531.9859,3992.7871,3992.7871,2881.2385,2881.2385,0.2822,0.2822,0.5596,0.5596,0.0000,0.0000,0.0000,0.0000,3827.6583,3827.6583,2750.9139,2750.9139,0.0000,0.0000,0.0000,0.0000,0.0000,-5.9331,-5.9331,14.1876,14.1876,160.0419,160.0419,-173.6978,-173.6978,0.0000,-0.4434,13748.0512,0.0000,0.9586,0.9586,0.9548,0.9548,0.0000,0.0000,29.6874,120.0585,0.0254,0.0000,103.7457,16.2874,-12.1949
2.9000,accel,5.2838,0.0000,0.0000,18.9861,5.2162,0.0000,0.0000,0.6000,0.0000,0.0000,1,3492.5293,3561.3021,3561.3021,3311.3483,3311.3483,0.0286,0.0286,0.4491,0.4491,0.0000,0.0000,0.0000,0.0000,1698.0979,1698.0979,3158.4969,3158.4969,0.0000,0.0000,0.0000,0.0000,0.0000,-11.3707,-11.3707,18.7400,18.7400,41.5836,41.5836,-83.5829,-83.5829,0.0000,-0.6635,13745.3008,0.0000,0.4768,0.4768,0.9538,0.9538,0.0000,0.0000,31.9618,126.0595,0.0316,0.0000,107.0166,19.0113,-11.7455
3.0000,accel,5.8141,0.0000,0.0000,19.3945,5.3932,0.0000,0.0000,0.6000,0.0000,0.0000,1,3893.2280,3605.2384,3605.2384,3267.8145,3267.8145,-0.2784,-0.2784,0.4920,0.4920,0.0000,0.0000,0.0000,0.0000,-3587.6849,-3587.6849,3104.5506,3104.5506,0.0000,0.0000,0.0000,0.0000,0.0000,-8.1602,-8.1602,15.3311,15.3311,26.9430,26.9430,-71.7903,-71.7903,0.0000,-0.5177,13746.1058,0.0000,0.9951,0.9951,0.9500,0.9500,0.0000,0.0000,36.1073,131.0842,0.0387,0.0000,111.2102,19.8354,-15.0668
3.1000,accel,6.3695,0.0000,0.0000,20.5660,5.6342,0.0000,0.0000,0.6000,0.0000,0.0000,1,3953.3265,3904.2528,3904.2528,2974.2929,2974.2929,0.1427,0.1427,0.5454,0.5454,0.0000,0.0000,0.0000,0.0000,3775.0820,3775.0820,2835.0999,2835.0999,0.0000,0.0000,0.0000,0.0000,0.0000,-8.4818,-8.4818,14.5407,14.5407,149.6084,149.6084,-150.1751,-150.1751,0.0000,-0.5073,13757.0913,0.0000,0.9669,0.9669,0.9532,0.9532,0.0000,0.0000,39.1475,137.6485,0.0467,0.0000,115.2539,22.3479,-15.5945
3.2000,accel,6.9580,0.0000,0.0000,21.6072,5.9226,0.0000,0.0000,0.6000,0.0000,0.0000,1,3862.3415,3820.4198,3820.4198,3058.4811,3058.4811,0.1481,0.1481,0.3811,0.3811,0.0000,0.0000,0.0000,0.0000,3708.4846,3708.4846,2967.9707,2967.9707,0.0000,0.0000,0.0000,0.0000,0.0000,-8.4284,-8.4284,14.2819,14.2819,115.3454,115.3454,-124.4828,-124.4828,0.0000,-0.5005,13757.8017,0.0000,0.9707,0.9707,0.9704,0.9704,0.0000,0.0000,42.1393,145.1604,0.0564,0.0000,120.3996,24.7044,-16.2298
3.3000,accel,7.5743,0.0000,0.0000,22.8854,6.2868,0.0000,0.0000,0.6000,0.0000,0.0000,1,3843.6875,4202.4618,4202.4618,2683.1293,2683.1293,0.0600,0.0600,0.3790,0.3790,0.0000,0.0000,0.0000,0.0000,3273.3776,3273.3776,2639.3510,2639.3510,0.0000,0.0000,0.0000,0.0000,0.0000,-11.3478,-11.3478,17.7077,17.7077,297.0943,297.0943,-256.4766,-256.4766,0.0000,-0.6403,13771.1822,0.0000,0.7789,0.7789,0.9837,0.9837,0.0000,0.0000,45.3198,152.5990,0.0674,0.0000,124.7748,27.7568,-16.3580
3.4000,accel,8.2199,0.0000,0.0000,23.6770,6.5759,0.0000,0.0000,0.6000,0.0000,0.0000,1,4047.6031,3300.3482,3300.3482,3577.8107,3577.8107,-0.1991,-0.1991,0.3942,0.3942,0.0000,0.0000,0.0000,0.0000,-3313.4277,-3313.4277,3410.7871,3410.7871,0.0000,0.0000,0.0000,0.0000,0.0000,-11.2605,-11.2605,17.5127,17.5127,-46.3158,-46.3158,0.4277,0.4277,0.0000,-0.6341,13756.3178,0.0000,1.0040,1.0040,0.9533,0.9533,0.0000,0.0000,49.4130,159.1648,0.0801,0.0000,129.3546,29.7301,-18.4778
3.5000,accel,8.8995,0.0000,0.0000,24.9444,6.9117,0.0000,0.0000,0.6000,0.0000,0.0000,1,4369.7771,2572.6998,2572.6998,4315.1904,4315.1904,-0.0984,-0.0984,0.4193,0.4193,0.0000,0.0000,0.0000,0.0000,-2561.8248,-2561.8248,4022.4345,4022.4345,0.0000,0.0000,0.0000,0.0000,0.0000,-11.8037,-11.8037,18.6117,18.6117,-250.5257,-250.5257,283.9894,283.9894,0.0000,-0.6703,13775.7802,0.0000,0.9958,0.9958,0.9322,0.9322,0.0000,0.0000,53.7440,164.8383,0.0949,0.0000,131.7046,33.0388,-19.5002
3.6000,accel,9.6097,0.0000,0.0000,26.0238,7.2315,0.0000,0.0000,0.6000,0.0000,0.0000,1,4160.6510,3487.0899,3487.0899,3395.1151,3395.1151,-0.1378,-0.1378,0.3675,0.3675,0.0000,0.0000,0.0000,0.0000,-3481.6935,-3481.6935,3266.2262,3266.2262,0.0000,0.0000,0.0000,0.0000,0.0000,-12.4212,-12.4212,18.5341,18.5341,20.9289,20.9289,-59.7599,-59.7599,0.0000,-0.6822,13764.4101,0.0000,0.9985,0.9985,0.9620,0.9620,0.0000,0.0000,57.0985,174.1894,0.1118,0.0000,138.0829,35.9947,-19.8988
3.7000,accel,10.3550,0.0000,0.0000,27.1906,7.5634,0.0000,0.0000,0.6000,0.0000,0.0000,1,4224.9393,3857.5842,3857.5842,3030.9852,3030.9852,-0.1594,-0.1594,0.3652,0.3652,0.0000,0.0000,0.0000,0.0000,-3812.9190,-3812.9190,2950.7078,2950.7078,0.0000,0.0000,0.0000,0.0000,0.0000,-12.4537,-12.4537,18.4050,18.4050,169.1633,169.1633,-163.1842,-163.1842,0.0000,-0.6800,13777.1387,0.0000,0.9884,0.9884,0.9735,0.9735,0.0000,0.0000,61.2784,181.7087,0.1314,0.0000,142.2449,39.3324,-20.7409
3.8000,accel,11.1310,0.0000,0.0000,28.0796,7.8060,0.0000,0.0000,0.6000,0.0000,0.0000,1,4522.4489,3643.9906,3643.9906,3242.8134,3242.8134,-0.1372,-0.1372,0.3892,0.3892,0.0000,0.0000,0.0000,0.0000,-3622.3735,-3622.3735,3124.6463,3124.6463,0.0000,0.0000,0.0000,0.0000,0.0000,-9.5743,-9.5743,15.1429,15.1429,54.7122,54.7122,-79.5959,-79.5959,0.0000,-0.5447,13773.6081,0.0000,0.9941,0.9941,0.9636,0.9636,0.0000,0.0000,66.3468,188.0437,0.1534,0.0000,145.9159,41.9744,-23.1674
3.9000,accel,11.9295,0.0000,0.0000,29.0656,8.1130,0.0000,0.0000,0.6000,0.0000,0.0000,1,4783.9045,3518.6838,3518.6838,3368.1482,3368.1482,-0.0030,-0.0030,-0.0737,-0.0737,0.0000,0.0000,0.0000,0.0000,-255.3883,-255.3883,-3025.7735,-3025.7735,0.0000,0.0000,0.0000,0.0000,0.0000,-10.6844,-10.6844,17.0326,17.0326,15.4035,15.4035,-57.5916,-57.5916,0.0000,-0.6108,13773.6640,0.0000,0.0726,0.0726,0.8983,0.8983,0.0000,0.0000,71.5884,195.0024,0.1774,0.0000,149.8303,44.9947,-25.3887
4.0000,accel,12.7595,0.0000,0.0000,30.2913,8.4144,0.0000,0.0000,0.6000,0.0000,0.0000,1,4940.9761,2830.0958,2830.0958,4063.2930,4063.2930,-0.1940,-0.1940,0.0503,0.0503,0.0000,0.0000,0.0000,0.0000,-2885.3249,-2885.3249,2887.4099,2887.4099,0.0000,0.0000,0.0000,0.0000,0.0000,-10.7025,-10.7025,17.7161,17.7161,-185.8171,-185.8171,190.1549,190.1549,0.0000,-0.6263,13786.7775,0.0000,1.0195,1.0195,0.7106,0.7106,0.0000,0.0000,76.3422,202.5126,0.2044,0.0000,153.4058,48.9023,-26.2348
4.1000,accel,13.6241,0.0000,0.0000,31.6211,8.7646,0.0000,0.0000,0.6000,0.0000,0.0000,1,4735.9924,3678.1061,3678.1061,3215.0434,3215.0434,-0.0225,-0.0225,0.3095,0.3095,0.0000,0.0000,0.0000,0.0000,-1524.0249,-1524.0249,3137.3153,3137.3153,0.0000,0.0000,0.0000,0.0000,0.0000,-12.2216,-12.2216,18.6670,18.6670,93.8971,93.8971,-113.7026,-113.7026,0.0000,-0.6807,13786.2991,0.0000,0.4144,0.4144,0.9758,0.9758,0.0000,0.0000,80.3787,212.8673,0.2349,0.0000,159.3010,53.3314,-25.8423
4.2000,accel,14.5195,0.0000,0.0000,32.7654,9.0322,0.0000,0.0000,0.6000,0.0000,0.0000,1,4883.1107,3400.7015,3400.7015,3491.1650,3491.1650,0.0510,0.0510,0.3464,0.3464,0.0000,0.0000,0.0000,0.0000,2480.4520,2480.4520,3359.5112,3359.5112,0.0000,0.0000,0.0000,0.0000,0.0000,-10.2141,-10.2141,16.9522,16.9522,-26.7278,-26.7278,-22.8624,-22.8624,0.0000,-0.5987,13783.7330,0.0000,0.7294,0.7294,0.9623,0.9623,0.0000,0.0000,85.7152,220.9067,0.2688,0.0000,163.3518,57.2861,-27.2241
4.3000,accel,15.4420,0.0000,0.0000,33.6523,9.2699,0.0000,0.0000,0.6000,0.0000,0.0000,1,5359.7671,3856.8221,3856.8221,3040.5947,3040.5947,0.1094,0.1094,0.4343,0.4343,0.0000,0.0000,0.0000,0.0000,3640.0040,3640.0040,2931.0644,2931.0644,0.0000,0.0000,0.0000,0.0000,0.0000,-8.2442,-8.2442,14.7088,14.7088,125.0740,125.0740,-135.8463,-135.8463,0.0000,-0.5058,13794.8338,0.0000,0.9438,0.9438,0.9640,0.9640,0.0000,0.0000,92.0144,226.7411,0.3058,0.0000,165.9852,60.4501,-30.3592
4.4000,accel,16.3969,0.0000,0.0000,35.0240,9.6577,0.0000,0.0000,0.6000,0.0000,0.0000,1,5138.9926,3519.9738,3519.9738,3377.2236,3377.2236,0.0553,0.0553,0.2138,0.2138,0.0000,0.0000,0.0000,0.0000,2677.7302,2677.7302,3325.0611,3325.0611,0.0000,0.0000,0.0000,0.0000,0.0000,-11.7052,-11.7052,18.0467,18.0467,24.5134,24.5134,-63.9715,-63.9715,0.0000,-0.6556,13794.3949,0.0000,0.7607,0.7607,0.9846,0.9846,0.0000,0.0000,96.1266,237.2771,0.3469,0.0000,171.4111,65.5191,-29.4024
4.5000,accel,17.3851,0.0000,0.0000,35.9611,9.9542,0.0000,0.0000,0.6000,0.0000,0.0000,1,5265.8031,3903.0532,3903.0532,2999.6785,2999.6785,0.0005,0.0005,0.2340,0.2340,0.0000,0.0000,0.0000,0.0000,-19.2685,-19.2685,2981.6433,2981.6433,0.0000,0.0000,0.0000,0.0000,0.0000,-9.9878,-9.9878,17.2063,17.2063,160.2286,160.2286,-166.2048,-166.2048,0.0000,-0.5993,13805.4633,0.0000,0.0049,0.0049,0.9940,0.9940,0.0000,0.0000,101.7438,245.7792,0.3924,0.0000,176.2963,69.0906,-31.4482
4.6000,accel,18.3979,0.0000,0.0000,37.1867,10.2589,0.0000,0.0000,0.6000,0.0000,0.0000,1,5540.4473,3552.1490,3552.1490,3350.2965,3350.2965,0.0570,0.0570,0.3747,0.3747,0.0000,0.0000,0.0000,0.0000,2743.7869,2743.7869,3224.1477,3224.1477,0.0000,0.0000,0.0000,0.0000,0.0000,-11.8543,-11.8543,17.6176,17.6176,38.1705,38.1705,-69.3542,-69.3542,0.0000,-0.6495,13804.8911,0.0000,0.7724,0.7724,0.9623,0.9623,0.0000,0.0000,107.6779,253.1147,0.4414,0.0000,178.7567,73.9167,-32.5561
4.7000,accel,19.4422,0.0000,0.0000,38.1154,10.5198,0.0000,0.0000,0.6000,0.0000,0.0000,1,5501.6830,3976.5061,3976.5061,2931.9524,2931.9524,0.0493,0.0493,0.2401,0.2401,0.0000,0.0000,0.0000,0.0000,2800.4081,2800.4081,2918.6258,2918.6258,0.0000,0.0000,0.0000,0.0000,0.0000,-9.9554,-9.9554,16.3552,16.3552,188.6048,188.6048,-180.2057,-180.2057,0.0000,-0.5798,13816.9169,0.0000,0.7042,0.7042,0.9955,0.9955,0.0000,0.0000,113.0910,262.8528,0.4951,0.0000,184.6797,77.6780,-34.2079
4.8000,accel,20.5163,0.0000,0.0000,39.1953,10.8826,0.0000,0.0000,0.6000,0.0000,0.0000,1,5608.2527,3568.6442,3568.6442,3338.6038,3338.6038,0.0324,0.0324,-0.0233,-0.0233,0.0000,0.0000,0.0000,0.0000,1886.1400,1886.1400,-1440.4846,-1440.4846,0.0000,0.0000,0.0000,0.0000,0.0000,-12.5415,-12.5415,18.8629,18.8629,50.8650,50.8650,-82.4210,-82.4210,0.0000,-0.6921,13814.4960,0.0000,0.5285,0.5285,0.4315,0.4315,0.0000,0.0000,118.7150,271.7670,0.5536,0.0000,189.0416,82.1718,-35.3382
4.9000,accel,21.6255,0.0000,0.0000,40.5795,11.2049,0.0000,0.0000,0.6000,0.0000,0.0000,1,5503.3928,3676.3542,3676.3542,3234.9132,3234.9132,0.0451,0.0451,0.1936,0.1936,0.0000,0.0000,0.0000,0.0000,2466.3583,2466.3583,3204.4213,3204.4213,0.0000,0.0000,0.0000,0.0000,0.0000,-12.5178,-12.5178,18.6641,18.6641,93.2930,93.2930,-111.0754,-111.0754,0.0000,-0.6872,13822.5347,0.0000,0.6709,0.6709,0.9906,0.9906,0.0000,0.0000,123.7644,281.9857,0.6180,0.0000,193.2503,88.1174,-34.4420
5.0000,entry,22.7653,0.0000,0.0000,41.6288,11.4971,0.0000,0.0000,0.3000,0.0000,0.0000,1,5601.9982,3694.1675,3694.1675,3219.3991,3219.3991,0.0436,0.0436,0.1922,0.1922,0.0000,0.0000,0.0000,0.0000,2422.7523,2422.7523,3190.8432,3190.8432,0.0000,0.0000,0.0000,0.0000,0.0000,-11.5479,-11.5479,17.7594,17.7594,90.3293,90.3293,-109.4634,-109.4634,0.0000,-0.6458,13827.1332,0.0000,0.6558,0.6558,0.9911,0.9911,0.0000,13.1747,129.7475,291.0723,0.6878,0.0000,197.6234,92.7611,-35.7814
5.1000,entry,23.9276,0.0044,0.1549,42.2260,11.6898,0.0916,5.0740,0.3000,0.0000,5.0922,1,5811.1119,3041.6472,3441.2762,3524.9052,3820.6155,0.0051,0.0033,0.2901,0.2583,-5.2148,-3.3775,-0.0579,-0.0573,-29.9006,-40.2479,3417.9282,3692.5376,2513.2260,1926.6956,0.0677,0.0970,0.3214,-10.2323,-7.2755,13.7203,16.1180,-131.4981,-38.4388,8.9498,103.2565,0.0990,-0.5217,13828.4441,4.2385,0.8263,0.5600,0.9697,0.9665,132.0022,13.3955,132.9525,296.0119,0.7619,0.0000,199.7865,95.4636,-36.2839
5.2000,entry,25.0985,0.0342,1.1460,42.5159,11.7540,0.1636,12.5066,0.3000,0.0000,1.3536,1,5912.5685,2800.8111,3937.4307,3127.9022,3964.7260,0.0006,0.0437,0.3462,0.3590,-0.4183,0.2620,-0.6492,-0.6318,-39.0742,2554.2010,3041.9142,3757.1953,864.6105,375.0560,50.1987,15.0673,0.1002,-15.8829,6.2576,2.2776,19.0714,-160.0112,9.2274,-25.3988,131.2327,0.7196,-0.3413,13830.8700,-0.5624,0.3090,0.6557,0.9726,0.9477,53.8478,13.4690,136.0000,301.9403,0.8377,0.0000,204.2681,96.8345,-37.9604
5.3000,entry,26.2846,0.0773,2.3569,43.0366,11.8952,-0.0015,12.7838,0.3000,0.0000,1.8227,1,5950.4763,2945.1640,4101.8331,2967.9894,3817.4424,0.0034,0.0962,0.3335,0.3534,-2.5000,-1.4128,-1.4683,-1.4288,-29.7681,3626.2521,2899.3235,3626.1478,1106.4606,157.7662,189.8106,130.0427,0.1269,-22.5311,13.4118,-4.0288,22.2165,-71.4197,3.2513,-26.2518,40.5764,1.1494,-0.3009,13832.4288,0.5078,0.3758,0.8849,0.9790,0.9505,53.3131,13.6309,138.9269,308.4412,0.9165,0.0000,208.2859,99.2388,-38.4831
5.4000,entry,27.4892,0.1342,3.6559,43.9775,12.1590,-0.1177,13.8751,0.3000,0.0000,0.5366,1,5762.9890,2753.9624,4076.3781,3017.8911,3988.7058,-0.0010,0.0519,0.2762,0.3154,-1.0154,-0.5020,-2.1659,-2.1022,-43.9577,2901.4579,2947.6349,3775.1794,598.3760,108.5248,369.7425,506.9826,0.1198,-30.1892,13.8744,-3.5334,29.0073,-71.6150,-8.5222,-15.9333,40.6129,1.4158,-0.4604,13836.9374,-1.3754,0.2179,0.7123,0.9844,0.9550,50.2092,13.9332,140.9527,316.6350,0.9993,0.0000,211.9722,103.6636,-36.0840
5.5000,entry,28.7097,0.2091,5.0083,44.1946,12.2912,-0.2221,13.7080,0.3000,0.0000,1.6269,1,5751.8187,2893.7410,4229.5510,2867.1051,3846.4460,0.0016,0.0941,-0.1156,-0.1397,-2.4452,-1.6347,-2.6384,-2.5615,-40.4204,3659.3678,-2669.2329,-3633.6021,803.5173,263.6367,629.5040,821.8068,0.1920,-30.5347,18.7395,-6.8961,29.5575,-29.3474,0.4950,-35.2016,-15.7723,1.5845,-0.3797,13836.8431,-0.5600,0.2780,0.8674,0.9565,0.9685,51.3743,14.0847,143.9472,323.4383,1.0855,0.0000,217.6697,104.6831,-38.0591
5.6000,entry,29.9401,0.3068,6.3841,44.5874,12.3922,-0.2801,13.9733,0.3000,0.0000,1.4138,1,5859.9037,2911.0611,4300.7950,2804.1737,3823.1504,0.0025,0.0997,-0.0568,-0.1638,-1.8915,-1.3128,-2.9408,-2.8531,-33.6989,3837.0242,-1668.7884,-3652.6292,736.6400,316.8374,745.4101,913.2352,0.2040,-30.8437,21.6042,-9.6057,29.0630,-22.2982,0.1980,-33.9862,-19.0553,1.6841,-0.3162,13839.1802,-1.2948,0.2533,0.8952,0.6518,0.9848,50.8130,14.2005,147.1572,329.3809,1.1742,0.0000,221.6478,106.5590,-39.3932
5.7000,entry,31.1835,0.4299,7.7799,45.0986,12.5361,-0.3394,14.3195,0.3000,0.0000,0.8875,1,5873.4902,2865.3975,4277.6737,2832.4222,3868.0168,0.0045,0.0964,-0.0701,-0.1453,-2.9249,-2.1062,-3.1897,-3.0952,-22.7318,3615.2957,-1950.4421,-3595.5560,1589.3064,735.4560,836.5785,835.4778,0.2995,-32.4907,22.0205,-10.7948,29.2784,-23.7321,-9.5910,-17.6503,-8.0034,1.7482,-0.3190,13843.5102,-0.6269,0.5547,0.8625,0.7493,0.9543,50.1599,14.3653,149.9520,335.7872,1.2662,0.0000,225.4892,109.0318,-39.7151
5.8000,entry,32.4323,0.5813,9.1924,45.5296,12.6011,-0.3581,14.6200,0.3000,0.0000,-0.0703,1,6163.8797,3716.2500,5130.8008,1988.7765,3025.9081,0.0078,0.0537,0.3349,0.1787,-4.4235,-3.1744,-3.2539,-3.1582,-4.4672,2461.7354,1996.9441,2865.8174,2021.7028,1472.6431,808.6270,1154.1887,0.4059,-31.1465,24.7681,-12.8430,28.2389,293.5768,300.2513,-244.1656,-241.2847,1.7927,-0.2399,13861.7354,0.5929,0.5440,0.5591,1.0833,1.0210,49.3838,14.4398,153.5367,339.9508,1.3601,0.0000,227.4574,111.1332,-41.1984
5.9000,entry,33.6913,0.7679,10.6299,46.1393,12.8012,-0.3385,14.6122,0.3000,0.0000,1.2010,1,5886.6197,2576.3613,4093.4885,3033.8355,4146.7674,-0.0032,0.0626,0.0362,-0.0498,-0.8870,-0.6657,-3.2026,-3.1049,-69.7956,3196.3136,900.5061,-2010.8019,1123.0280,911.6679,916.5988,1282.6513,0.3104,-34.4881,22.9969,-10.3840,32.0883,-92.3291,-69.4715,51.1546,71.6044,1.8475,-0.3658,13850.4527,-2.3774,0.4367,0.8120,0.4235,0.5752,50.1947,14.6691,155.3944,348.9372,1.4573,0.0000,233.3425,114.1374,-40.0519
6.0000,entry,34.9567,0.9875,12.0859,46.3772,12.8379,-0.3710,14.5014,0.3000,0.0000,2.2515,1,6237.5478,3698.6845,5149.6177,1975.9368,3040.0171,0.0098,0.0593,0.1753,0.3228,-6.6093,-4.7086,-3.2646,-3.1696,-1.5118,2154.5120,1943.3849,2928.1533,1225.1971,1099.0036,882.7602,979.7318,0.3161,-31.5866,27.4859,-14.4021,29.1347,290.5971,280.2455,-237.0780,-244.0320,1.8965,-0.2075,13864.2562,2.4418,0.3313,0.4697,1.0802,1.0157,50.7231,14.7111,159.2260,352.4308,1.5573,0.0000,235.5621,115.3115,-42.7095
6.1000,entry,36.2298,1.2406,13.5518,46.9457,12.9982,-0.3726,14.4785,0.3000,0.0000,3.8403,1,6218.9399,3472.3487,4931.3236,2194.0506,3264.1527,0.0165,0.0617,0.1156,0.3389,-9.2142,-6.5262,-3.2209,-3.1289,45.9983,1688.2111,1957.6453,3119.7377,1429.8860,1508.4586,894.2819,1030.2127,0.3660,-33.2618,26.9424,-13.2477,31.1892,216.5712,198.1193,-183.2663,-194.9290,1.9340,-0.2673,13861.8757,4.6953,0.4120,0.4591,0.9809,1.0065,51.4378,14.8949,161.8168,359.0511,1.6604,0.0000,239.2295,118.1612,-42.4505
6.2000,entry,37.5080,1.5291,15.0502,47.3924,13.1220,-0.3654,15.3713,0.3000,0.0000,-1.2174,1,6010.0874,2496.0336,4101.2823,3041.7829,4219.2781,0.0033,0.0022,0.1020,0.2570,-0.2392,-0.2339,-3.2964,-3.1952,60.7441,16.7653,2485.3155,3932.3310,1102.5778,1302.3606,1009.7234,888.9909,0.3135,-34.2841,27.4243,-13.9640,31.5157,-117.0871,-99.2191,89.3982,105.5995,1.9811,-0.2690,13858.3769,-3.0093,0.4424,0.3176,0.8819,0.9555,48.9116,15.0367,163.9957,367.6131,1.7665,0.0000,245.4117,120.4349,-42.3558
6.3000,entry,38.7885,1.8512,16.5543,47.7726,13.2336,-0.4178,14.7084,0.3000,0.0000,4.8495,1,6280.0111,3096.0453,4632.5303,2501.9026,3628.7978,0.0128,0.0104,0.1161,0.3358,-8.8671,-6.3251,-3.4141,-3.3151,10.2367,7.8710,2177.7209,3425.5954,1284.4847,1720.4630,924.4022,1048.5609,0.3612,-34.8993,28.0647,-14.5024,31.9227,82.0597,67.0128,-86.7379,-96.3755,2.0218,-0.2673,13859.2760,4.2315,0.4149,0.3714,0.9456,0.9872,51.5508,15.1646,167.4954,371.8221,1.8751,0.0000,247.5792,122.3679,-43.9225
6.4000,entry,40.0755,2.2086,18.0808,48.1397,13.3997,-0.4443,15.3423,0.3000,0.0000,1.4965,1,6196.4519,2490.2354,4144.9776,3007.4286,4221.0893,0.0034,0.0035,-0.0823,-0.0923,-2.2656,-1.7341,-3.5852,-3.4763,-24.3840,-33.2372,-2206.8255,-3247.6016,1563.4405,2048.5143,1031.2974,1252.9336,0.4293,-37.1634,27.1418,-13.9309,33.4463,-98.4896,-85.0285,74.6705,86.3632,2.0642,-0.3255,13863.7309,-1.5310,0.6279,0.4943,0.8100,0.8246,50.0412,15.3550,170.0401,379.2094,1.9875,0.0000,252.9557,124.2662,-44.5689
6.5000,entry,41.3611,2.6021,19.6202,48.7878,13.5162,-0.4496,15.1625,0.3000,0.0000,4.4227,1,6096.1106,2394.3621,4085.0298,3073.9461,4313.9761,0.0004,-0.0004,0.2027,0.0595,-1.6249,-1.2879,-3.5986,-3.4888,-35.7060,-61.8958,2902.2239,2234.2358,717.5764,970.7970,964.7627,1483.7273,0.3013,-38.1557,27.4819,-13.8943,34.4593,-118.9259,-104.7181,100.6344,113.1106,2.1068,-0.3442,13867.3142,-2.0873,0.3001,0.2381,0.9949,0.6217,51.0747,15.4884,172.3670,386.6152,2.1021,0.0000,256.8708,127.6423,-43.5197
6.6000,entry,42.6480,3.0338,21.1671,49.0497,13.5888,-0.4558,15.6169,0.3000,0.0000,1.1545,1,6431.1551,3112.3228,4770.0622,2385.1101,3600.6791,0.0096,0.0076,0.1173,0.3279,-7.4388,-5.3534,-3.5652,-3.4595,-7.2154,-20.9999,2072.2356,3397.8004,1640.3701,2302.5661,1069.8931,923.6123,0.4309,-36.6491,29.9351,-15.9398,33.1085,105.5065,102.7597,-110.4423,-113.4817,2.1372,-0.2632,13868.1743,2.8838,0.5271,0.4827,0.9778,0.9779,49.8551,15.5717,176.0127,390.3190,2.2201,0.0000,259.0822,129.0167,-45.7909
6.7000,entry,43.9340,3.5026,22.7226,49.2881,13.6969,-0.4530,15.4780,0.3000,0.0000,3.9063,1,6375.9145,2396.7769,4186.3093,2987.2646,4300.2403,0.0031,-0.0029,0.0251,-0.0612,3.8750,2.5578,-3.6390,-3.5248,-29.7519,-76.2899,420.8065,-2411.4813,577.4510,980.0652,1239.4664,1414.2039,0.3071,-37.1805,30.4771,-16.4713,33.3495,-125.4083,-97.3816,91.2976,118.2800,2.1713,-0.2598,13870.5911,-0.3655,0.2412,0.2348,0.4382,0.6501,50.7024,15.6955,178.5516,397.6426,2.3411,0.0000,265.0342,130.2674,-47.0792
6.8000,entry,45.2159,4.0106,24.3044,49.8450,13.8076,-0.4720,16.1419,0.3000,0.0000,-1.6633,1,6235.6496,3154.4070,4959.2559,2219.5805,3542.2731,0.0041,0.0057,0.2986,0.1207,1.7447,1.0532,-3.6896,-3.5747,-16.3013,68.1616,2194.6146,2984.2219,756.0035,1188.7093,909.0327,1381.9075,0.3085,-37.8749,31.0961,-16.8791,33.9051,134.2448,166.4738,-151.4058,-136.2374,2.2134,-0.2623,13875.5165,-2.2332,0.2397,0.2401,1.0702,0.9284,49.0102,15.8224,180.8369,405.8477,2.4647,0.0000,270.1395,133.2434,-46.3884
6.9000,entry,46.4949,4.5576,25.8818,50.1193,13.9256,-0.4855,15.7126,0.3000,0.0000,4.6784,1,6441.1385,2425.8507,4204.9904,2969.6019,4274.3295,0.0017,0.0033,-0.0235,-0.0321,-3.8662,-2.8777,-3.6771,-3.5659,-34.3609,-47.6436,-453.3583,-1049.1176,1273.9823,1850.5099,1207.6270,1586.9915,0.4307,-38.6058,31.4063,-17.1958,34.3621,-107.1871,-98.9479,90.9182,97.2297,2.2469,-0.2685,13874.7724,-0.2495,0.5254,0.4402,0.4344,0.4451,50.7792,15.9575,183.8527,410.3541,2.5917,0.0000,273.0589,134.7035,-47.9441
7.0000,entry,47.7678,5.1448,27.4802,50.5110,14.0496,-0.4911,15.9438,0.3000,0.0000,3.8571,1,6463.7423,2406.6764,4236.2958,2945.9871,4287.9109,-0.0010,0.0020,-0.0291,-0.1066,-1.8450,-1.4674,-3.6994,-3.5864,-37.4200,-52.1200,-628.2880,-3498.6527,1575.7849,2413.1695,1165.3177,1388.1123,0.4764,-39.7445,31.3211,-17.0100,35.3549,-104.6780,-89.5411,79.3078,92.4282,2.2813,-0.2949,13876.8702,-1.9867,0.6549,0.5698,0.4494,0.8778,50.4889,16.0997,186.5478,417.1662,2.7216,0.0000,277.6241,136.8204,-48.5223
7.1000,entry,49.0340,5.7704,29.0808,50.9767,14.1200,-0.5010,16.3883,0.3000,0.0000,-0.5353,1,6613.4400,3140.0083,5025.8271,2167.1687,3549.1608,-0.0014,0.0054,0.2552,0.2087,1.9615,1.1833,-3.7632,-3.6461,-50.3866,42.9146,2139.3877,3305.6747,359.2750,689.4639,887.2616,1312.1727,0.2368,-38.7421,33.1817,-18.5729,34.3970,136.6420,171.7314,-154.8330,-138.3347,2.3083,-0.2356,13882.1650,-2.1323,0.1155,0.1374,1.0687,1.0021,49.3654,16.1803,189.3334,421.8323,2.8545,0.0000,279.6128,139.3650,-48.7634
7.2000,entry,50.2917,6.4346,30.7000,51.5246,14.2647,-0.5266,16.7155,0.3000,0.0000,-2.6911,1,6460.4100,2273.9346,4153.9588,3038.4821,4417.4111,0.0002,0.0017,0.2118,0.2183,-2.7310,-2.1170,-3.8074,-3.6915,-34.0824,-56.7496,2865.9479,4032.0471,1528.1735,2324.8040,914.1242,1345.1207,0.4450,-41.2430,31.8600,-17.2913,36.5243,-132.1582,-117.1728,118.5784,131.9938,2.3458,-0.3153,13883.7866,-1.3255,0.6722,0.5598,0.9900,0.9622,48.8951,16.3461,191.2064,429.4772,2.9902,0.0000,284.1010,142.3860,-47.6153
7.3000,entry,51.5446,7.1404,32.3382,51.8763,14.3724,-0.5583,15.9676,0.3000,0.0000,9.2112,1,6611.7649,3222.1438,5046.1400,2141.6228,3479.4120,0.0280,0.0172,0.1201,0.2939,-12.7444,-9.1396,-3.8461,-3.7339,133.9344,74.6686,1860.9099,3284.3616,1190.9921,2022.4262,1236.9007,1291.0535,0.4177,-40.7423,33.9482,-19.1471,35.8737,189.0723,171.7653,-158.4878,-169.2676,2.3974,-0.2592,13889.3186,7.1520,0.3720,0.4011,1.0434,1.0143,51.5718,16.4696,194.3695,434.4688,3.1305,0.0000,287.0134,144.3249,-48.8395
7.4000,entry,52.7853,7.8872,33.9960,52.2050,14.4588,-0.5522,16.7368,0.3000,0.0000,-0.0384,1,6732.5558,3253.1221,5213.2135,1994.8190,3431.5352,0.0043,0.0070,0.2857,0.1599,-0.2079,-0.3740,-3.9059,-3.7853,149.5591,390.3160,1986.5421,3084.9680,592.2466,949.9714,923.5094,1352.9989,0.2780,-40.3498,35.6850,-20.5702,35.4048,197.3919,221.0810,-190.4227,-179.7539,2.4399,-0.2149,13892.6897,-3.5547,0.1878,0.1970,1.0982,0.9817,49.4975,16.5686,197.3719,440.1496,3.2737,0.0000,290.7086,146.1672,-49.9996
7.5000,entry,54.0106,8.6725,35.6512,52.6219,14.5801,-0.5612,16.8552,0.3000,0.0000,0.2681,1,6726.2750,3161.7887,5095.6892,2109.1661,3527.0398,0.0097,0.0100,0.1260,0.2968,-8.6539,-6.2735,-3.8731,-3.7570,-12.3106,2.5121,1863.6533,3323.8735,1474.6813,2396.8528,1266.3372,1049.8775,0.4490,-42.0845,34.7335,-19.6101,36.9890,177.9987,183.3786,-164.8325,-164.0054,2.4659,-0.2725,13893.6838,3.6487,0.4664,0.4704,1.0683,0.9883,49.5620,16.7076,199.7096,446.9795,3.4191,0.0000,295.0473,148.5131,-49.9914
7.6000,entry,55.2193,9.4974,37.3169,52.7489,14.6730,-0.5731,16.8673,0.3000,0.0000,1.7508,1,6658.2550,2311.8168,4263.0026,2942.8337,4373.5232,0.0067,0.0062,-0.1198,-0.0470,-9.0726,-6.5757,-3.9000,-3.7834,-21.6008,-38.2531,-2552.1564,-1745.5611,1826.4021,3144.8747,1232.3973,1717.1440,0.5741,-42.8924,34.7092,-19.5876,37.5808,-110.0514,-106.8672,102.2354,102.8268,2.4909,-0.2884,13891.1763,3.9824,0.7901,0.7378,0.9631,0.5599,49.8420,16.8140,201.9709,454.3633,3.5669,0.0000,301.5767,149.2197,-51.5462
7.7000,entry,56.4123,10.3629,39.0032,53.2748,14.8271,-0.6060,16.3901,0.3000,0.0000,10.0000,1,6582.0562,2199.4287,4189.4969,3023.9269,4483.1486,0.0090,0.0092,-0.0956,-0.1267,-9.7357,-7.0669,-4.0028,-3.8833,-13.3397,-13.4243,-2334.1490,-3808.1110,1074.6065,2001.1324,1116.2441,1651.1374,0.4238,-45.9646,32.9644,-17.9819,40.1900,-120.4107,-115.5984,118.2117,120.1811,2.5340,-0.3879,13896.0011,4.4583,0.4886,0.4777,0.8556,0.9258,51.8319,16.9906,204.1622,461.3908,3.7179,0.0000,305.4658,152.2071,-50.7501
7.8000,entry,57.5905,11.2682,40.6806,53.4766,14.8661,-0.6181,17.4304,0.3000,0.0000,-3.8557,1,6685.6487,2308.9947,4340.6075,2877.3499,4367.2983,-0.0056,0.0003,-0.0863,-0.0349,-5.4492,-4.0864,-4.0690,-3.9458,-48.7649,-65.0261,-2080.3270,-1123.5935,2028.8331,3437.4480,1261.8905,1730.5079,0.6149,-43.4880,35.7228,-20.2362,38.1853,-106.8456,-92.1760,82.0194,93.7842,2.5438,-0.2833,13894.2504,0.7604,0.8789,0.7921,0.8456,0.4724,48.8668,17.0354,206.6818,467.1515,3.8727,0.0000,309.9108,153.3680,-52.1087
7.9000,entry,58.7455,12.2123,42.3673,53.7128,14.9351,-0.5911,16.8857,0.3000,0.0000,6.8574,1,6762.1916,2286.6427,4379.5106,2847.4848,4382.7030,-0.0015,0.0031,-0.0642,-0.0672,1.6795,0.9190,-3.9878,-3.8646,-37.6970,-21.7286,-1628.8347,-2551.8318,588.6455,1063.5380,1125.5056,1748.1743,0.3299,-43.7059,36.6720,-21.2690,37.9483,-111.7600,-87.9258,80.2234,102.1383,2.5801,-0.2613,13896.3411,-2.6269,0.2580,0.2429,0.6953,0.7058,50.6768,17.1143,209.2331,472.9036,4.0293,0.0000,314.1643,154.7100,-53.3180
8.0000,hold,59.8790,13.1966,44.0858,54.2937,15.0782,-0.6363,16.8856,0.3000,0.0000,10.0000,1,6658.8058,2142.9103,4228.1383,3000.9556,4530.1269,0.0031,0.0050,-0.0207,-0.0254,-6.2448,-4.6514,-4.1015,-3.9776,-28.2321,-41.0631,-341.1203,-706.2504,1100.8154,1850.0713,1377.5683,1930.1909,0.4551,-46.5376,35.2748,-19.8382,40.4849,-132.7829,-121.3781,126.9199,135.3573,2.6270,-0.3516,13902.1311,1.4085,0.5139,0.4377,0.4729,0.4537,51.1632,17.2784,211.2198,480.3728,4.1888,0.0000,318.1015,158.0824,-51.9324
8.1000,hold,60.9917,14.2204,45.8171,54.5455,15.1709,-0.6519,17.2443,0.3010,0.0000,5.5052,1,6726.8377,2210.8749,4350.6152,2885.4790,4454.8314,-0.0024,0.0023,-0.0812,-0.0891,-1.5963,-1.4203,-4.1689,-4.0413,-41.6043,-49.1959,-1974.7779,-3160.3483,1206.3020,2028.7571,1314.9632,1708.1259,0.4560,-46.8150,36.2852,-20.5194,40.7415,-111.5018,-93.7202,87.2921,102.4243,2.6682,-0.3388,13901.8005,-2.5968,0.5459,0.4665,0.8222,0.8064,50.4069,17.3846,213.8434,486.5277,4.3519,0.0000,322.6263,159.5495,-53.0889
8.2000,hold,62.0807,15.2822,47.5511,54.9032,15.2630,-0.6743,17.1173,0.3019,0.0000,9.6888,1,6755.9677,2279.6994,4364.8500,2864.8360,4393.4872,0.0202,0.0133,-0.1009,-0.0380,-13.0379,-9.4239,-4.1759,-4.0526,36.7534,13.3004,-2255.3584,-1251.3781,1409.4232,2633.6441,1312.5789,1807.4488,0.5185,-47.0806,36.8977,-20.9549,40.9392,-90.0594,-94.1471,83.1405,75.6603,2.6961,-0.3324,13902.8726,7.1167,0.6185,0.6034,0.9109,0.5004,51.0888,17.4901,216.2963,492.6689,4.5178,0.0000,326.5071,161.6440,-53.4472
8.3000,hold,63.1421,16.3827,49.2856,55.1812,15.3002,-0.6419,17.4244,0.3029,0.0000,4.9289,1,6742.8428,2234.8119,4444.9738,2801.5145,4422.8884,-0.0046,0.0008,0.1979,0.0113,4.0015,2.5012,-4.1361,-4.0076,-46.2350,-65.6158,2620.8440,69.6053,1020.9605,2047.4933,969.4143,2158.1826,0.4515,-46.0033,38.6055,-22.5850,39.6998,-110.6255,-83.4990,74.0158,99.7181,2.7150,-0.2701,13904.1887,-0.8205,0.4573,0.4609,0.9975,0.4882,50.3108,17.5327,218.4324,499.3320,4.6864,0.0000,331.3627,163.2828,-53.9445
8.4000,hold,64.1737,17.5213,51.0437,55.4370,15.3590,-0.6568,17.7890,0.3038,0.0000,-0.4213,1,7047.3380,3198.9530,5375.3686,1872.0008,3467.5676,0.0032,0.0073,0.2443,0.1851,-5.9164,-4.4291,-4.1440,-4.0180,-42.4455,-18.8502,1857.4086,3159.9096,1232.5852,1907.6821,892.2483,1527.4727,0.4043,-45.4339,40.3713,-24.0167,39.1661,224.9799,237.4946,-202.5950,-198.0246,2.7537,-0.2227,13913.8899,1.0918,0.3855,0.3549,1.1007,1.0122,49.4690,17.6001,221.6124,502.7261,4.8575,0.0000,333.0705,164.7980,-55.6093
8.5000,hold,65.1819,18.6980,52.8107,55.9819,15.5107,-0.7307,17.9271,0.3048,0.0000,0.2217,1,6995.8827,3063.1271,5251.0602,1998.4178,3602.5378,0.0140,0.0119,0.2709,0.1303,-11.3460,-8.2860,-4.3714,-4.2405,6.9305,5.9114,1970.5144,2978.6632,1741.0415,3192.6553,1086.6773,1686.2002,0.5581,-47.6994,39.2303,-22.6507,41.4075,193.0236,198.9000,-176.5341,-175.7733,2.7906,-0.3000,13915.1428,5.5101,0.5684,0.6080,1.1260,0.9501,49.5727,17.7739,223.7652,509.9280,5.0330,0.0000,336.8329,168.0621,-54.4981
8.6000,hold,66.1579,19.9082,54.5830,56.0414,15.5229,-0.7005,17.9190,0.3057,0.0000,0.6197,1,6866.6730,3000.2523,5264.2630,1994.8234,3654.3357,-0.0029,0.0040,0.2726,0.1288,0.9250,0.3060,-4.3114,-4.1781,-73.6294,137.5076,1970.0584,3016.4350,593.2817,1354.8124,1097.7681,1860.1593,0.3575,-45.9063,41.9813,-25.3937,39.2883,149.9223,176.6510,-157.9894,-145.8579,2.8199,-0.1963,13913.6743,-3.6293,0.1993,0.2587,1.1306,0.9698,49.6342,17.7879,225.7886,517.9664,5.2103,0.0000,344.3536,168.4026,-56.1810
8.7000,hold,67.0991,21.1552,56.3694,56.4574,15.6285,-0.6923,18.2397,0.3067,0.0000,-2.9741,1,7081.3080,2191.8946,4477.8688,2782.9465,4459.6360,-0.0007,0.0036,0.2873,0.2583,0.9092,0.3067,-4.2574,-4.1263,-34.0280,93.0104,2664.2102,4064.3210,1041.2404,1702.5112,1008.3852,1669.6099,0.3950,-47.7895,41.1306,-24.6558,40.7867,-110.5581,-92.5659,86.3957,102.6459,2.8530,-0.2511,13912.3459,-3.5839,0.4753,0.3808,1.0236,0.9853,49.0933,17.9090,228.4756,522.2585,5.3901,0.0000,345.9537,170.9147,-56.3558
8.8000,hold,68.0068,22.4390,58.1374,56.6337,15.7473,-0.7145,17.7912,0.3076,0.0000,7.5482,1,6975.2276,2213.2694,4456.5453,2799.9083,4444.7947,0.0119,0.0096,-0.0671,-0.0669,-11.9783,-8.7008,-4.2622,-4.1351,-6.0045,-20.1295,-1611.2589,-2480.0916,1755.1709,3420.8765,1375.9850,1814.7554,0.6050,-49.2059,39.9911,-23.5829,42.1095,-94.4919,-90.6768,82.1197,83.1505,2.8627,-0.3057,13914.5177,6.1409,0.7930,0.7676,0.7568,0.6914,50.7133,18.0451,230.2255,530.1460,5.5735,0.0000,352.6073,171.9651,-57.0553
8.9000,hold,68.8771,23.7565,59.9356,57.0432,15.8038,-0.7163,17.7754,0.3086,0.0000,8.9988,1,7173.8971,2918.1809,5127.9792,2126.1655,3746.8788,0.0225,0.0167,0.1420,0.2633,-13.1185,-9.5027,-4.2240,-4.1007,63.6311,61.7748,1908.6247,3480.1998,1669.1944,3145.0588,1291.1373,1754.7339,0.5694,-48.9232,41.3487,-24.8658,41.6209,146.7440,127.9448,-124.7898,-136.6336,2.8973,-0.2681,13919.2044,7.1482,0.5724,0.6134,1.0838,1.0402,50.9407,18.1098,233.0055,534.5596,5.7592,0.0000,354.3398,174.4606,-57.3399
9.0000,hold,69.7110,25.1085,61.7467,57.4202,15.9087,-0.7402,18.0413,0.3095,0.0000,6.3754,1,7136.6225,3079.0104,5357.6957,1909.3744,3580.1903,0.0250,0.0177,0.1067,0.2684,-13.1669,-9.5490,-4.3215,-4.1933,91.2607,80.4141,1533.9317,3337.3028,1166.5848,2352.6778,1374.5423,1351.0386,0.4538,-49.9719,41.4294,-24.5975,42.7934,221.3657,218.8265,-188.8585,-192.8460,2.9349,-0.2946,13926.2709,7.1005,0.3800,0.4394,1.0787,1.0056,50.5229,18.2300,235.0380,541.3544,5.9483,0.0000,358.6300,176.7761,-57.0568
9.1000,hold,70.5071,26.4919,63.5750,57.5843,15.9528,-0.7356,18.7860,0.3105,0.0000,-6.1185,1,7141.9084,2976.5178,5350.1091,1929.3022,3669.2284,-0.0021,0.0041,0.2643,0.1284,-1.9184,-1.6932,-4.3560,-4.2223,-51.9961,-29.7270,1907.6500,3015.7140,1664.7513,2860.1109,1080.4790,1862.0700,0.5441,-49.1893,43.4282,-26.3906,41.7881,172.4605,195.7215,-170.4448,-160.3137,2.9719,-0.2331,13925.1576,-2.4833,0.5596,0.5346,1.1364,0.9659,48.6548,18.2806,237.2467,547.7408,6.1400,0.0000,363.8140,177.7868,-58.2549
9.2000,hold,71.2639,27.9063,65.3803,57.8781,16.0837,-0.7856,17.5452,0.3114,0.0000,10.0000,1,7024.2029,2028.9748,4348.5744,2923.6757,4624.3399,0.0158,0.0110,0.0168,-0.0912,-13.3071,-9.6852,-4.4487,-4.3172,8.5418,-12.0605,139.1365,-3228.0573,1500.8695,3005.5093,1551.1611,1657.8288,0.5577,-51.6214,41.4078,-24.4135,44.1076,-130.3480,-132.0997,138.9790,134.0337,2.9859,-0.3295,13925.5649,7.1132,0.7397,0.6912,0.5327,0.7847,52.5230,18.4306,239.0637,555.8220,6.3347,0.0000,369.9059,179.5814,-58.2772
9.3000,hold,71.9787,29.3496,67.2226,58.0468,16.1294,-0.7602,18.0677,0.3124,0.0000,10.0000,1,7118.3667,2078.8878,4508.7716,2777.6255,4559.8783,-0.0030,0.0027,0.0062,-0.1009,0.1060,-0.2986,-4.4176,-4.2818,-136.0059,33.9723,-16.3175,-3397.6674,1286.9141,2282.4437,1590.5367,2129.0392,0.5313,-51.4179,42.9098,-25.9986,43.4543,-117.6010,-97.1174,96.2833,114.6554,3.0271,-0.2861,13925.1633,-4.2534,0.6225,0.5063,0.5727,0.8793,51.1492,18.4829,241.5129,561.2385,6.5318,0.0000,374.0825,180.6242,-59.6836
9.4000,hold,72.6500,30.8230,69.0530,58.5734,16.2230,-0.7575,18.9031,0.3133,0.0000,-2.6520,1,7196.1918,2413.3770,4813.7258,2467.2149,4227.2648,0.0062,0.0069,0.2019,0.2653,-9.5897,-7.0548,-4.3519,-4.2211,-25.2715,-39.1041,2327.4713,3870.6689,1909.0458,3633.3309,1119.2228,1929.4050,0.6227,-52.5286,42.0078,-25.4007,44.1973,-14.2258,-3.6718,-24.3764,-18.6336,3.0336,-0.3230,13921.5825,4.0357,0.7911,0.7548,1.0468,1.0231,49.1725,18.5902,243.4439,566.8277,6.7320,0.0000,376.1628,183.9329,-58.3060
9.5000,hold,73.2762,32.3240,70.9089,58.5793,16.2736,-0.7928,18.2673,0.3143,0.0000,9.8343,1,7187.9608,2112.0730,4542.6064,2745.3158,4527.6385,0.0065,0.0058,-0.0299,-0.0589,-6.7837,-5.1299,-4.4799,-4.3445,-17.2373,-38.4278,-526.3690,-2149.1587,1385.7312,2615.2199,1359.5187,2084.5302,0.5414,-51.6489,44.4201,-27.0119,43.7415,-106.6675,-98.4366,93.0761,98.4708,3.0833,-0.2640,13927.6336,1.5446,0.6562,0.5758,0.5310,0.6613,51.0424,18.6481,245.8273,573.6760,6.9350,0.0000,382.8002,183.9409,-60.6814
9.6000,hold,73.8602,33.8517,72.7782,58.9632,16.3316,-0.8277,18.7286,0.3152,0.0000,2.7298,1,7343.1335,2952.8891,5388.0758,1903.6461,3689.1664,0.0185,0.0151,0.1615,0.2340,-10.1615,-7.5159,-4.5850,-4.4471,52.8195,69.4907,1754.6774,3381.9906,1268.2927,2308.6975,1258.7595,1621.0870,0.4698,-51.0831,46.1270,-28.2671,43.3364,181.2188,183.1924,-165.1515,-166.4567,3.1201,-0.2206,13933.7773,4.3226,0.4299,0.4287,1.1344,1.0166,49.9630,18.7147,248.3915,578.6363,7.1413,0.0000,385.1294,186.3656,-60.8208
9.7000,hold,74.3958,35.4029,74.6483,59.1784,16.3971,-0.7934,19.2613,0.3162,0.0000,-5.5081,1,7185.3408,2922.5761,5379.4741,1916.0652,3717.5155,0.0113,0.0106,0.1019,0.2671,-9.7341,-7.1814,-4.4537,-4.3196,-4.6514,0.1343,1482.4453,3443.0066,2026.4517,3730.3321,1408.9934,1567.5031,0.6334,-51.7569,46.1246,-28.5299,43.4980,175.7091,179.6534,-159.8577,-159.6421,3.1404,-0.2270,13935.6308,4.0711,0.6934,0.6934,1.0674,1.0176,48.7760,18.7897,249.7484,586.6617,7.3498,0.0000,391.5885,187.7234,-60.8199
9.8000,hold,74.8849,36.9783,76.5118,59.3843,16.5062,-0.8515,18.3386,0.3171,0.0000,10.0000,1,7251.8527,2082.9617,4522.3514,2770.0903,4558.5060,0.0252,0.0145,-0.0943,-0.0617,-13.4681,-9.8414,-4.6050,-4.4691,64.6167,24.0852,-2019.4646,-2234.8148,1483.4789,3165.7005,1480.0098,2120.1075,0.5977,-53.3709,45.1733,-27.5277,44.9759,-103.0095,-109.9281,107.4626,97.7928,3.1614,-0.2826,13933.9094,7.1177,0.7129,0.7000,0.9038,0.6758,51.5706,18.9147,252.0463,592.4156,7.5615,0.0000,395.8454,189.0087,-61.8325
9.9000,hold,75.3238,38.5751,78.4052,59.7168,16.5572,-0.8346,18.7064,0.3181,0.0000,7.7800,1,7205.5230,2063.2017,4658.1656,2654.5439,4558.0886,0.0018,0.0045,0.1227,-0.0130,5.2978,3.2715,-4.6302,-4.4861,-29.6231,-41.3864,2152.3135,-234.4227,836.2376,1580.2307,1183.2996,2490.9239,0.4436,-53.3874,46.3696,-28.5562,44.9040,-108.6070,-79.7386,71.3831,98.1985,3.2015,-0.2575,13933.9997,-0.2735,0.4056,0.3394,0.9253,0.5489,50.7129,18.9731,253.8897,599.3675,7.7757,0.0000,400.4605,191.1313,-61.5534
10.0000,hold,75.7124,40.1906,80.2882,59.9339,16.6032,-0.8801,18.6259,0.3190,0.0000,10.0000,1,7322.6613,2946.4487,5387.8965,1907.8277,3698.5314,0.0237,0.0166,0.2474,0.1361,-13.5639,-9.9350,-4.6704,-4.5340,71.8048,56.9045,1867.9759,3039.3506,1621.7659,3395.3198,1181.1887,1983.8016,0.5929,-52.6798,47.4143,-29.3624,44.3379,194.0788,169.7168,-156.7021,-171.5029,3.2122,-0.2230,13940.7043,7.1472,0.5510,0.6303,1.1584,0.9813,51.0738,19.0259,256.0809,604.7135,7.9921,0.0000,404.2094,192.5119,-62.3639
10.1000,hold,76.0505,41.8257,82.1895,60.1677,16.6691,-0.8733,19.4382,0.3200,0.0000,-3.0837,1,7464.0820,2860.0656,5377.7027,1928.6926,3774.8108,0.0210,0.0167,0.1147,0.2635,-13.3305,-9.7536,-4.6712,-4.5318,48.3461,61.8141,1560.6930,3473.3710,2018.3999,4028.6525,1392.5695,1644.1273,0.6573,-53.1702,47.7639,-29.6390,44.6417,164.3016,162.0155,-148.9022,-152.0169,3.2384,-0.2249,13941.2718,6.9406,0.7059,0.7492,1.0845,1.0180,49.1336,19.1014,258.2428,609.8286,8.2117,0.0000,407.5987,194.0182,-63.0195
10.2000,hold,76.3349,43.4776,84.1011,60.4083,16.7347,-0.8726,19.5423,0.3210,0.0000,-3.6040,1,7345.7144,2873.2924,5450.3397,1865.5006,3754.9457,0.0065,0.0094,0.2491,0.1269,-7.3501,-5.5778,-4.6826,-4.5407,-24.9673,0.7584,1831.0926,2999.7099,1909.9388,3495.8309,1176.6310,2072.7968,0.6292,-53.6809,48.3874,-30.2287,44.8415,174.5701,184.7061,-162.8829,-159.2572,3.2740,-0.2193,13944.0784,1.8523,0.6648,0.6414,1.1667,0.9710,49.0642,19.1766,259.7775,617.5820,8.4338,0.0000,413.5840,195.5642,-63.0083
10.3000,hold,76.5666,45.1453,86.0224,60.8547,16.8434,-0.9032,19.4946,0.3219,0.0000,-0.5028,1,7407.3841,1975.1174,4608.6261,2713.6249,4645.0339,0.0013,0.0005,0.2323,0.2594,-2.4719,-2.1997,-4.7828,-4.6367,-28.2578,-68.7077,2542.2256,4171.7269,1007.9625,1992.2428,1032.7925,1882.8175,0.4312,-55.7203,47.4178,-29.1389,46.7944,-117.5168,-101.7865,99.9892,113.2192,3.3097,-0.2860,13942.4022,-2.3740,0.5105,0.4325,1.0112,0.9853,49.5038,19.3011,261.9688,623.7429,8.6589,0.0000,416.6187,198.4652,-62.2985
10.4000,hold,76.7459,46.8265,87.9397,61.0770,16.9143,-0.9534,18.9292,0.3229,0.0000,10.0000,1,7483.1207,2808.7838,5347.6978,1964.1928,3826.2992,0.0280,0.0208,0.1162,0.2641,-13.7563,-10.1216,-4.8673,-4.7249,106.7388,126.3092,1571.6806,3501.9697,1267.7480,2641.4985,1336.0467,1705.0857,0.5056,-55.7965,48.0589,-29.4893,47.0250,169.5588,146.5701,-140.3571,-154.8574,3.3337,-0.2785,13946.9737,7.1428,0.4529,0.4945,1.0502,1.0180,51.1971,19.3824,264.1970,629.6804,8.8869,0.0000,420.8953,199.8982,-63.0938
10.5000,hold,76.8717,48.5189,89.8665,61.2420,16.9638,-0.9759,19.3299,0.3238,0.0000,4.9443,1,7513.8506,2835.3253,5424.6907,1895.1365,3793.9447,0.0227,0.0150,0.2450,0.1224,-13.8070,-10.1700,-4.9567,-4.8098,58.8991,30.3293,1842.2015,2924.3903,1752.1973,3721.2609,1223.0010,2147.7012,0.6403,-55.5502,48.8449,-30.1417,46.7307,177.6110,169.4060,-155.5356,-162.1075,3.3503,-0.2567,13949.0972,7.1052,0.6183,0.6860,1.1668,0.9563,50.2824,19.4391,265.9565,636.0036,9.1175,0.0000,425.9150,200.9711,-63.7803
10.6000,hold,76.9418,50.2209,91.8073,61.4029,17.0073,-0.9784,19.9206,0.3248,0.0000,-4.7911,1,7558.4563,2783.5653,5421.0463,1905.3200,3839.1807,0.0128,0.0117,0.1146,0.2522,-11.2636,-8.3930,-4.9786,-4.8292,-0.8584,2.6384,1504.9136,3493.0996,2080.3675,4200.9802,1426.4391,1920.7313,0.6977,-55.2900,49.8874,-31.0566,46.3650,154.2175,157.4362,-146.1842,-146.6642,3.3749,-0.2282,13949.1122,4.9244,0.7474,0.7749,1.0883,1.0383,48.9165,19.4889,267.7703,642.1397,9.3506,0.0000,430.7674,202.0217,-64.5435
10.7000,hold,76.9548,51.9305,93.7622,61.6327,17.0682,-0.9829,19.6865,0.3257,0.0000,0.6806,1,7393.2542,2630.0471,5330.3818,2003.9036,3983.6003,0.0032,0.0056,0.2485,0.1072,-4.4014,-3.6072,-5.0092,-4.8565,-32.8546,-35.6524,1936.7686,2841.8017,1443.2819,2801.5799,1317.0214,2391.7225,0.5793,-55.8263,50.6398,-31.8164,46.5343,98.0513,113.5235,-112.7218,-106.7418,3.4159,-0.2193,13947.9329,-0.9286,0.5489,0.5256,1.1688,0.9324,49.6756,19.5588,269.1199,650.3873,9.5863,0.0000,437.2799,203.5211,-64.3938
10.8000,hold,76.9102,53.6469,95.7098,61.9152,17.1435,-0.9952,19.3685,0.3267,0.0000,7.9562,1,7587.2543,2425.9611,5077.1414,2248.9039,4193.0983,0.0280,0.0111,0.1247,0.2565,-13.8341,-10.1961,-4.9914,-4.8431,92.8663,-17.2736,1819.0131,3784.6411,1295.4468,2866.9449,1412.8738,2219.3924,0.5652,-56.7033,50.3536,-31.7253,47.0811,25.0337,14.9370,-43.5362,-50.9548,3.4352,-0.2392,13945.1047,7.0979,0.5354,0.5647,1.0242,1.0463,50.7138,19.6450,271.4496,654.9707,9.8251,0.0000,439.7687,205.3768,-64.8677
10.9000,hold,76.8061,55.3641,97.6734,62.1533,17.2088,-1.0105,19.8868,0.3276,0.0000,-0.0272,1,7575.9149,2507.2010,5231.1517,2107.1142,4104.1985,0.0096,0.0070,0.2067,0.1641,-7.4472,-5.7499,-5.0616,-4.9085,-5.4337,-35.5954,1978.5969,3457.6268,1477.1360,3157.5310,1414.6001,2106.5584,0.5933,-57.6623,50.1365,-31.2302,48.1187,66.9861,78.5784,-87.7274,-83.9097,3.4590,-0.2690,13949.6653,1.6135,0.5892,0.6036,1.1543,0.9865,49.5800,19.7198,272.9264,661.5849,10.0653,0.0000,444.5628,206.9569,-64.7645
11.0000,hold,76.6448,57.0827,99.6453,62.2509,17.2412,-1.0193,20.1424,0.3286,0.0000,-3.9586,1,7597.8651,2771.3599,5502.6177,1839.7982,3842.3605,0.0076,0.0088,0.2388,0.1235,-8.3704,-6.3998,-5.0833,-4.9296,-20.7205,-18.5725,1783.3151,2943.1426,1994.2535,4057.4068,1265.8642,2267.5219,0.6965,-57.0146,51.5508,-32.4294,47.4617,166.1061,172.9551,-155.6091,-154.0987,3.4831,-0.2258,13956.1362,2.3787,0.7196,0.7374,1.1887,0.9669,49.0432,19.7570,274.5151,667.6532,10.3079,0.0000,449.7535,207.5918,-65.7182
11.1000,hold,76.4230,58.7995,101.6238,62.5027,17.3043,-1.0106,19.6531,0.3295,0.0000,6.1515,1,7629.7576,2151.1990,4969.4318,2380.5481,4447.5793,-0.0017,0.0029,0.2643,0.0949,2.6716,1.3131,-5.0827,-4.9255,-34.7575,-42.7633,2268.4088,2881.2322,328.7020,1128.4933,1442.1346,2347.2298,0.3828,-58.1871,51.3382,-32.5140,48.1383,-50.2577,-27.3716,-0.6412,19.3918,3.5150,-0.2476,13948.7582,-3.0117,0.1537,0.2272,1.1292,0.8356,50.4483,19.8293,276.2333,673.4962,10.5525,0.0000,453.6881,209.2556,-65.7726
11.2000,hold,76.1431,60.5148,103.5863,62.6049,17.3368,-1.0425,19.8881,0.3305,0.0000,2.5914,1,7660.3148,2736.0735,5455.6436,1885.6287,3879.9649,0.0257,0.0189,0.1998,0.1716,-13.9510,-10.3094,-5.1164,-4.9640,81.5264,90.6398,1777.3562,3315.3354,1704.2235,3729.8735,1361.0362,2112.7295,0.6460,-57.0407,52.5790,-33.3138,47.3361,152.0548,143.6863,-136.4085,-142.6690,3.5167,-0.2037,13957.3108,7.0900,0.6236,0.6839,1.1872,1.0132,49.9458,19.8665,277.5878,679.6461,10.8002,0.0000,458.9205,209.9255,-66.4573
11.3000,hold,75.8039,62.2225,105.5774,62.7143,17.4205,-1.0578,19.7268,0.3314,0.0000,7.2208,1,7498.1325,1944.5721,4737.1519,2613.3359,4661.1518,0.0008,0.0039,-0.0739,-0.0845,-6.5848,-5.1807,-5.1781,-5.0214,-28.1282,-57.3978,-1480.3425,-2858.1922,1547.8126,3319.8650,1572.0595,2292.2552,0.6354,-59.0099,51.6126,-32.2845,49.1338,-103.5905,-95.8709,89.5578,94.5017,3.5494,-0.2672,13956.2116,0.7830,0.7961,0.7009,0.8263,0.7860,50.5972,19.9624,278.5169,687.5871,11.0491,0.0000,465.9004,210.6376,-66.6743
11.4000,hold,75.4061,63.9226,107.5605,62.9516,17.4829,-1.0916,19.2046,0.3324,0.0000,10.0000,1,7473.4898,1954.7410,4681.7155,2661.2454,4660.2765,0.0237,0.0144,-0.0804,-0.0636,-14.1028,-10.4576,-5.2261,-5.0725,47.2933,17.9696,-1617.1275,-2169.2938,1351.5657,3194.1818,1558.4851,2400.4773,0.6163,-59.7850,51.1973,-31.7877,49.9049,-95.2431,-108.8382,103.5558,86.2420,3.5611,-0.2942,13957.9783,7.1309,0.6919,0.6823,0.8439,0.6943,52.1591,20.0339,279.7790,694.1147,11.3002,0.0000,470.5990,212.2155,-66.3585
11.5000,hold,74.9489,65.6108,109.5496,62.9498,17.4861,-1.0489,19.9383,0.3333,0.0000,4.7677,1,7540.3607,1872.4342,4726.2793,2633.8250,4726.9367,-0.0064,0.0005,-0.0766,-0.0880,-0.5954,-0.9911,-5.1597,-5.0014,-148.9581,-69.6967,-1545.7606,-2993.3909,1352.6060,2925.3871,1593.0232,2440.5016,0.6061,-59.1841,52.1714,-32.9682,49.0004,-123.0523,-103.0644,104.3901,121.9493,3.5731,-0.2539,13959.4752,-4.2873,0.7267,0.6191,0.8428,0.8171,50.2491,20.0376,280.8350,699.2841,11.5526,0.0000,475.5442,212.1873,-67.4426
11.6000,hold,74.4322,67.2875,111.5244,63.1633,17.5456,-1.0986,19.0556,0.3343,0.0000,10.0000,1,7518.7685,1999.6618,4726.3605,2617.1318,4615.8860,0.0210,0.0134,-0.0510,-0.1068,-14.1222,-10.4769,-5.2242,-5.0718,32.5697,6.6661,-968.7315,-3312.8486,1616.1010,3766.1579,1587.3648,2384.2030,0.6770,-59.4406,51.8467,-32.4976,49.4227,-84.9610,-100.8135,92.8136,73.1123,3.5710,-0.2702,13959.0401,7.1515,0.8084,0.7968,0.7106,0.8842,52.7555,20.1058,281.9778,705.7438,11.8073,0.0000,480.3339,213.6026,-67.1701
11.7000,hold,73.8577,68.9469,113.5338,63.4489,17.5580,-1.0860,20.5382,0.3352,0.0000,-4.5481,1,7642.4448,1965.1888,4826.1327,2534.5871,4632.7586,-0.0024,0.0034,0.1768,0.2434,-3.1764,-2.8210,-5.2576,-5.0973,-33.2995,-52.8292,2247.1893,4094.6753,1509.3543,3051.7875,1218.4893,2175.6068,0.5798,-59.3101,52.8594,-33.2977,49.2941,-95.7603,-79.5584,67.7612,81.1118,3.5997,-0.2473,13958.6673,-2.1787,0.7682,0.6324,1.0086,1.0009,48.9819,20.1200,283.2399,710.1436,12.0628,0.0000,482.5281,215.5527,-66.4821
11.8000,hold,73.2261,70.5896,115.5271,63.3912,17.5537,-1.0972,20.0511,0.3362,0.0000,4.1288,1,7675.8663,2817.5500,5586.9340,1764.8037,3795.8339,0.0264,0.0207,0.1355,0.2206,-14.0971,-10.4515,-5.2425,-5.0874,87.7921,122.9393,1490.8708,3386.1445,1741.1256,3762.5731,1460.2635,2100.8383,0.6578,-57.9228,54.6301,-34.9977,47.8593,193.0154,175.2394,-159.3861,-170.9280,3.6117,-0.1780,13965.1217,7.1094,0.6187,0.6738,1.1825,1.0498,50.1592,20.1150,284.0848,715.5158,12.3199,0.0000,488.0724,215.1236,-67.7562
11.9000,hold,72.5348,72.2103,117.5394,63.5063,17.5861,-1.0832,20.2466,0.3371,0.0000,1.2814,1,7731.9487,2792.2613,5594.9548,1761.7973,3817.1283,0.0276,0.0208,0.1718,0.1920,-14.0337,-10.3895,-5.2034,-5.0482,98.8676,127.1648,1613.4231,3333.7352,1761.7266,3858.6946,1380.9275,2167.4268,0.6655,-58.5034,54.6990,-35.1364,48.1657,188.6405,177.6939,-159.3247,-167.1019,3.6319,-0.1855,13966.1417,7.0858,0.6319,0.6900,1.2054,1.0417,49.7670,20.1522,285.1305,720.6585,12.5779,0.0000,492.1926,215.8879,-68.0375
12.0000,hold,71.7861,73.8091,119.5564,63.6265,17.6187,-1.0924,20.6188,0.3381,0.0000,-4.7460,1,7745.6222,2697.0291,5541.5349,1820.3103,3906.0552,0.0115,0.0112,0.1166,0.2371,-9.5511,-7.2691,-5.2455,-5.0873,-2.0494,6.8969,1426.7307,3504.3299,1957.8328,4020.0987,1453.4700,2118.1469,0.6937,-58.7181,54.9916,-35.1831,48.4814,152.6260,153.3308,-142.3468,-144.0233,3.6480,-0.1876,13964.9295,3.2437,0.7259,0.7254,1.1189,1.0483,48.9592,20.1896,286.0982,726.4906,12.8375,0.0000,496.9603,216.6929,-68.2003
12.1000,hold,70.9815,75.3841,121.5550,63.7520,17.6544,-1.1276,19.6288,0.3390,0.0000,10.0000,1,7705.1726,2768.6563,5516.3574,1833.0355,3848.5425,0.0231,0.0166,0.2312,0.1169,-14.2000,-10.5527,-5.2901,-5.1364,58.0871,50.8234,1760.4601,2823.2434,1666.7298,3722.5977,1376.2067,2304.3518,0.6571,-58.8143,54.7652,-35.0402,48.6200,182.1596,145.4450,-139.8158,-161.5298,3.6455,-0.1942,13966.5918,7.1631,0.6024,0.6749,1.2190,0.9469,51.5328,20.2305,286.7190,732.5217,13.0984,0.0000,501.9080,217.5153,-67.9987
12.2000,hold,70.1212,76.9308,123.5624,63.8249,17.6732,-1.1080,19.9597,0.3400,0.0000,8.2412,1,7703.6667,2753.4836,5544.7807,1811.0470,3858.2014,0.0335,0.0224,0.0914,0.2441,-14.1153,-10.4696,-5.2442,-5.0899,154.1918,155.9801,1210.3161,3475.8150,1468.3999,3243.9851,1590.5574,2015.5750,0.6056,-59.0688,54.7925,-35.1903,48.6794,178.5995,156.5053,-145.0653,-159.2331,3.6546,-0.1957,13967.5128,7.1254,0.5362,0.5857,1.1036,1.0414,50.7323,20.2520,287.1981,738.1274,13.3599,0.0000,506.7721,217.9953,-67.9977
