time,phase,pos_x,pos_y,yaw_deg,speed_kph,vx_body,vy_body,yaw_rate_dps,throttle,brake,steer_deg,gear,rpm,fz_fl,fz_fr,fz_rl,fz_rr,sr_fl,sr_fr,sr_rl,sr_rr,sa_fl_deg,sa_fr_deg,sa_rl_deg,sa_rr_deg,fx_fl,fx_fr,fx_rl,fx_rr,fy_fl,fy_fr,fy_rl,fy_rr,lat_accel_g,susp_defl_fl_mm,susp_defl_fr_mm,susp_defl_rl_mm,susp_defl_rr_mm,susp_vel_fl,susp_vel_fr,susp_vel_rl,susp_vel_rr,roll_deg,pitch_deg,fz_total,understeer_deg,fc_util_fl,fc_util_fr,fc_util_rl,fc_util_rr,radius_m,yaw_rate_ref_dps,ke_total_kj,energy_engine_kj,energy_drag_kj,energy_brake_kj,energy_tire_loss_kj,energy_body_kj,integrator_err_kj
0.0000,accel,0.0000,0.0000,0.0000,0.0000,0.0000,0.0000,0.0000,0.0000,0.0000,0.0000,1,1000.0000,3776.8500,3776.8500,3090.1500,3090.1500,0.0000,0.0000,0.0000,0.0000,0.0000,0.0000,0.0000,0.0000,0.0000,0.0000,0.0000,0.0000,0.0000,0.0000,0.0000,0.0000,0.0000,0.0000,0.0000,0.0000,0.0000,0.0000,0.0000,0.0000,0.0000,0.0000,0.0000,13734.0000,0.0000,0.0000,0.0000,0.0000,0.0000,0.0000,0.0000,0.0000,0.0000,0.0000,0.0000,0.0000,0.0000,0.0000
0.1000,accel,0.0001,0.0000,0.0000,0.0322,-0.0211,0.0000,0.0000,0.0667,0.0000,0.0000,1,1241.4110,4157.6656,4157.6656,2711.3116,2711.3116,0.0011,0.0011,0.9903,0.9903,0.0000,0.0000,0.0000,0.0000,20.5340,20.5340,2500.1909,2500.1909,0.0000,0.0000,0.0000,0.0000,0.0000,2.3876,2.3876,0.6927,0.6927,144.1461,144.1461,-124.3991,-124.3991,0.0000,0.0373,13737.9543,0.0000,0.0049,0.0049,0.9221,0.9221,0.0000,0.0000,1.5245,3.1339,0.0000,0.0000,3.1421,-0.0082,-0.3277
0.2000,accel,0.0002,0.0000,0.0000,0.0640,-0.0107,0.0000,0.0000,0.1333,0.0000,0.0000,1,1309.1284,4358.9922,4358.9922,2511.1618,2511.1618,0.0015,0.0015,0.9786,0.9786,0.0000,0.0000,0.0000,0.0000,55.8682,55.8682,2336.0728,2336.0728,0.0000,0.0000,0.0000,0.0000,0.0000,2.7355,2.7355,1.8331,1.8331,221.1984,221.1984,-189.7305,-189.7305,0.0000,0.0199,13740.3080,0.0000,0.0128,0.0128,0.9303,0.9303,0.0000,0.0000,1.7039,6.7002,0.0000,0.0000,6.7168,-0.0166,-0.5154
0.3000,accel,0.0002,0.0000,0.0000,0.0659,-0.0102,0.0000,0.0000,0.2000,0.0000,0.0000,1,1427.6375,4358.5582,4358.5582,2510.9634,2510.9634,0.0015,0.0015,0.9779,0.9779,0.0000,0.0000,0.0000,0.0000,56.0111,56.0111,2336.0496,2336.0496,0.0000,0.0000,0.0000,0.0000,0.0000,3.0793,3.0793,2.1801,2.1801,217.5867,217.5867,-192.2653,-192.2653,0.0000,0.0198,13739.0432,0.0000,0.0129,0.0129,0.9303,0.9303,0.0000,0.0000,2.0247,10.2602,0.0000,0.0000,10.2856,-0.0254,-0.8450
0.4000,accel,0.0014,0.0000,0.0000,0.3390,0.0569,0.0000,0.0000,0.2667,0.0000,0.0000,1,1156.0534,3377.0066,3377.0066,3488.8795,3488.8795,0.0003,0.0003,0.8962,0.8962,0.0000,0.0000,0.0000,0.0000,-31.6169,-31.6169,3161.4831,3161.4831,0.0000,0.0000,0.0000,0.0000,0.0000,0.5005,0.5005,4.7617,4.7617,-106.6046,-106.6046,96.1781,96.1781,0.0000,-0.0939,13731.7722,0.0000,0.0094,0.0094,0.9062,0.9062,0.0000,0.0000,1.6875,13.9254,0.0000,0.0000,13.9530,-0.0277,-0.5101
0.5000,accel,0.0131,0.0000,0.0000,0.3695,0.1463,0.0000,0.0000,0.3333,0.0000,0.0000,1,1376.3412,3235.2336,3235.2336,3631.7895,3631.7895,-0.0016,-0.0016,-0.4942,-0.4942,0.0000,0.0000,0.0000,0.0000,-146.2190,-146.2190,-3521.5970,-3521.5970,0.0000,0.0000,0.0000,0.0000,0.0000,-0.3868,-0.3868,5.9470,5.9470,-140.7740,-140.7740,141.4883,141.4883,0.0000,-0.1396,13734.0461,0.0000,0.0452,0.0452,0.9697,0.9697,0.0000,0.0000,2.1731,17.4837,0.0000,0.0000,17.5203,-0.0366,-1.0047
0.6000,accel,0.0298,0.0000,0.0000,0.5875,0.2446,0.0000,0.0000,0.4000,0.0000,0.0000,1,1453.6756,2980.1305,2980.1305,3889.0541,3889.0541,-0.1209,-0.1209,-0.3292,-0.3292,0.0000,0.0000,0.0000,0.0000,-3013.1798,-3013.1798,-3827.8055,-3827.8055,0.0000,0.0000,0.0000,0.0000,0.0000,-1.7919,-1.7919,7.8362,7.8362,-203.6259,-203.6259,225.4987,225.4987,0.0000,-0.2122,13738.3692,0.0000,1.0111,1.0111,0.9843,0.9843,0.0000,0.0000,2.4948,21.0467,0.0000,0.0000,21.0867,-0.0400,-1.3297
0.7000,accel,0.0539,0.0000,0.0000,0.9459,0.2530,0.0000,0.0000,0.4667,0.0000,0.0000,1,1828.7090,4694.0466,4694.0466,2178.2045,2178.2045,-0.0139,-0.0139,0.9445,0.9445,0.0000,0.0000,0.0000,0.0000,-1241.6699,-1241.6699,2061.8762,2061.8762,0.0000,0.0000,0.0000,0.0000,0.0000,1.2861,1.2861,6.4076,6.4076,369.7095,369.7095,-317.5399,-317.5399,0.0000,-0.1129,13744.5023,0.0000,0.2645,0.2645,0.9466,0.9466,0.0000,0.0000,3.3579,24.3038,0.0000,0.0000,24.3330,-0.0293,-2.1821
0.8000,accel,0.0931,0.0000,0.0000,1.5177,0.4292,0.0000,0.0000,0.5333,0.0000,0.0000,1,1897.2368,3616.4544,3616.4544,3246.7074,3246.7074,-0.2946,-0.2946,0.9096,0.9096,0.0000,0.0000,0.0000,0.0000,-3597.7286,-3597.7286,2960.1455,2960.1455,0.0000,0.0000,0.0000,0.0000,0.0000,-2.6736,-2.6736,7.8194,7.8194,-15.5268,-15.5268,-22.3455,-22.3455,0.0000,-0.2312,13726.3236,0.0000,0.9948,0.9948,0.9117,0.9117,0.0000,0.0000,3.7012,28.2737,0.0000,0.0000,28.2334,0.0403,-2.4558
0.9000,accel,0.1455,0.0000,0.0000,2.2345,0.6188,0.0000,0.0000,0.6000,0.0000,0.0000,1,1682.2613,3518.7009,3518.7009,3344.0931,3344.0931,-0.0621,-0.0621,0.6885,0.6885,0.0000,0.0000,0.0000,0.0000,-2942.1462,-2942.1462,3102.7075,3102.7075,0.0000,0.0000,0.0000,0.0000,0.0000,-5.0110,-5.0110,10.7376,10.7376,-26.7690,-26.7690,-15.3773,-15.3773,0.0000,-0.3470,13725.5881,0.0000,0.8361,0.8361,0.9278,0.9278,0.0000,0.0000,3.4431,32.0907,0.0000,0.0000,31.9221,0.1685,-2.0696
1.0000,accel,0.2257,0.0000,0.0000,3.4934,0.8926,0.0000,0.0000,0.6667,0.0000,0.0000,1,1739.3253,3885.5331,3885.5331,2981.2259,2981.2259,0.1929,0.1929,0.8561,0.8561,0.0000,0.0000,0.0000,0.0000,3778.1119,3778.1119,2754.8028,2754.8028,0.0000,0.0000,0.0000,0.0000,0.0000,-7.6643,-7.6643,13.7221,13.7221,135.7659,135.7659,-140.3982,-140.3982,0.0000,-0.4713,13733.5179,0.0000,0.9724,0.9724,0.9241,0.9241,0.0000,0.0000,3.6606,35.3687,0.0000,0.0000,34.8356,0.5331,-1.9224
1.1000,accel,0.3267,0.0000,0.0000,4.0529,1.1131,0.0000,0.0000,0.7333,0.0000,0.0000,1,1881.9224,2676.2174,2676.2174,4193.4812,4193.4812,-0.4112,-0.4112,0.7694,0.7694,0.0000,0.0000,0.0000,0.0000,-2701.8106,-2701.8106,3772.7586,3772.7586,0.0000,0.0000,0.0000,0.0000,0.0000,-7.0805,-7.0805,14.9939,14.9939,-252.7321,-252.7321,275.5884,275.5884,0.0000,-0.4864,13739.3973,0.0000,1.0096,1.0096,0.8997,0.8997,0.0000,0.0000,4.4311,38.8927,0.0001,0.0000,38.1593,0.7333,-2.4928
1.2000,accel,0.4477,0.0000,0.0000,4.3782,1.2091,0.0000,0.0000,0.8000,0.0000,0.0000,1,2185.9369,3859.0370,3859.0370,3007.2267,3007.2267,0.4963,0.4963,-0.1117,-0.1117,0.0000,0.0000,0.0000,0.0000,3602.9782,3602.9782,-3009.6493,-3009.6493,0.0000,0.0000,0.0000,0.0000,0.0000,-4.0910,-4.0910,9.2944,9.2944,89.3944,89.3944,-101.3842,-101.3842,0.0000,-0.2950,13732.5275,0.0000,0.9336,0.9336,1.0008,1.0008,0.0000,0.0000,6.3501,43.0358,0.0002,0.0000,42.1572,0.8784,-4.2666
1.3000,accel,0.5846,0.0000,0.0000,5.5855,1.5370,0.0000,0.0000,0.8667,0.0000,0.0000,1,2244.6543,2605.8159,2605.8159,4266.7389,4266.7389,-0.1590,-0.1590,0.5863,0.5863,0.0000,0.0000,0.0000,0.0000,-2678.6938,-2678.6938,3902.9614,3902.9614,0.0000,0.0000,0.0000,0.0000,0.0000,-10.1112,-10.1112,15.6849,15.6849,-251.2462,-251.2462,297.8825,297.8825,0.0000,-0.5685,13745.1096,0.0000,1.0280,1.0280,0.9147,0.9147,0.0000,0.0000,7.1764,47.4806,0.0003,0.0000,45.9694,1.5109,-4.4604
1.4000,accel,0.7571,0.0000,0.0000,6.9100,1.8398,0.0000,0.0000,0.9333,0.0000,0.0000,1,2494.8567,3550.8279,3550.8279,3314.6707,3314.6707,0.3370,0.3370,0.1855,0.1855,0.0000,0.0000,0.0000,0.0000,3415.8450,3415.8450,3276.4209,3276.4209,0.0000,0.0000,0.0000,0.0000,0.0000,-11.4931,-11.4931,16.6883,16.6883,40.0187,40.0187,-66.4778,-66.4778,0.0000,-0.6210,13730.9971,0.0000,0.9620,0.9620,0.9885,0.9885,0.0000,0.0000,8.9919,52.4306,0.0005,0.0000,50.0431,2.3870,-5.3999
1.5000,accel,0.9653,0.0000,0.0000,7.9748,2.1510,0.0000,0.0000,1.0000,0.0000,0.0000,1,2850.5794,3881.9774,3881.9774,2987.1904,2987.1904,0.3077,0.3077,0.0343,0.0343,0.0000,0.0000,0.0000,0.0000,3717.3204,3717.3204,1682.1504,1682.1504,0.0000,0.0000,0.0000,0.0000,0.0000,-10.5870,-10.5870,16.4133,16.4133,163.3450,163.3450,-158.1579,-158.1579,0.0000,-0.5950,13738.3355,0.0000,0.9576,0.9576,0.5631,0.5631,0.0000,0.0000,11.8375,57.2091,0.0010,0.0000,53.9842,3.2239,-7.4086
1.6000,accel,1.2100,0.0000,0.0000,9.5817,2.5842,0.0000,0.0000,1.0000,0.0000,0.0000,1,2971.9033,3756.8708,3756.8708,3112.4891,3112.4891,0.3818,0.3818,0.0959,0.0959,0.0000,0.0000,0.0000,0.0000,3569.9922,3569.9922,2933.1039,2933.1039,0.0000,0.0000,0.0000,0.0000,0.0000,-14.1083,-14.1083,20.0850,20.0850,148.3947,148.3947,-148.7136,-148.7136,0.0000,-0.7535,13738.7199,0.0000,0.9503,0.9503,0.9424,0.9424,0.0000,0.0000,14.0905,63.0269,0.0017,0.0000,58.2994,4.7258,-8.1596
1.7000,accel,1.4955,0.0000,0.0000,10.9695,3.0309,0.0000,0.0000,1.0000,0.0000,0.0000,1,3168.0388,2568.4779,2568.4779,4304.3704,4304.3704,-0.3455,-0.3455,0.4587,0.4587,0.0000,0.0000,0.0000,0.0000,-2627.2470,-2627.2470,3992.8683,3992.8683,0.0000,0.0000,0.0000,0.0000,0.0000,-16.6828,-16.6828,22.8985,22.8985,-215.2609,-215.2609,240.1969,240.1969,0.0000,-0.8722,13745.6967,0.0000,1.0229,1.0229,0.9276,0.9276,0.0000,0.0000,17.2782,69.3354,0.0028,0.0000,63.0845,6.2482,-9.8249
1.8000,accel,1.8210,0.0000,0.0000,12.5180,3.3987,0.0000,0.0000,1.0000,0.0000,0.0000,1,3385.1023,3630.6217,3630.6217,3239.3585,3239.3585,0.2157,0.2157,0.5823,0.5823,0.0000,0.0000,0.0000,0.0000,3547.6445,3547.6445,3048.6292,3048.6292,0.0000,0.0000,0.0000,0.0000,0.0000,-15.6953,-15.6953,21.8373,21.8373,113.4785,113.4785,-125.2892,-125.2892,0.0000,-0.8271,13739.9604,0.0000,0.9771,0.9771,0.9411,0.9411,0.0000,0.0000,21.2879,76.7144,0.0044,0.0000,68.5220,8.1879,-11.8949
1.9000,accel,2.1939,0.0000,0.0000,14.2886,3.8899,0.0000,0.0000,1.0000,0.0000,0.0000,1,3647.0294,3407.8883,3407.8883,3461.9101,3461.9101,0.1426,0.1426,0.3939,0.3939,0.0000,0.0000,0.0000,0.0000,3340.7949,3340.7949,3311.5116,3311.5116,0.0000,0.0000,0.0000,0.0000,0.0000,-18.1938,-18.1938,23.7720,23.7720,49.1601,49.1601,-75.7474,-75.7474,0.0000,-0.9248,13739.5969,0.0000,0.9803,0.9803,0.9566,0.9566,0.0000,0.0000,25.2100,83.4002,0.0069,0.0000,72.6631,10.7302,-13.2747
2.0000,accel,2.6154,0.0000,0.0000,15.9762,4.3942,0.0000,0.0000,1.0000,0.0000,0.0000,1,3956.0024,3553.9497,3553.9497,3319.7900,3319.7900,0.0093,0.0093,0.6248,0.6248,0.0000,0.0000,0.0000,0.0000,566.5790,566.5790,3102.4752,3102.4752,0.0000,0.0000,0.0000,0.0000,0.0000,-19.8429,-19.8429,25.1962,25.1962,123.8298,123.8298,-126.7894,-126.7894,0.0000,-0.9925,13747.4794,0.0000,0.1594,0.1594,0.9345,0.9345,0.0000,0.0000,29.9396,90.6733,0.0104,0.0000,77.1928,13.4701,-15.2644
2.1000,accel,3.0856,0.0000,0.0000,17.7759,4.8589,0.0000,0.0000,1.0000,0.0000,0.0000,1,3910.1715,3597.6568,3597.6568,3278.2565,3278.2565,0.2073,0.2073,0.5160,0.5160,0.0000,0.0000,0.0000,0.0000,3521.7589,3521.7589,3104.5995,3104.5995,0.0000,0.0000,0.0000,0.0000,0.0000,-19.4155,-19.4155,24.4980,24.4980,136.7855,136.7855,-133.9399,-133.9399,0.0000,-0.9677,13751.8266,0.0000,0.9789,0.9789,0.9470,0.9470,0.0000,0.0000,34.3989,100.0393,0.0153,0.0000,83.2953,16.7287,-16.4652
2.2000,accel,3.6052,0.0000,0.0000,19.5681,5.3574,0.0000,0.0000,1.0000,0.0000,0.0000,1,4344.8503,3643.6240,3643.6240,3234.6688,3234.6688,0.1492,0.1492,0.0933,0.0933,0.0000,0.0000,0.0000,0.0000,3554.9814,3554.9814,3018.3137,3018.3137,0.0000,0.0000,0.0000,0.0000,0.0000,-19.7954,-19.7954,25.0720,25.0720,158.6714,158.6714,-150.8144,-150.8144,0.0000,-0.9887,13756.5854,0.0000,0.9757,0.9757,0.9331,0.9331,0.0000,0.0000,40.4403,107.2255,0.0219,0.0000,86.8817,20.3218,-18.9135
2.3000,accel,4.1744,0.0000,0.0000,21.3544,5.8640,0.0000,0.0000,1.0000,0.0000,0.0000,1,4348.3646,3568.3496,3568.3496,3311.2224,3311.2224,0.0500,0.0500,0.5044,0.5044,0.0000,0.0000,0.0000,0.0000,2562.2435,2562.2435,3136.9156,3136.9156,0.0000,0.0000,0.0000,0.0000,0.0000,-20.3562,-20.3562,25.7204,25.7204,133.8354,133.8354,-133.9316,-133.9316,0.0000,-1.0154,13759.1439,0.0000,0.7180,0.7180,0.9474,0.9474,0.0000,0.0000,46.2420,117.7410,0.0307,0.0000,93.4611,24.2492,-20.7878
2.4000,accel,4.7926,0.0000,0.0000,23.1356,6.3542,0.0000,0.0000,1.0000,0.0000,0.0000,1,4711.7806,3512.7966,3512.7966,3368.2938,3368.2938,0.0624,0.0624,0.3606,0.3606,0.0000,0.0000,0.0000,0.0000,2838.0708,2838.0708,3246.2660,3246.2660,0.0000,0.0000,0.0000,0.0000,0.0000,-20.3348,-20.3348,25.6998,25.6998,111.0486,111.0486,-117.8552,-117.8552,0.0000,-1.0145,13762.1809,0.0000,0.8079,0.8079,0.9638,0.9638,0.0000,0.0000,53.1337,126.3512,0.0418,0.0000,97.8013,28.5080,-23.4206
2.5000,accel,5.4604,0.0000,0.0000,24.9168,6.8441,0.0000,0.0000,1.0000,0.0000,0.0000,1,5062.3238,3610.2489,3610.2489,3274.3352,3274.3352,0.0872,0.0872,0.1424,0.1424,0.0000,0.0000,0.0000,0.0000,3277.8002,3277.8002,3222.7175,3222.7175,0.0000,0.0000,0.0000,0.0000,0.0000,-20.1952,-20.1952,25.5547,25.5547,148.2528,148.2528,-144.0719,-144.0719,0.0000,-1.0082,13769.1682,0.0000,0.9079,0.9079,0.9842,0.9842,0.0000,0.0000,60.6179,135.5451,0.0559,0.0000,102.3797,33.1095,-26.3034
2.6000,accel,6.1776,0.0000,0.0000,26.6989,7.3402,0.0000,0.0000,1.0000,0.0000,0.0000,1,5042.3072,3602.1804,3602.1804,3284.9283,3284.9283,0.0886,0.0886,0.4668,0.4668,0.0000,0.0000,0.0000,0.0000,3284.9427,3284.9427,3128.8524,3128.8524,0.0000,0.0000,0.0000,0.0000,0.0000,-20.2903,-20.2903,25.6246,25.6246,145.5629,145.5629,-141.9879,-141.9879,0.0000,-1.0118,13774.2174,0.0000,0.9119,0.9119,0.9525,0.9525,0.0000,0.0000,67.5503,147.7528,0.0733,0.0000,109.6228,38.0567,-28.2886
2.7000,accel,6.9444,0.0000,0.0000,28.4828,7.8355,0.0000,0.0000,1.0000,0.0000,0.0000,1,5356.8867,3589.1814,3589.1814,3300.5230,3300.5230,0.0837,0.0837,0.3293,0.3293,0.0000,0.0000,0.0000,0.0000,3224.5368,3224.5368,3202.4262,3202.4262,0.0000,0.0000,0.0000,0.0000,0.0000,-20.3105,-20.3105,25.6504,25.6504,140.1235,140.1235,-138.1902,-138.1902,0.0000,-1.0128,13779.4088,0.0000,0.8984,0.8984,0.9703,0.9703,0.0000,0.0000,75.3242,157.5618,0.0946,0.0000,114.1150,43.3522,-30.7669
2.8000,accel,7.7608,0.0000,0.0000,30.2690,8.3317,0.0000,0.0000,1.0000,0.0000,0.0000,1,5647.2074,3610.1043,3610.1043,3282.7785,3282.7785,0.0806,0.0806,0.1354,0.1354,0.0000,0.0000,0.0000,0.0000,3205.3997,3205.3997,3220.5586,3220.5586,0.0000,0.0000,0.0000,0.0000,0.0000,-20.3261,-20.3261,25.6803,25.6803,148.1766,148.1766,-143.9789,-143.9789,0.0000,-1.0138,13785.7655,0.0000,0.8879,0.8879,0.9810,0.9810,0.0000,0.0000,83.5266,167.8971,0.1203,0.0000,118.7777,48.9991,-33.3224
2.9000,accel,8.6270,0.0000,0.0000,32.0623,8.8329,0.0000,0.0000,1.0000,0.0000,0.0000,1,5568.8263,3585.4696,3585.4696,3310.3301,3310.3301,0.0683,0.0683,0.4211,0.4211,0.0000,0.0000,0.0000,0.0000,3005.9892,3005.9892,3169.1868,3169.1868,0.0000,0.0000,0.0000,0.0000,0.0000,-20.5211,-20.5211,25.8658,25.8658,139.7673,139.7673,-137.9738,-137.9738,0.0000,-1.0222,13791.5994,0.0000,0.8384,0.8384,0.9574,0.9574,0.0000,0.0000,91.0588,181.4648,0.1510,0.0000,126.2981,55.0157,-34.8380
3.0000,accel,9.5430,0.0000,0.0000,33.8526,9.3315,0.0000,0.0000,1.0000,0.0000,0.0000,1,5830.1620,3566.2328,3566.2328,3332.6657,3332.6657,0.0598,0.0598,0.2836,0.2836,0.0000,0.0000,0.0000,0.0000,2818.6089,2818.6089,3253.2813,3253.2813,0.0000,0.0000,0.0000,0.0000,0.0000,-20.5757,-20.5757,25.9194,25.9194,132.0861,132.0861,-132.5457,-132.5457,0.0000,-1.0246,13797.7970,0.0000,0.7904,0.7904,0.9762,0.9762,0.0000,0.0000,99.4787,192.1792,0.1872,0.0000,130.6236,61.3684,-36.9052
3.1000,accel,10.5089,0.0000,0.0000,35.6378,9.8304,0.0000,0.0000,1.0000,0.0000,0.0000,1,6071.1232,3580.6947,3580.6947,3321.8789,3321.8789,0.0563,0.0563,0.0907,0.0907,0.0000,0.0000,0.0000,0.0000,2744.3105,2744.3105,3071.3561,3071.3561,0.0000,0.0000,0.0000,0.0000,0.0000,-20.6214,-20.6214,25.9765,25.9765,137.7658,137.7658,-136.6380,-136.6380,0.0000,-1.0269,13805.1472,0.0000,0.7664,0.7664,0.9246,0.9246,0.0000,0.0000,108.3259,203.3623,0.2298,0.0000,135.0846,68.0480,-39.0729
3.2000,accel,11.5244,0.0000,0.0000,37.4280,10.3282,0.0000,0.0000,1.0000,0.0000,0.0000,1,5946.9747,3558.6143,3558.6143,3347.3953,3347.3953,0.0501,0.0501,0.3730,0.3730,0.0000,0.0000,0.0000,0.0000,2556.5688,2556.5688,3222.4281,3222.4281,0.0000,0.0000,0.0000,0.0000,0.0000,-20.6649,-20.6649,25.9968,25.9968,128.7781,128.7781,-130.1248,-130.1248,0.0000,-1.0283,13812.0191,0.0000,0.7184,0.7184,0.9627,0.9627,0.0000,0.0000,116.4647,217.9838,0.2792,0.0000,142.6126,75.0920,-40.1676
3.3000,accel,12.5894,0.0000,0.0000,39.1891,10.8210,0.0000,0.0000,1.0000,0.0000,0.0000,1,6280.5676,3567.8903,3567.8903,3342.0802,3342.0802,0.0517,0.0517,0.0708,0.0708,0.0000,0.0000,0.0000,0.0000,2611.1220,2611.1220,2861.0785,2861.0785,0.0000,0.0000,0.0000,0.0000,0.0000,-20.5901,-20.5901,25.8431,25.8431,131.1277,131.1277,-131.2019,-131.2019,0.0000,-1.0232,13819.9409,0.0000,0.7318,0.7318,0.8561,0.8561,0.0000,0.0000,125.8615,228.3090,0.3362,0.0000,145.6133,82.3595,-42.2969
3.4000,accel,13.7034,0.0000,0.0000,40.8778,11.3140,0.0000,0.0000,1.0000,0.0000,0.0000,1,6385.6304,3554.2567,3554.2567,3359.6237,3359.6237,0.0476,0.0476,0.0169,0.0169,0.0000,0.0000,0.0000,0.0000,2476.3381,2476.3381,992.4851,992.4851,0.0000,0.0000,0.0000,0.0000,0.0000,-20.6343,-20.6343,25.7965,25.7965,125.4748,125.4748,-126.5443,-126.5443,0.0000,-1.0232,13827.7607,0.0000,0.6967,0.6967,0.2954,0.2954,0.0000,0.0000,135.0243,240.7944,0.4014,0.0000,150.7486,89.6444,-44.1749
3.5000,accel,14.8625,0.0000,0.0000,42.3537,11.6987,0.0000,0.0000,1.0000,0.0000,0.0000,2,6610.8169,4751.7258,4751.7258,2177.8687,2177.8687,0.0538,0.0538,0.0982,0.0982,0.0000,0.0000,0.0000,0.0000,3453.5724,3453.5724,2138.5188,2138.5188,0.0000,0.0000,0.0000,0.0000,0.0000,-16.5867,-16.5867,22.6067,22.6067,563.4655,563.4655,-441.9616,-441.9616,0.0000,-0.8637,13859.1890,0.0000,0.7268,0.7268,0.9819,0.9819,0.0000,0.0000,143.3553,249.0766,0.4749,0.0000,152.3454,96.2563,-45.8940
3.6000,accel,16.0359,0.0000,0.0000,42.3580,11.7082,0.0000,0.0000,1.0000,0.0000,0.0000,2,6610.8169,4394.1292,4394.1292,2525.5040,2525.5040,0.0661,0.0661,0.0312,0.0312,0.0000,0.0000,0.0000,0.0000,3558.9784,3558.9784,1342.2912,1342.2912,0.0000,0.0000,0.0000,0.0000,0.0000,-3.7796,-3.7796,12.3373,12.3373,292.3436,292.3436,-269.2985,-269.2985,0.0000,-0.3552,13839.2664,0.0000,0.8099,0.8099,0.5315,0.5315,0.0000,0.0000,143.2778,249.0766,0.5511,0.0000,152.2751,96.2504,-45.8224
3.7000,accel,17.2089,0.0000,0.0000,42.2864,11.7097,0.0000,0.0000,1.0000,0.0000,0.0000,2,6709.6793,4504.3007,4504.3007,2413.9408,2413.9408,0.0152,0.0152,0.0571,0.0571,0.0000,0.0000,0.0000,0.0000,1159.3652,1159.3652,1939.6353,1939.6353,0.0000,0.0000,0.0000,0.0000,0.0000,1.8638,1.8638,8.0571,8.0571,279.9759,279.9759,-270.6034,-270.6034,0.0000,-0.1365,13836.4829,0.0000,0.2574,0.2574,0.8035,0.8035,0.0000,0.0000,144.4801,249.0766,0.6272,0.0000,152.5537,95.8957,-47.3794
3.8000,accel,18.3891,0.0000,0.0000,42.9932,11.8848,0.0000,0.0000,1.0000,0.0000,0.0000,2,6912.4292,3688.9578,3688.9578,3224.3365,3224.3365,0.0534,0.0534,0.0437,0.0437,0.0000,0.0000,0.0000,0.0000,2740.4675,2740.4675,2147.1154,2147.1154,0.0000,0.0000,0.0000,0.0000,0.0000,-2.9432,-2.9432,10.4052,10.4052,1.6657,1.6657,-56.0942,-56.0942,0.0000,-0.2942,13826.5887,0.0000,0.7429,0.7429,0.6659,0.6659,0.0000,0.0000,150.9277,253.0386,0.7048,0.0000,153.1970,99.1368,-50.5858
3.9000,accel,19.6072,0.0000,0.0000,44.7091,12.3522,0.0000,0.0000,1.0000,0.0000,0.0000,2,6030.8507,3530.6765,3530.6765,3388.9180,3388.9180,0.0463,0.0463,0.1102,0.1102,0.0000,0.0000,0.0000,0.0000,2421.1854,2421.1854,3244.4292,3244.4292,0.0000,0.0000,0.0000,0.0000,0.0000,-12.7244,-12.7244,18.7058,18.7058,35.4990,35.4990,-69.0746,-69.0746,0.0000,-0.6926,13839.1889,0.0000,0.6858,0.6858,0.9574,0.9574,0.0000,0.0000,148.4376,262.9117,0.7900,0.0000,154.8754,107.2463,-39.9863
4.0000,accel,20.8749,0.0000,0.0000,46.5037,12.8512,0.0000,0.0000,1.0000,0.0000,0.0000,2,5244.0794,3525.7427,3525.7427,3400.3595,3400.3595,0.0445,0.0445,0.1139,0.1139,0.0000,0.0000,0.0000,0.0000,2357.3149,2357.3149,3268.7258,3268.7258,0.0000,0.0000,0.0000,0.0000,0.0000,-17.5781,-17.5781,22.8823,22.8823,81.3234,81.3234,-96.4299,-96.4299,0.0000,-0.8916,13852.2044,0.0000,0.6686,0.6686,0.9613,0.9613,0.0000,0.0000,148.9387,273.5084,0.8861,0.0000,156.5545,116.0678,-31.6659
4.1000,accel,22.1925,0.0000,0.0000,48.2995,13.3507,0.0000,0.0000,1.0000,0.0000,0.0000,2,4529.8350,3518.7942,3518.7942,3412.9225,3412.9225,0.0427,0.0427,0.1145,0.1145,0.0000,0.0000,0.0000,0.0000,2286.1802,2286.1802,3281.7906,3281.7906,0.0000,0.0000,0.0000,0.0000,0.0000,-19.7059,-19.7059,24.6496,24.6496,99.0521,99.0521,-106.2884,-106.2884,0.0000,-0.9775,13863.4334,0.0000,0.6497,0.6497,0.9616,0.9616,0.0000,0.0000,151.6606,284.5341,0.9940,0.0000,158.2968,125.2433,-25.2123
4.2000,accel,23.5599,0.0000,0.0000,50.0942,13.8501,0.0000,0.0000,1.0000,0.0000,0.0000,2,3807.6222,3509.3266,3509.3266,3427.7142,3427.7142,0.0406,0.0406,0.1144,0.1144,0.0000,0.0000,0.0000,0.0000,2204.8341,2204.8341,3294.3275,3294.3275,0.0000,0.0000,0.0000,0.0000,0.0000,-20.6685,-20.6685,25.3737,25.3737,104.0927,104.0927,-108.0901,-108.0901,0.0000,-1.0146,13874.0816,0.0000,0.6283,0.6283,0.9611,0.9611,0.0000,0.0000,155.6853,295.9745,1.1147,0.0000,160.0978,134.7621,-19.7182
4.3000,accel,24.9769,0.0000,0.0000,51.8230,14.3321,0.0000,0.0000,1.0000,0.0000,0.0000,2,3125.8108,3573.9961,3573.9961,3368.9647,3368.9647,0.0438,0.0438,0.0792,0.0792,0.0000,0.0000,0.0000,0.0000,2358.4603,2358.4603,2996.8018,2996.8018,0.0000,0.0000,0.0000,0.0000,0.0000,-20.5400,-20.5400,24.9602,24.9602,127.8766,127.8766,-122.7779,-122.7779,0.0000,-1.0027,13885.9216,0.0000,0.6599,0.6599,0.8895,0.8895,0.0000,0.0000,160.5740,306.8536,1.2489,0.0000,161.3437,144.2610,-15.1079
4.4000,accel,26.4236,0.0000,0.0000,52.6413,14.5584,0.0000,0.0000,1.0000,0.0000,0.0000,2,3359.4282,3521.9428,3521.9428,3420.2573,3420.2573,0.0395,0.0395,0.1118,0.1118,0.0000,0.0000,0.0000,0.0000,2167.1327,2167.1327,3277.7340,3277.7340,0.0000,0.0000,0.0000,0.0000,0.0000,-13.8734,-13.8734,18.9953,18.9953,40.0052,40.0052,-65.9281,-65.9281,0.0000,-0.7243,13884.4003,0.0000,0.6153,0.6153,0.9583,0.9583,0.0000,0.0000,167.2619,313.4354,1.3917,0.0000,163.1747,148.8690,-17.1879
4.5000,accel,27.9004,0.0000,0.0000,53.3919,14.7730,0.0000,0.0000,1.0000,0.0000,0.0000,2,3631.5836,4569.8939,4569.8939,2384.0519,2384.0519,0.0348,0.0348,0.1679,0.1679,0.0000,0.0000,0.0000,0.0000,2493.1637,2493.1637,2435.7767,2435.7767,0.0000,0.0000,0.0000,0.0000,0.0000,-7.9050,-7.9050,14.7643,14.7643,399.1312,399.1312,-332.1624,-332.1624,0.0000,-0.4996,13907.8915,0.0000,0.5456,0.5456,1.0217,1.0217,0.0000,0.0000,174.3251,319.9433,1.5436,0.0000,165.2523,153.1474,-19.9727
4.6000,accel,29.4016,0.0000,0.0000,54.8492,15.1804,0.0000,0.0000,1.0000,0.0000,0.0000,2,3377.2411,3472.1399,3472.1399,3476.1118,3476.1118,0.0345,0.0345,0.0610,0.0610,0.0000,0.0000,0.0000,0.0000,1934.2319,1934.2319,2782.0545,2782.0545,0.0000,0.0000,0.0000,0.0000,0.0000,-13.9125,-13.9125,19.2046,19.2046,19.3868,19.3868,-52.6301,-52.6301,0.0000,-0.7298,13896.5034,0.0000,0.5571,0.5571,0.8003,0.8003,0.0000,0.0000,180.5136,329.5498,1.7032,0.0000,166.1943,161.6523,-17.6563
4.7000,accel,30.9349,0.0000,0.0000,55.5362,15.3823,0.0000,0.0000,1.0000,0.0000,0.0000,2,3851.2185,3533.9885,3533.9885,3415.1026,3415.1026,0.0326,0.0326,0.0346,0.0346,0.0000,0.0000,0.0000,0.0000,1877.6065,1877.6065,1910.3296,1910.3296,0.0000,0.0000,0.0000,0.0000,0.0000,-9.0880,-9.0880,15.4974,15.4974,-3.2011,-3.2011,-43.9702,-43.9702,0.0000,-0.5418,13898.1822,0.0000,0.5313,0.5313,0.5594,0.5594,0.0000,0.0000,188.2135,335.2596,1.8733,0.0000,167.6556,165.7307,-21.2777
4.8000,accel,32.4988,0.0000,0.0000,56.8199,15.7120,0.0000,0.0000,1.0000,0.0000,0.0000,2,3853.4181,3747.4938,3747.4938,3209.4847,3209.4847,0.0573,0.0573,0.1429,0.1429,0.0000,0.0000,0.0000,0.0000,2884.4893,2884.4893,3165.9003,3165.9003,0.0000,0.0000,0.0000,0.0000,0.0000,-10.9695,-10.9695,15.8603,15.8603,99.1330,99.1330,-105.9558,-105.9558,0.0000,-0.5912,13913.9571,0.0000,0.7697,0.7697,0.9864,0.9864,0.0000,0.0000,195.1805,343.6271,2.0536,0.0000,168.0658,173.5077,-20.4678
4.9000,accel,34.0909,0.0000,0.0000,58.0908,16.0783,0.0000,0.0000,1.0000,0.0000,0.0000,2,3519.1153,3508.5722,3508.5722,3450.7363,3450.7363,0.0327,0.0327,0.0794,0.0794,0.0000,0.0000,0.0000,0.0000,1874.2279,1874.2279,3063.9441,3063.9441,0.0000,0.0000,0.0000,0.0000,0.0000,-13.9597,-13.9597,18.8023,18.8023,32.7819,32.7819,-58.7748,-58.7748,0.0000,-0.7220,13918.6171,0.0000,0.5342,0.5342,0.8879,0.8879,0.0000,0.0000,201.8375,353.9912,2.2440,0.0000,170.3688,181.3784,-19.2540
5.0000,accel,35.7120,0.0000,0.0000,58.8983,16.3024,0.0000,0.0000,1.0000,0.0000,0.0000,2,3811.5017,3456.8047,3456.8047,3503.2259,3503.2259,0.0293,0.0293,0.0967,0.0967,0.0000,0.0000,0.0000,0.0000,1690.1540,1690.1540,3267.5069,3267.5069,0.0000,0.0000,0.0000,0.0000,0.0000,-10.5552,-10.5552,16.6666,16.6666,-15.9979,-15.9979,-28.9804,-28.9804,0.0000,-0.5999,13920.0612,0.0000,0.4889,0.4889,0.9327,0.9327,0.0000,0.0000,209.7464,361.2047,2.4450,0.0000,172.3006,186.4592,-22.0822
5.1000,accel,37.3629,0.0000,0.0000,59.9564,16.5975,0.0000,0.0000,1.0000,0.0000,0.0000,2,3870.9050,3448.5630,3448.5630,3516.0861,3516.0861,0.0255,0.0255,0.1134,0.1134,0.0000,0.0000,0.0000,0.0000,1493.1594,1493.1594,3366.8294,3366.8294,0.0000,0.0000,0.0000,0.0000,0.0000,-11.4593,-11.4593,16.1869,16.1869,-12.3027,-12.3027,-22.4909,-22.4909,0.0000,-0.6092,13929.2982,0.0000,0.4330,0.4330,0.9576,0.9576,0.0000,0.0000,217.4598,369.9856,2.6572,0.0000,174.0862,193.2422,-23.0125
5.2000,accel,39.0471,0.0000,0.0000,61.0046,16.8970,0.0000,0.0000,1.0000,0.0000,0.0000,2,4026.1213,3661.2605,3661.2605,3309.3480,3309.3480,0.0447,0.0447,0.0314,0.0314,0.0000,0.0000,0.0000,0.0000,2443.1256,2443.1256,1719.4170,1719.4170,0.0000,0.0000,0.0000,0.0000,0.0000,-10.9766,-10.9766,15.1721,15.1721,62.4382,62.4382,-74.9427,-74.9427,0.0000,-0.5762,13941.2169,0.0000,0.6673,0.6673,0.5196,0.5196,0.0000,0.0000,225.4097,377.9879,2.8825,0.0000,175.0246,200.0808,-24.1238
5.3000,accel,40.7611,0.0000,0.0000,62.1720,17.2037,0.0000,0.0000,1.0000,0.0000,0.0000,2,4184.1054,3670.6114,3670.6114,3304.4241,3304.4241,0.0431,0.0431,0.1381,0.1381,0.0000,0.0000,0.0000,0.0000,2392.6739,2392.6739,3243.6640,3243.6640,0.0000,0.0000,0.0000,0.0000,0.0000,-11.2762,-11.2762,14.9457,14.9457,68.5596,68.5596,-75.3916,-75.3916,0.0000,-0.5778,13950.0710,0.0000,0.6518,0.6518,0.9816,0.9816,0.0000,0.0000,233.5753,386.2818,3.1200,0.0000,175.3245,207.8373,-24.5329
5.4000,accel,42.5037,0.0000,0.0000,63.4467,17.5786,0.0000,0.0000,1.0000,0.0000,0.0000,2,3832.3957,3455.9147,3455.9147,3522.2833,3522.2833,0.0238,0.0238,0.0484,0.0484,0.0000,0.0000,0.0000,0.0000,1409.1825,1409.1825,2481.1007,2481.1007,0.0000,0.0000,0.0000,0.0000,0.0000,-14.4500,-14.4500,18.1013,18.1013,13.6518,13.6518,-36.5073,-36.5073,0.0000,-0.7173,13956.3959,0.0000,0.4078,0.4078,0.7044,0.7044,0.0000,0.0000,241.0527,397.9782,3.3696,0.0000,178.1370,216.4715,-23.3761
5.5000,accel,44.2777,0.0000,0.0000,64.4014,17.8862,0.0000,0.0000,1.0000,0.0000,0.0000,2,3975.0697,3391.2995,3391.2995,3590.6042,3590.6042,0.0193,0.0193,-0.0113,-0.0113,0.0000,0.0000,0.0000,0.0000,1141.0205,1141.0205,-808.5380,-808.5380,0.0000,0.0000,0.0000,0.0000,0.0000,-14.5853,-14.5853,18.0974,18.0974,-8.2018,-8.2018,-17.6462,-17.6462,0.0000,-0.7202,13963.8074,0.0000,0.3365,0.3365,0.2252,0.2252,0.0000,0.0000,249.5891,406.8017,3.6329,0.0000,180.1135,223.0553,-25.3288
5.6000,accel,46.0757,0.0000,0.0000,65.2958,18.0824,0.0000,0.0000,1.0000,0.0000,0.0000,2,4267.3941,3385.7182,3385.7182,3598.3935,3598.3935,0.0207,0.0207,0.1439,0.1439,0.0000,0.0000,0.0000,0.0000,1215.4856,1215.4856,3509.7410,3509.7410,0.0000,0.0000,0.0000,0.0000,0.0000,-11.3474,-11.3474,15.5109,15.5109,-33.2208,-33.2208,3.6532,3.6532,0.0000,-0.5919,13968.2235,0.0000,0.3590,0.3590,0.9754,0.9754,0.0000,0.0000,258.7521,415.6480,3.9071,0.0000,182.4327,229.3081,-28.2389
5.7000,accel,47.9118,0.0000,0.0000,66.3888,18.4646,0.0000,0.0000,1.0000,0.0000,0.0000,2,4347.9550,3484.9901,3484.9901,3505.0308,3505.0308,0.0179,0.0179,-0.0633,-0.0633,0.0000,0.0000,0.0000,0.0000,1085.2943,1085.2943,-2955.4898,-2955.4898,0.0000,0.0000,0.0000,0.0000,0.0000,-13.5637,-13.5637,17.1339,17.1339,14.5422,14.5422,-36.5381,-36.5381,0.0000,-0.6765,13980.0418,0.0000,0.3114,0.3114,0.8432,0.8432,0.0000,0.0000,267.5079,425.2422,4.1990,0.0000,183.9721,237.0711,-29.2317
5.8000,accel,49.7751,0.0000,0.0000,67.8420,18.7982,0.0000,0.0000,1.0000,0.0000,0.0000,2,4142.0277,3333.4494,3333.4494,3660.5940,3660.5940,0.0122,0.0122,0.0857,0.0857,0.0000,0.0000,0.0000,0.0000,708.1595,708.1595,3303.9419,3303.9419,0.0000,0.0000,0.0000,0.0000,0.0000,-15.0208,-15.0208,18.7380,18.7380,-23.0246,-23.0246,-4.3326,-4.3326,0.0000,-0.7439,13988.0868,0.0000,0.2124,0.2124,0.9026,0.9026,0.0000,0.0000,275.9042,437.2194,4.5042,0.0000,185.1228,247.5924,-27.1067
5.9000,accel,51.6726,0.0000,0.0000,68.9290,19.1019,0.0000,0.0000,1.0000,0.0000,0.0000,2,4207.9265,3339.0180,3339.0180,3659.0566,3659.0566,0.0134,0.0134,0.0699,0.0699,0.0000,0.0000,0.0000,0.0000,783.0576,783.0576,3088.3837,3088.3837,0.0000,0.0000,0.0000,0.0000,0.0000,-14.1490,-14.1490,18.1269,18.1269,-28.1445,-28.1445,-1.1324,-1.1324,0.0000,-0.7113,13996.1492,0.0000,0.2345,0.2345,0.8440,0.8440,0.0000,0.0000,285.0254,447.2349,4.8264,0.0000,186.7999,255.6086,-28.2118
6.0000,accel,53.6014,0.0000,0.0000,70.0219,19.4055,0.0000,0.0000,1.0000,0.0000,0.0000,2,4298.8708,3302.0495,3302.0495,3701.4178,3701.4178,0.0084,0.0084,0.0916,0.0916,0.0000,0.0000,0.0000,0.0000,475.4804,475.4804,3393.3385,3393.3385,0.0000,0.0000,0.0000,0.0000,0.0000,-13.9262,-13.9262,17.3372,17.3372,-40.7889,-40.7889,22.2258,22.2258,0.0000,-0.6889,14006.9347,0.0000,0.1440,0.1440,0.9168,0.9168,0.0000,0.0000,294.3395,457.2611,5.1649,0.0000,188.2951,263.8011,-29.3334
6.1000,accel,55.5591,0.0000,0.0000,70.8245,19.6213,0.0000,0.0000,1.0000,0.0000,0.0000,2,4617.6572,3458.6037,3458.6037,3546.8760,3546.8760,0.0167,0.0167,0.1425,0.1425,0.0000,0.0000,0.0000,0.0000,1009.8265,1009.8265,3462.8425,3462.8425,0.0000,0.0000,0.0000,0.0000,0.0000,-10.1362,-10.1362,14.0967,14.0967,-23.4844,-23.4844,-5.6635,-5.6635,0.0000,-0.5340,14010.9594,0.0000,0.2920,0.2920,0.9763,0.9763,0.0000,0.0000,304.3757,466.1782,5.5187,0.0000,190.7641,269.8953,-33.2753
6.2000,accel,57.5508,0.0000,0.0000,72.1546,20.0853,0.0000,0.0000,1.0000,0.0000,0.0000,2,4482.0862,3297.0602,3297.0602,3716.2593,3716.2593,0.0030,0.0030,-0.1035,-0.1035,0.0000,0.0000,0.0000,0.0000,139.0159,139.0159,-3601.5926,-3601.5926,0.0000,0.0000,0.0000,0.0000,0.0000,-16.3500,-16.3500,19.1888,19.1888,-26.0294,-26.0294,7.2783,7.2783,0.0000,-0.7832,14026.6390,0.0000,0.0422,0.0422,0.9691,0.9691,0.0000,0.0000,313.4941,478.1690,5.8914,0.0000,192.1228,280.1548,-32.1342
6.3000,accel,59.5733,0.0000,0.0000,73.2031,20.2995,0.0000,0.0000,1.0000,0.0000,0.0000,2,4846.9741,3279.2811,3279.2811,3737.9994,3737.9994,-0.0088,-0.0088,0.1290,0.1290,0.0000,0.0000,0.0000,0.0000,-597.2882,-597.2882,3605.9536,3605.9536,0.0000,0.0000,0.0000,0.0000,0.0000,-11.8280,-11.8280,15.4320,15.4320,-63.7724,-63.7724,52.7795,52.7795,0.0000,-0.6007,14034.5610,0.0000,0.1821,0.1821,0.9647,0.9647,0.0000,0.0000,323.8392,486.6781,6.2816,0.0000,192.0196,288.3769,-34.2572
6.4000,accel,61.6260,0.0000,0.0000,74.6129,20.6910,0.0000,0.0000,1.0000,0.0000,0.0000,2,4637.6223,3413.3804,3413.3804,3608.7681,3608.7681,-0.0007,-0.0007,0.0745,0.0745,0.0000,0.0000,0.0000,0.0000,-95.7752,-95.7752,3123.5343,3123.5343,0.0000,0.0000,0.0000,0.0000,0.0000,-15.6572,-15.6572,18.6019,18.6019,1.7068,1.7068,-22.8769,-22.8769,0.0000,-0.7550,14044.2969,0.0000,0.0281,0.0281,0.8655,0.8655,0.0000,0.0000,333.1293,499.5864,6.6896,0.0000,193.2752,299.6216,-32.3026
6.5000,accel,63.7053,0.0000,0.0000,75.4962,20.9293,0.0000,0.0000,1.0000,0.0000,0.0000,2,4712.2491,3202.3262,3202.3262,3824.8079,3824.8079,0.0011,0.0011,0.1067,0.1067,0.0000,0.0000,0.0000,0.0000,18.8982,18.8982,3599.3466,3599.3466,0.0000,0.0000,0.0000,0.0000,0.0000,-13.3526,-13.3526,17.1485,17.1485,-75.9598,-75.9598,68.0469,68.0469,0.0000,-0.6721,14054.2683,0.0000,0.0059,0.0059,0.9411,0.9411,0.0000,0.0000,343.1471,511.0416,7.1136,0.0000,197.1562,306.7718,-35.1702
6.6000,accel,65.8200,0.0000,0.0000,76.3334,21.2295,0.0000,0.0000,1.0000,0.0000,0.0000,2,5036.4890,3269.1245,3269.1245,3762.2474,3762.2474,0.0056,0.0056,-0.0382,-0.0382,0.0000,0.0000,0.0000,0.0000,301.5764,301.5764,-2357.9138,-2357.9138,0.0000,0.0000,0.0000,0.0000,0.0000,-12.4221,-12.4221,16.1319,16.1319,-64.0524,-64.0524,52.0733,52.0733,0.0000,-0.6292,14062.7437,0.0000,0.0922,0.0922,0.6267,0.6267,0.0000,0.0000,353.9091,520.3249,7.5596,0.0000,199.1375,313.6278,-39.0762
6.7000,accel,67.9652,0.0000,0.0000,77.9553,21.6181,0.0000,0.0000,1.0000,0.0000,0.0000,2,4848.2187,3317.8971,3317.8971,3718.7109,3718.7109,0.0003,0.0003,0.0727,0.0727,0.0000,0.0000,0.0000,0.0000,-31.0649,-31.0649,3180.2791,3180.2791,0.0000,0.0000,0.0000,0.0000,0.0000,-15.9846,-15.9846,18.9869,18.9869,-25.3704,-25.3704,4.6398,4.6398,0.0000,-0.7707,14073.2159,0.0000,0.0094,0.0094,0.8552,0.8552,0.0000,0.0000,363.4690,533.6347,8.0252,0.0000,198.4776,327.1318,-35.1322
6.8000,accel,70.1371,0.0000,0.0000,78.8298,21.8563,0.0000,0.0000,1.0000,0.0000,0.0000,2,4887.3311,3203.2494,3203.2494,3838.4505,3838.4505,0.0003,0.0003,0.1008,0.1008,0.0000,0.0000,0.0000,0.0000,-29.8745,-29.8745,3575.8928,3575.8928,0.0000,0.0000,0.0000,0.0000,0.0000,-13.5549,-13.5549,17.3582,17.3582,-75.9172,-75.9172,67.9095,67.9095,0.0000,-0.6812,14083.3999,0.0000,0.0093,0.0093,0.9316,0.9316,0.0000,0.0000,373.7014,545.6475,8.5084,0.0000,202.6133,334.5257,-37.9706
6.9000,accel,72.3434,0.0000,0.0000,79.6276,22.1406,0.0000,0.0000,1.0000,0.0000,0.0000,2,5240.3707,3260.9764,3260.9764,3785.1080,3785.1080,0.0043,0.0043,-0.0292,-0.0292,0.0000,0.0000,0.0000,0.0000,219.3652,219.3652,-1937.6295,-1937.6295,0.0000,0.0000,0.0000,0.0000,0.0000,-12.0938,-12.0938,15.8766,15.8766,-70.3853,-70.3853,60.2848,60.2848,0.0000,-0.6164,14092.1687,0.0000,0.0673,0.0673,0.5119,0.5119,0.0000,0.0000,384.8392,554.9942,9.0149,0.0000,204.6356,341.3437,-42.2905
7.0000,accel,74.5800,0.0000,0.0000,81.2360,22.5297,0.0000,0.0000,1.0000,0.0000,0.0000,2,5047.1899,3338.7246,3338.7246,3712.5425,3712.5425,0.0002,0.0002,0.0723,0.0723,0.0000,0.0000,0.0000,0.0000,-39.8310,-39.8310,3168.9029,3168.9029,0.0000,0.0000,0.0000,0.0000,0.0000,-15.8542,-15.8542,18.8477,18.8477,-22.0420,-22.0420,0.0148,0.0148,0.0000,-0.7647,14102.5342,0.0000,0.0119,0.0119,0.8536,0.8536,0.0000,0.0000,394.6654,568.7586,9.5427,0.0000,203.9093,355.3065,-38.1539
7.1000,accel,76.8437,0.0000,0.0000,82.1392,22.7767,0.0000,0.0000,1.0000,0.0000,0.0000,2,5049.9420,3214.6222,3214.6222,3842.1713,3842.1713,-0.0002,-0.0002,0.0925,0.0925,0.0000,0.0000,0.0000,0.0000,-60.1024,-60.1024,3516.5643,3516.5643,0.0000,0.0000,0.0000,0.0000,0.0000,-13.7933,-13.7933,17.4728,17.4728,-72.6902,-72.6902,64.6285,64.6285,0.0000,-0.6890,14113.5870,0.0000,0.0187,0.0187,0.9153,0.9153,0.0000,0.0000,405.0700,581.2456,10.0898,0.0000,207.8904,363.2653,-40.5996
7.2000,accel,79.1410,0.0000,0.0000,82.8900,23.0513,0.0000,0.0000,1.0000,0.0000,0.0000,2,5413.7092,3254.0396,3254.0396,3807.4945,3807.4945,0.0030,0.0030,-0.0346,-0.0346,0.0000,0.0000,0.0000,0.0000,134.5586,134.5586,-2219.2565,-2219.2565,0.0000,0.0000,0.0000,0.0000,0.0000,-12.1539,-12.1539,15.7634,15.7634,-73.6667,-73.6667,66.7413,66.7413,0.0000,-0.6152,14123.0682,0.0000,0.0414,0.0414,0.5829,0.5829,0.0000,0.0000,416.5296,590.6810,10.6617,0.0000,210.0704,369.9490,-45.3755
7.3000,accel,81.4678,0.0000,0.0000,84.3536,23.4302,0.0000,0.0000,1.0000,0.0000,0.0000,2,5071.3869,3298.3270,3298.3270,3768.7543,3768.7543,-0.0004,-0.0004,0.0052,0.0052,0.0000,0.0000,0.0000,0.0000,-73.5130,-73.5130,313.6540,313.6540,0.0000,0.0000,0.0000,0.0000,0.0000,-15.6327,-15.6327,18.6506,18.6506,-36.9041,-36.9041,20.8203,20.8203,0.0000,-0.7555,14134.1626,0.0000,0.0223,0.0223,0.0832,0.0832,0.0000,0.0000,426.3166,606.0084,11.2558,0.0000,211.5933,383.1593,-41.9523
7.4000,accel,83.8250,0.0000,0.0000,85.1527,23.6890,0.0000,0.0000,1.0000,0.0000,0.0000,2,5393.4595,3310.6220,3310.6220,3761.2356,3761.2356,-0.0020,-0.0020,-0.0462,-0.0462,0.0000,0.0000,0.0000,0.0000,-173.1849,-173.1849,-2672.1913,-2672.1913,0.0000,0.0000,0.0000,0.0000,0.0000,-13.5033,-13.5033,16.7281,16.7281,-49.1137,-49.1137,35.9619,35.9619,0.0000,-0.6662,14143.7154,0.0000,0.0523,0.0523,0.7105,0.7105,0.0000,0.0000,437.7488,615.8768,11.8735,0.0000,213.5381,390.4652,-46.0785
7.5000,accel,86.2090,0.0000,0.0000,86.5204,23.9982,0.0000,0.0000,1.0000,0.0000,0.0000,2,5186.7628,3357.5187,3357.5187,3718.6920,3718.6920,0.0001,0.0001,0.0704,0.0704,0.0000,0.0000,0.0000,0.0000,-43.3839,-43.3839,3141.9915,3141.9915,0.0000,0.0000,0.0000,0.0000,0.0000,-14.6263,-14.6263,18.0225,18.0225,-28.3123,-28.3123,4.7000,4.7000,0.0000,-0.7195,14152.4214,0.0000,0.0129,0.0129,0.8449,0.8449,0.0000,0.0000,447.9255,630.4576,12.5126,0.0000,214.8086,403.1364,-43.5841
7.6000,accel,88.6248,0.0000,0.0000,87.1807,24.2327,0.0000,0.0000,1.0000,0.0000,0.0000,2,5631.7496,3227.5543,3227.5543,3854.9824,3854.9824,0.0004,0.0004,-0.0158,-0.0158,0.0000,0.0000,0.0000,0.0000,-24.4005,-24.4005,-1166.5129,-1166.5129,0.0000,0.0000,0.0000,0.0000,0.0000,-11.6687,-11.6687,15.3656,15.3656,-87.0454,-87.0454,84.7877,84.7877,0.0000,-0.5958,14165.0733,0.0000,0.0076,0.0076,0.3026,0.3026,0.0000,0.0000,459.8092,639.4807,13.1775,0.0000,216.9807,409.3225,-49.2817
7.7000,accel,91.0695,0.0000,0.0000,88.4343,24.5897,0.0000,0.0000,1.0000,0.0000,0.0000,2,5440.1448,3312.2637,3312.2637,3775.3955,3775.3955,-0.0009,-0.0009,-0.0270,-0.0270,0.0000,0.0000,0.0000,0.0000,-106.7977,-106.7977,-1818.5772,-1818.5772,0.0000,0.0000,0.0000,0.0000,0.0000,-14.4833,-14.4833,17.6523,17.6523,-43.4706,-43.4706,28.5485,28.5485,0.0000,-0.7082,14175.3184,0.0000,0.0322,0.0322,0.4817,0.4817,0.0000,0.0000,470.2081,653.9814,13.8667,0.0000,218.9119,421.2028,-47.8002
7.8000,accel,93.5450,0.0000,0.0000,89.4884,24.8838,0.0000,0.0000,1.0000,0.0000,0.0000,2,5488.8885,3314.3689,3314.3689,3779.1270,3779.1270,-0.0009,-0.0009,-0.0290,-0.0290,0.0000,0.0000,0.0000,0.0000,-105.1727,-105.1727,-1927.6159,-1927.6159,0.0000,0.0000,0.0000,0.0000,0.0000,-14.3854,-14.3854,17.1259,17.1259,-44.1799,-44.1799,34.0223,34.0223,0.0000,-0.6944,14186.9918,0.0000,0.0317,0.0317,0.5101,0.5101,0.0000,0.0000,481.2924,666.2371,14.5821,0.0000,220.3301,431.3249,-48.7625
7.9000,accel,96.0474,0.0000,0.0000,90.4338,25.0877,0.0000,0.0000,1.0000,0.0000,0.0000,2,5617.2111,4274.7028,4274.7028,2829.3151,2829.3151,0.0033,0.0033,0.0980,0.0980,0.0000,0.0000,0.0000,0.0000,196.3685,196.3685,2704.3631,2704.3631,0.0000,0.0000,0.0000,0.0000,0.0000,-10.6180,-10.6180,14.2892,14.2892,284.0086,284.0086,-227.4530,-227.4530,0.0000,-0.5489,14208.0359,0.0000,0.0459,0.0459,0.9558,0.9558,0.0000,0.0000,492.6066,678.1067,15.3213,0.0000,222.2813,440.5041,-50.8974
8.0000,cruise,98.5777,0.0000,0.0000,91.6934,25.4627,0.0000,0.0000,0.0000,0.0000,0.0000,2,5491.4829,3293.9582,3293.9582,3809.9194,3809.9194,-0.0001,-0.0001,0.0130,0.0130,0.0000,0.0000,0.0000,0.0000,-56.6750,-56.6750,857.5950,857.5950,0.0000,0.0000,0.0000,0.0000,0.0000,-14.8086,-14.8086,18.0155,18.0155,-48.2128,-48.2128,34.8723,34.8723,0.0000,-0.7233,14207.7551,0.0000,0.0172,0.0172,0.2251,0.2251,0.0000,0.0000,503.2579,692.3319,16.0853,0.0000,223.3619,452.8847,-49.1681
8.1000,cruise,101.1274,0.0000,0.0000,91.6921,25.5066,0.0000,0.0000,0.0000,0.0000,0.0000,2,5325.2079,3324.7980,3324.7980,3780.5080,3780.5080,-0.0038,-0.0038,-0.0446,-0.0446,0.0000,0.0000,0.0000,0.0000,-290.2435,-290.2435,-2626.4845,-2626.4845,0.0000,0.0000,0.0000,0.0000,0.0000,-6.2107,-6.2107,10.9386,10.9386,-100.9090,-100.9090,93.6793,93.6793,0.0000,-0.3779,14210.6119,0.0000,0.0873,0.0873,0.6947,0.6947,0.0000,0.0000,502.0536,694.9855,16.8670,0.0000,225.2560,452.8625,-47.9861
8.2000,cruise,103.6750,0.0000,0.0000,91.6161,25.4855,0.0000,0.0000,0.0000,0.0000,0.0000,2,5306.7895,3319.3122,3319.3122,3786.0203,3786.0203,-0.0039,-0.0039,-0.0446,-0.0446,0.0000,0.0000,0.0000,0.0000,-294.2358,-294.2358,-2627.1862,-2627.1862,0.0000,0.0000,0.0000,0.0000,0.0000,-1.1454,-1.1454,6.9731,6.9731,-138.6115,-138.6115,135.6345,135.6345,0.0000,-0.1789,14210.6650,0.0000,0.0886,0.0886,0.6939,0.6939,0.0000,0.0000,501.0795,696.3923,17.6468,0.0000,226.6458,452.0997,-47.7748
8.3000,cruise,106.2205,0.0000,0.0000,91.5404,25.4645,0.0000,0.0000,0.0000,0.0000,0.0000,2,5288.4094,3317.1762,3317.1762,3787.9348,3787.9348,-0.0039,-0.0039,-0.0446,-0.0446,0.0000,0.0000,0.0000,0.0000,-294.8415,-294.8415,-2628.4370,-2628.4370,0.0000,0.0000,0.0000,0.0000,0.0000,1.0053,1.0053,5.2924,5.2924,-154.5391,-154.5391,153.3011,153.3011,0.0000,-0.0945,14210.2219,0.0000,0.0889,0.0889,0.6939,0.6939,0.0000,0.0000,500.1084,697.7995,18.4247,0.0000,228.0346,451.3402,-47.5631
8.4000,cruise,108.7639,0.0000,0.0000,91.4648,25.4435,0.0000,0.0000,0.0000,0.0000,0.0000,2,5270.0667,3316.0161,3316.0161,3788.7751,3788.7751,-0.0039,-0.0039,-0.0446,-0.0446,0.0000,0.0000,0.0000,0.0000,-295.9680,-295.9680,-2629.0486,-2629.0486,0.0000,0.0000,0.0000,0.0000,0.0000,1.9189,1.9189,4.5807,4.5807,-161.3513,-161.3513,160.8489,160.8489,0.0000,-0.0587,14209.5824,0.0000,0.0893,0.0893,0.6939,0.6939,0.0000,0.0000,499.1401,699.2068,19.2007,0.0000,229.4234,450.5827,-47.3524
8.5000,cruise,111.3052,0.0000,0.0000,91.3893,25.4226,0.0000,0.0000,0.0000,0.0000,0.0000,2,5251.7611,3315.2656,3315.2656,3789.1648,3789.1648,-0.0039,-0.0039,-0.0446,-0.0446,0.0000,0.0000,0.0000,0.0000,-297.3407,-297.3407,-2629.3801,-2629.3801,0.0000,0.0000,0.0000,0.0000,0.0000,2.3075,2.3075,4.2800,4.2800,-164.2966,-164.2966,164.1056,164.1056,0.0000,-0.0435,14208.8608,0.0000,0.0897,0.0897,0.6939,0.6939,0.0000,0.0000,498.1748,700.6142,19.9747,0.0000,230.8124,449.8271,-47.1427
8.6000,cruise,113.8444,0.0000,0.0000,91.3140,25.4017,0.0000,0.0000,0.0000,0.0000,0.0000,2,5233.4925,3314.6880,3314.6880,3789.3649,3789.3649,-0.0039,-0.0039,-0.0446,-0.0446,0.0000,0.0000,0.0000,0.0000,-298.8259,-298.8259,-2629.5909,-2629.5909,0.0000,0.0000,0.0000,0.0000,0.0000,2.4733,2.4733,4.1537,4.1537,-165.6012,-165.6012,165.5422,165.5422,0.0000,-0.0370,14208.1058,0.0000,0.0902,0.0902,0.6939,0.6939,0.0000,0.0000,497.2125,702.0217,20.7469,0.0000,232.2014,449.0734,-46.9340
8.7000,cruise,116.3815,0.0000,0.0000,91.2388,25.3808,0.0000,0.0000,0.0000,0.0000,0.0000,2,5215.2609,3314.1830,3314.1830,3789.4858,3789.4858,-0.0040,-0.0040,-0.0446,-0.0446,0.0000,0.0000,0.0000,0.0000,-300.3662,-300.3662,-2629.7485,-2629.7485,0.0000,0.0000,0.0000,0.0000,0.0000,2.5445,2.5445,4.1014,4.1014,-166.2100,-166.2100,166.2069,166.2069,0.0000,-0.0343,14207.3376,0.0000,0.0906,0.0906,0.6940,0.6940,0.0000,0.0000,496.2531,703.4292,21.5171,0.0000,233.5906,448.3215,-46.7265
8.8000,cruise,118.9165,0.0000,0.0000,91.1637,25.3599,0.0000,0.0000,0.0000,0.0000,0.0000,2,5197.0663,3313.7080,3313.7080,3789.5745,3789.5745,-0.0040,-0.0040,-0.0446,-0.0446,0.0000,0.0000,0.0000,0.0000,-301.9374,-301.9374,-2629.8819,-2629.8819,0.0000,0.0000,0.0000,0.0000,0.0000,2.5757,2.5757,4.0805,4.0805,-166.5238,-166.5238,166.5446,166.5446,0.0000,-0.0332,14206.5650,0.0000,0.0911,0.0911,0.6940,0.6940,0.0000,0.0000,495.2966,704.8367,22.2854,0.0000,234.9798,447.5714,-46.5201
8.9000,cruise,121.4495,0.0000,0.0000,91.0887,25.3391,0.0000,0.0000,0.0000,0.0000,0.0000,2,5178.9087,3313.2450,3313.2450,3789.6508,3789.6508,-0.0040,-0.0040,-0.0446,-0.0446,0.0000,0.0000,0.0000,0.0000,-303.5289,-303.5289,-2630.0032,-2630.0032,0.0000,0.0000,0.0000,0.0000,0.0000,2.5898,2.5898,4.0730,4.0730,-166.7128,-166.7128,166.7437,166.7437,0.0000,-0.0327,14205.7916,0.0000,0.0916,0.0916,0.6940,0.6940,0.0000,0.0000,494.3431,706.2442,23.0518,0.0000,236.3692,446.8232,-46.3148
9.0000,cruise,123.9803,0.0000,0.0000,91.0139,25.3184,0.0000,0.0000,0.0000,0.0000,0.0000,2,5160.7883,3312.7862,3312.7862,3789.7232,3789.7232,-0.0041,-0.0041,-0.0446,-0.0446,0.0000,0.0000,0.0000,0.0000,-305.1366,-305.1366,-2630.1176,-2630.1176,0.0000,0.0000,0.0000,0.0000,0.0000,2.5967,2.5967,4.0711,4.0711,-166.8490,-166.8490,166.8844,166.8844,0.0000,-0.0325,14205.0190,0.0000,0.0921,0.0921,0.6940,0.6940,0.0000,0.0000,493.3925,707.6518,23.8164,0.0000,237.7587,446.0767,-46.1107
9.1000,cruise,126.5091,0.0000,0.0000,90.9391,25.2976,0.0000,0.0000,0.0000,0.0000,0.0000,2,5142.7052,3312.3286,3312.3286,3789.7953,3789.7953,-0.0041,-0.0041,-0.0446,-0.0446,0.0000,0.0000,0.0000,0.0000,-306.7584,-306.7584,-2630.2273,-2630.2273,0.0000,0.0000,0.0000,0.0000,0.0000,2.6006,2.6006,4.0716,4.0716,-166.9633,-166.9633,167.0007,167.0007,0.0000,-0.0324,14204.2478,0.0000,0.0926,0.0926,0.6940,0.6940,0.0000,0.0000,492.4448,709.0594,24.5791,0.0000,239.1483,445.3321,-45.9076
9.2000,cruise,129.0358,0.0000,0.0000,90.8645,25.2769,0.0000,0.0000,0.0000,0.0000,0.0000,2,5124.6593,3311.8705,3311.8705,3789.8686,3789.8686,-0.0041,-0.0041,-0.0446,-0.0446,0.0000,0.0000,0.0000,0.0000,-308.3938,-308.3938,-2630.3332,-2630.3332,0.0000,0.0000,0.0000,0.0000,0.0000,2.6031,2.6031,4.0732,4.0732,-167.0685,-167.0685,167.1069,167.1069,0.0000,-0.0324,14203.4783,0.0000,0.0931,0.0931,0.6940,0.6940,0.0000,0.0000,491.4999,710.4671,25.3399,0.0000,240.5380,444.5892,-45.7057
9.3000,cruise,131.5605,0.0000,0.0000,90.7901,25.2563,0.0000,0.0000,0.0000,0.0000,0.0000,2,5106.6509,3311.4115,3311.4115,3789.9438,3789.9438,-0.0041,-0.0041,-0.0446,-0.0446,0.0000,0.0000,0.0000,0.0000,-310.0425,-310.0425,-2630.4358,-2630.4358,0.0000,0.0000,0.0000,0.0000,0.0000,2.6052,2.6052,4.0752,4.0752,-167.1702,-167.1702,167.2091,167.2091,0.0000,-0.0324,14202.7106,0.0000,0.0936,0.0936,0.6941,0.6941,0.0000,0.0000,490.5580,711.8747,26.0988,0.0000,241.9278,443.8481,-45.5048
9.4000,cruise,134.0831,0.0000,0.0000,90.7157,25.2356,0.0000,0.0000,0.0000,0.0000,0.0000,2,5088.6800,3310.9513,3310.9513,3790.0211,3790.0211,-0.0042,-0.0042,-0.0446,-0.0446,0.0000,0.0000,0.0000,0.0000,-311.7046,-311.7046,-2630.5352,-2630.5352,0.0000,0.0000,0.0000,0.0000,0.0000,2.6070,2.6070,4.0773,4.0773,-167.2708,-167.2708,167.3101,167.3101,0.0000,-0.0324,14201.9448,0.0000,0.0941,0.0941,0.6941,0.6941,0.0000,0.0000,489.6190,713.2824,26.8558,0.0000,243.3177,443.1088,-45.3051
9.5000,cruise,136.6036,0.0000,0.0000,90.6415,25.2150,0.0000,0.0000,0.0000,0.0000,0.0000,2,5070.7467,3310.4897,3310.4897,3790.1007,3790.1007,-0.0042,-0.0042,-0.0446,-0.0446,0.0000,0.0000,0.0000,0.0000,-313.3800,-313.3800,-2630.6314,-2630.6314,0.0000,0.0000,0.0000,0.0000,0.0000,2.6087,2.6087,4.0796,4.0796,-167.3712,-167.3712,167.4108,167.4108,0.0000,-0.0324,14201.1808,0.0000,0.0947,0.0947,0.6941,0.6941,0.0000,0.0000,488.6828,714.6901,27.6111,0.0000,244.7078,442.3713,-45.1065
9.6000,cruise,139.1220,0.0000,0.0000,90.5674,25.1945,0.0000,0.0000,0.0000,0.0000,0.0000,2,5052.8511,3310.0267,3310.0267,3790.1827,3790.1827,-0.0042,-0.0042,-0.0446,-0.0446,0.0000,0.0000,0.0000,0.0000,-315.0689,-315.0689,-2630.7246,-2630.7246,0.0000,0.0000,0.0000,0.0000,0.0000,2.6103,2.6103,4.0819,4.0819,-167.4719,-167.4719,167.5117,167.5117,0.0000,-0.0324,14200.4187,0.0000,0.0952,0.0952,0.6941,0.6941,0.0000,0.0000,487.7495,716.0978,28.3644,0.0000,246.0979,441.6355,-44.9089
9.7000,cruise,141.6384,0.0000,0.0000,90.4934,25.1739,0.0000,0.0000,0.0000,0.0000,0.0000,2,5034.9933,3309.5622,3309.5622,3790.2670,3790.2670,-0.0042,-0.0042,-0.0446,-0.0446,0.0000,0.0000,0.0000,0.0000,-316.7715,-316.7715,-2630.8147,-2630.8147,0.0000,0.0000,0.0000,0.0000,0.0000,2.6120,2.6120,4.0843,4.0843,-167.5730,-167.5730,167.6131,167.6131,0.0000,-0.0324,14199.6584,0.0000,0.0957,0.0957,0.6941,0.6941,0.0000,0.0000,486.8190,717.5056,29.1159,0.0000,247.4881,440.9015,-44.7125
9.8000,cruise,144.1528,0.0000,0.0000,90.4195,25.1534,0.0000,0.0000,0.0000,0.0000,0.0000,2,5017.1734,3309.0962,3309.0962,3790.3538,3790.3538,-0.0043,-0.0043,-0.0446,-0.0446,0.0000,0.0000,0.0000,0.0000,-318.4878,-318.4878,-2630.9017,-2630.9017,0.0000,0.0000,0.0000,0.0000,0.0000,2.6137,2.6137,4.0867,4.0867,-167.6747,-167.6747,167.7150,167.7150,0.0000,-0.0325,14198.9000,0.0000,0.0962,0.0962,0.6941,0.6941,0.0000,0.0000,485.8914,718.9133,29.8656,0.0000,248.8785,440.1692,-44.5171
9.9000,cruise,146.6651,0.0000,0.0000,90.3457,25.1329,0.0000,0.0000,0.0000,0.0000,0.0000,2,4999.3916,3308.6287,3308.6287,3790.4430,3790.4430,-0.0043,-0.0043,-0.0446,-0.0446,0.0000,0.0000,0.0000,0.0000,-320.2180,-320.2180,-2630.9857,-2630.9857,0.0000,0.0000,0.0000,0.0000,0.0000,2.6153,2.6153,4.0891,4.0891,-167.7770,-167.7770,167.8176,167.8176,0.0000,-0.0325,14198.1435,0.0000,0.0968,0.0968,0.6941,0.6941,0.0000,0.0000,484.9666,720.3211,30.6135,0.0000,250.2689,439.4387,-44.3228
10.0000,step,149.1754,0.0000,0.0000,90.2721,25.1125,0.0000,0.0000,0.0000,0.0000,1.5000,2,4981.6507,3308.1596,3308.1596,3790.5347,3790.5347,-0.0043,-0.0043,-0.0446,-0.0446,0.0000,0.0000,0.0000,0.0000,-321.9623,-321.9623,-2631.0667,-2631.0667,0.0000,0.0000,0.0000,0.0000,0.0000,2.6170,2.6170,4.0915,4.0915,-167.8799,-167.8799,167.9207,167.9207,0.0000,-0.0325,14197.3888,0.0000,0.0973,0.0973,0.6941,0.6941,0.0000,14.4880,484.0447,721.7289,31.3595,0.0000,251.6595,438.7099,-44.1297
10.1000,step,151.6833,0.0074,0.2396,90.1882,25.0860,0.0425,4.5709,0.0000,0.0000,1.5000,2,4963.9538,2929.2932,3808.7382,3403.7880,4053.8547,0.0043,0.0025,-0.0429,-0.0492,-1.4718,-0.9366,-0.1463,-0.1457,-6.5300,-32.6416,-2324.3139,-2960.7251,1112.9844,870.2014,4.1519,3.7500,0.1448,-2.8525,7.8882,-0.2570,7.8895,-237.0037,-62.4526,56.8242,235.3861,0.3491,-0.0286,14195.6742,1.0582,0.3800,0.2286,0.6829,0.7303,314.4523,14.4727,483.0064,723.1359,32.1034,0.0000,253.1401,437.8924,-43.9090
10.2000,step,154.1887,0.0295,0.9371,90.1055,25.0621,-0.0993,8.8793,0.0000,0.0000,1.5000,2,4946.3011,2492.3921,4268.4477,3062.2102,4371.8292,0.0045,0.0026,-0.0434,-0.0503,-1.5897,-1.0548,-0.7252,-0.7184,-4.2391,-36.2095,-2039.7435,-3108.8824,1016.9924,1022.7202,114.1090,108.1852,0.1647,-15.8038,20.6428,-9.8825,17.3198,-269.2732,-22.1617,16.5526,268.3772,1.1764,-0.0286,14194.8792,0.6005,0.4080,0.2398,0.6671,0.7115,161.7194,14.4589,481.9743,724.5332,32.8453,0.0000,254.5855,437.1025,-43.6668
10.3000,step,156.6917,0.0692,2.0423,90.0222,25.0352,-0.3670,12.6830,0.0000,0.0000,1.5000,2,4928.6924,2139.2055,4707.4143,2728.1423,4618.6459,0.0053,0.0035,-0.0452,-0.0566,-2.0210,-1.4810,-1.5699,-1.5487,-0.3605,-31.6671,-1664.8080,-3216.7136,1106.2592,1523.1421,480.3778,475.3966,0.2612,-30.6273,35.3999,-20.9904,28.2004,-264.2501,-2.0989,-4.2054,258.4063,2.1295,-0.0269,14193.4080,0.1917,0.5171,0.3236,0.6351,0.7040,113.0973,14.4434,480.8607,725.8956,33.5851,0.0000,255.9923,436.3182,-43.3374
10.4000,step,159.1914,0.1355,3.4952,89.9190,24.9972,-0.6777,15.7985,0.0000,0.0000,1.5000,2,4911.1275,1841.4308,5064.1003,2458.3871,4828.1395,0.0063,0.0046,-0.0402,-0.0628,-2.5854,-2.0350,-2.4816,-2.4394,2.9294,-25.5304,-1107.1071,-3199.6985,1221.9521,2196.2027,909.8648,1061.1958,0.3929,-44.9827,49.6692,-31.7706,38.5485,-246.7235,-2.0463,-4.1770,238.8615,3.0491,-0.0230,14192.0577,-0.1503,0.6636,0.4337,0.5829,0.6982,90.6561,14.4215,479.5476,727.2181,34.3225,0.0000,257.5536,435.3419,-43.0006
10.5000,step,161.6862,0.2408,5.2296,89.7813,24.9470,-0.9853,18.2566,0.0000,0.0000,1.5000,2,4893.6068,1609.6251,5340.0305,2249.9096,4991.0847,0.0073,0.0055,-0.0376,-0.0676,-3.1796,-2.6151,-3.3507,-3.2844,4.9359,-19.5693,-774.7186,-3117.3492,1302.1968,2889.2037,1223.6007,1725.5660,0.5207,-57.7657,62.0905,-41.2478,47.5607,-221.5632,-11.8487,5.7081,214.0937,3.8566,-0.0219,14190.6498,-0.4202,0.8090,0.5411,0.6437,0.7139,78.2929,14.3925,477.9078,728.5021,35.0568,0.0000,259.4201,434.0252,-42.6775
10.6000,step,164.1737,0.3970,7.1757,89.6016,24.8835,-1.2690,20.0629,0.0000,0.0000,1.5000,2,4876.1302,1447.6257,5540.6586,2097.4881,5103.4067,0.0082,0.0064,-0.0363,-0.0713,-3.7552,-3.1753,-4.1290,-4.0390,6.3878,-14.2060,-591.0775,-3018.9383,1351.9355,3514.1293,1413.0239,2332.8119,0.6280,-68.2900,72.0779,-48.9084,54.8007,-192.5692,-25.7591,21.5686,186.8447,4.5112,-0.0232,14189.1791,-0.6187,0.9339,0.6342,0.7302,0.7476,71.0626,14.3559,475.8650,729.7504,35.7871,0.0000,261.6715,432.2918,-42.3681
10.7000,step,166.6509,0.6140,9.2746,89.3784,24.8068,-1.5226,21.3637,0.0000,0.0000,1.5000,2,4858.6976,1340.6997,5684.6525,1986.5006,5175.3344,0.0090,0.0072,-0.0353,-0.0738,-4.2909,-3.6955,-4.8116,-4.6998,7.6868,-9.5513,-478.1627,-2901.6399,1383.0466,4036.4579,1519.2433,2834.9174,0.7128,-76.3156,79.6442,-54.7455,60.2656,-165.6629,-38.5325,35.8187,161.2414,5.0082,-0.0241,14187.1872,-0.7625,1.0316,0.7101,0.8018,0.7838,66.5297,14.3116,473.4001,730.9683,36.5124,0.0000,264.3272,430.1287,-42.0663
10.8000,step,169.1140,0.9003,11.5051,89.1079,24.7172,-1.7395,22.8941,0.0000,0.0000,1.5000,2,4841.3091,1219.7749,6681.1440,1869.2133,5258.3953,0.0099,0.0077,-0.0342,-0.0755,-4.7406,-4.1299,-5.4230,-5.2882,9.8091,-10.1962,-390.7449,-2802.2427,1365.2151,4976.9567,1556.0747,3247.1265,0.8129,-82.6352,85.6258,-59.3890,64.5915,-154.9169,-37.4979,35.6671,151.5356,5.4014,-0.0244,15028.5275,-0.9204,1.1193,0.7449,0.8583,0.8157,61.8583,14.2599,470.4925,732.1607,37.2315,0.0000,267.4149,427.5143,-41.7731
10.9000,step,171.5583,1.2646,13.9434,88.7856,24.6127,-1.9415,25.4817,0.0000,0.0000,1.5000,2,4823.9645,993.8712,7978.4799,1679.9521,5419.7287,0.0111,0.0081,-0.0327,-0.0769,-5.1136,-4.4844,-6.0708,-5.9035,12.3086,-12.6087,-299.9652,-2732.5543,1225.9240,6097.2062,1493.9443,3658.6347,0.9099,-89.8719,92.6032,-64.7374,69.6876,-167.5843,-15.5103,13.8363,165.4974,5.8571,-0.0244,16072.0319,-1.1881,1.2335,0.7642,0.9070,0.8426,55.3416,14.1996,467.1159,733.3330,37.9435,0.0000,270.9623,424.4272,-41.4837
11.0000,step,173.9780,1.7155,16.7176,88.4048,24.4868,-2.1794,29.4994,0.0000,0.0000,1.5000,2,4806.6666,629.8105,9326.4500,1389.1992,5682.3459,0.0131,0.0085,-0.0301,-0.0780,-5.5128,-4.8564,-6.9035,-6.6839,13.4789,-13.7625,-195.1067,-2647.3736,934.9506,7284.9462,1289.4135,4134.5575,0.9951,-100.0272,100.0000,-72.3248,77.1942,-198.8459,0.0000,-18.6661,195.9366,6.4605,-0.0540,17027.8057,-1.6091,1.4846,0.7811,0.9387,0.8640,47.5599,14.1270,463.2155,734.4858,38.6469,0.0000,275.0152,420.8237,-41.1867
11.1000,step,176.3670,2.2585,19.8927,87.9620,24.3322,-2.5315,33.0112,0.0000,0.0000,1.5000,2,4789.4182,267.3089,9325.5840,1150.3938,6971.1459,0.0158,0.0093,-0.0279,-0.0816,-6.2046,-5.5077,-8.0106,-7.7236,9.2695,-7.0373,-126.0661,-2936.9371,597.3787,7705.6391,1044.0333,5049.1427,1.0502,-112.7956,100.0000,-81.6968,86.8032,-210.9670,0.0000,-19.5817,207.6965,7.0473,-0.1973,17714.4327,-2.0110,2.2351,0.8263,0.9141,0.8379,42.2321,14.0378,458.7787,735.6336,39.3405,0.0000,279.6532,416.6399,-40.9337
11.2000,step,178.7181,2.8977,23.3092,87.4353,24.1475,-2.9048,34.5286,0.0000,0.0000,1.5000,2,4772.2190,824.5664,9324.5664,1083.8275,8287.4120,0.0182,0.0102,-0.0287,-0.0865,-7.0575,-6.3191,-9.0623,-8.7201,29.8729,-0.3488,-112.8855,-3313.5816,852.3867,8011.2323,939.8068,6066.9804,1.1579,-120.0000,100.0000,-89.3740,94.7123,0.0000,0.0000,23.3411,181.1706,7.4685,-0.2792,19520.3722,-2.2029,1.0344,0.8592,0.8734,0.8341,40.0697,13.9313,453.4685,736.8259,40.0229,0.0000,285.1787,411.6243,-40.6392
11.3000,step,181.0224,3.6388,26.8134,86.8230,23.9376,-3.2260,34.7928,0.0000,0.0000,1.5000,2,4755.0694,823.3717,9323.3717,1089.1113,8965.3384,0.0188,0.0111,-0.0291,-0.0889,-7.8622,-7.0889,-9.9313,-9.5499,27.4617,6.8962,-108.9985,-3431.6427,901.8150,8015.1836,924.2046,6658.9102,1.2040,-120.0000,100.0000,-93.5710,99.1575,0.0000,0.0000,68.1410,141.8951,7.6283,-0.2819,20201.1932,-2.2650,1.0958,0.8597,0.8545,0.8356,39.4196,13.8101,447.2768,738.0409,40.6919,0.0000,291.5592,405.7898,-40.2819
11.4000,step,183.2717,4.4831,30.2777,86.1488,23.7115,-3.4903,33.9767,0.0000,0.0000,1.5000,2,4737.9691,783.3077,9322.0496,1156.7015,8972.4592,0.0196,0.0119,-0.0289,-0.0885,-8.6004,-7.8022,-10.6055,-10.2044,26.1657,12.4344,-109.3713,-3278.8138,891.9878,8014.1780,991.0250,6804.5497,1.2189,-120.0000,100.0000,-94.2102,99.8546,-11.0691,0.0000,102.3624,96.7412,7.6530,-0.2826,20234.5180,-2.2036,1.1392,0.8597,0.8620,0.8418,39.9853,13.6797,440.4693,739.2497,41.3462,0.0000,298.5204,399.3832,-39.8811
11.5000,step,185.4594,5.4282,33.6435,85.4309,23.4772,-3.6964,33.0108,0.0000,0.0000,1.5000,2,4720.9177,648.7163,9320.6419,1222.4621,8550.6357,0.0205,0.0125,-0.0273,-0.0859,-9.2214,-8.4055,-11.1376,-10.7256,23.0154,15.9319,-101.8086,-2953.5696,847.5418,8013.1010,1063.5161,6616.4393,1.2073,-120.0000,100.0000,-92.4685,97.9009,-49.1216,0.0000,112.0944,65.6157,7.5847,-0.2802,19742.4561,-2.1181,1.3070,0.8597,0.8740,0.8474,40.7486,13.5446,433.2868,740.4283,41.9846,0.0000,305.8248,392.6188,-39.4630
11.6000,step,187.5800,6.4697,36.9360,84.6857,23.2374,-3.8724,32.5946,0.0000,0.0000,1.5000,2,4703.9126,578.9937,9319.1907,1248.8238,8054.2683,0.0217,0.0130,-0.0253,-0.0834,-9.7578,-8.9239,-11.6417,-11.2144,22.3995,18.0561,-89.1216,-2611.0755,820.6273,8011.9912,1099.9526,6276.1555,1.1832,-120.0000,100.0000,-90.1451,95.2149,-68.6277,0.0000,100.2765,55.9620,7.4921,-0.2762,19201.2765,-2.0872,1.4179,0.8597,0.8837,0.8440,40.8474,13.4062,425.9216,741.5665,42.6068,0.0000,313.2809,385.6789,-39.0377
11.7000,step,189.6294,7.6020,40.2264,83.9168,22.9888,-4.0522,32.9415,0.0000,0.0000,1.5000,2,4686.9419,594.3768,9317.7112,1229.2487,7746.4444,0.0230,0.0135,-0.0231,-0.0817,-10.2810,-9.4224,-12.2206,-11.7652,25.1228,19.9424,-74.2742,-2367.0138,822.3414,8010.8561,1084.2818,6008.9773,1.1628,-120.0000,100.0000,-88.6707,93.3725,-63.8098,0.0000,78.5893,62.6888,7.4308,-0.2722,18887.7812,-2.1412,1.3842,0.8597,0.8841,0.8337,39.9849,13.2628,418.4307,742.6712,43.2123,0.0000,320.8505,378.6083,-38.6173
11.8000,step,191.6038,8.8195,43.5844,83.1188,22.7259,-4.2584,33.8863,0.0371,0.0000,1.5000,2,4681.0180,673.3274,9316.1960,1178.4024,7709.5037,0.0245,0.0140,-0.0209,-0.0810,-10.8573,-9.9648,-12.9259,-12.4277,30.6907,22.3170,-59.6768,-2225.9337,843.4673,8009.6887,1026.8904,5886.7599,1.1513,-120.0000,100.0000,-88.5692,92.9988,-40.8196,0.0000,58.1451,74.9775,7.4220,-0.2692,18877.4296,-2.2657,1.2535,0.8598,0.8729,0.8163,38.4255,13.1111,410.8624,743.7544,43.8011,0.0000,328.5927,371.3606,-38.2968
11.9000,step,193.4992,10.1169,47.0558,82.2943,22.4437,-4.5009,35.1873,0.1782,0.0000,1.5000,2,4804.9552,795.1369,9314.6345,1115.4698,7898.3655,0.0261,0.0145,-0.0088,-0.0688,-11.5303,-10.5939,-13.7700,-13.2161,38.4025,25.1921,-23.6604,-1776.2190,861.8716,8008.4812,950.4791,5920.6803,1.1497,-120.0000,100.0000,-89.6190,93.9504,-5.5708,0.0000,44.4068,84.8449,7.4590,-0.2681,19123.6067,-2.4310,1.0850,0.8598,0.8524,0.7826,36.5452,12.9483,404.4226,744.9916,44.3728,0.0000,336.6611,363.9577,-39.2598
12.0000,step,195.3125,11.4909,50.6739,81.5616,22.1778,-4.7790,36.6752,0.3111,0.0000,1.5000,2,4918.7538,813.2699,9313.2699,1065.8302,8469.1824,0.0267,0.0149,0.0453,-0.0647,-12.2875,-11.2975,-14.7319,-14.1097,38.0600,22.1979,116.6681,-1650.2722,850.5170,7916.1877,889.0969,6187.6199,1.1573,-120.0000,100.0000,-90.4951,97.0799,0.0000,0.0000,34.1313,94.9289,7.5330,-0.2929,19661.5524,-2.6283,1.0468,0.8500,0.8413,0.7561,34.6472,12.7949,399.1249,747.7236,44.9284,0.0000,345.3508,357.4444,-40.4755
12.1000,step,197.0422,12.9408,54.4315,80.9935,21.9194,-5.0942,38.1521,0.4403,0.0000,1.5000,2,4887.9637,812.0522,9312.0522,765.2452,8644.5936,0.0275,0.0164,0.1019,0.1154,-13.1810,-12.1363,-15.7530,-15.0674,36.8438,41.4316,262.5432,2748.0205,824.2611,7708.8531,767.5830,6222.6839,1.1342,-120.0000,100.0000,-91.5156,99.8379,0.0000,0.0000,-53.6907,-19.4541,7.6028,-0.3121,19533.9433,-2.7516,1.0160,0.8278,1.0601,0.7869,32.9179,12.6458,394.5438,753.0997,45.4708,0.0000,355.1997,352.4292,-40.9096
12.2000,step,198.6874,14.4634,58.3230,80.4408,21.6882,-5.4748,39.5097,0.5559,0.0000,1.5000,2,5127.1636,811.1615,9311.1615,927.0080,8739.7172,0.0281,0.0163,0.0937,-0.0158,-14.2074,-13.0884,-16.9915,-16.2162,35.2241,25.7252,261.9140,-248.6555,793.5972,7457.5376,732.5444,6096.1702,1.1022,-120.0000,100.0000,-91.8869,100.0000,0.0000,0.0000,-4.4393,0.0000,7.6127,-0.3098,19789.0481,-2.9559,0.9793,0.8009,0.8392,0.6981,31.4516,12.5124,391.2927,757.6739,46.0022,0.0000,364.0881,347.5836,-42.5040
12.3000,step,200.2482,16.0525,62.4032,79.9541,21.4202,-5.9541,41.7794,0.6899,0.0000,1.5000,2,5284.8183,810.2685,9310.2685,885.8429,8738.3778,0.0305,0.0171,0.1526,0.0116,-15.5099,-14.2909,-18.5506,-17.6565,37.9633,25.6974,384.1326,-71.6605,756.0905,7141.4235,628.2642,5740.9834,1.0433,-120.0000,100.0000,-93.7126,100.0000,0.0000,0.0000,-2.7769,0.0000,7.6464,-0.2896,19744.7577,-3.2032,0.9343,0.7671,0.8313,0.6570,29.3754,12.3578,389.1264,764.6336,46.5236,0.0000,374.7289,343.3811,-44.5402
12.4000,step,201.7263,17.7014,66.7669,79.5206,21.1050,-6.5770,45.2413,0.8475,0.0000,1.5000,2,5544.3906,809.4455,9309.4455,758.4534,8737.1432,0.0346,0.0183,0.1849,0.0688,-17.1968,-15.8317,-20.5968,-19.5297,44.0869,30.6326,358.6673,1095.9536,710.9319,6751.9285,504.9840,5297.8889,0.9709,-120.0000,100.0000,-97.0148,100.0000,0.0000,0.0000,-15.2344,0.0000,7.7075,-0.2533,19614.4876,-3.5490,0.8800,0.7253,0.8167,0.6192,26.7284,12.1759,388.4528,772.3463,47.0358,0.0000,385.5927,339.7178,-47.5300
