time,phase,pos_x,pos_y,yaw_deg,speed_kph,vx_body,vy_body,yaw_rate_dps,throttle,brake,steer_deg,gear,rpm,fz_fl,fz_fr,fz_rl,fz_rr,sr_fl,sr_fr,sr_rl,sr_rr,sa_fl_deg,sa_fr_deg,sa_rl_deg,sa_rr_deg,fx_fl,fx_fr,fx_rl,fx_rr,fy_fl,fy_fr,fy_rl,fy_rr,lat_accel_g,susp_defl_fl_mm,susp_defl_fr_mm,susp_defl_rl_mm,susp_defl_rr_mm,susp_vel_fl,susp_vel_fr,susp_vel_rl,susp_vel_rr,roll_deg,pitch_deg,fz_total,understeer_deg,fc_util_fl,fc_util_fr,fc_util_rl,fc_util_rr,radius_m,yaw_rate_ref_dps,ke_total_kj,energy_engine_kj,energy_drag_kj,energy_brake_kj,energy_tire_loss_kj,energy_body_kj,integrator_err_kj
0.0000,accel,0.0000,0.0000,0.0000,0.0000,0.0000,0.0000,0.0000,0.0000,0.0000,0.0000,1,1000.0000,3776.8500,3776.8500,3090.1500,3090.1500,0.0000,0.0000,0.0000,0.0000,0.0000,0.0000,0.0000,0.0000,0.0000,0.0000,0.0000,0.0000,0.0000,0.0000,0.0000,0.0000,0.0000,0.0000,0.0000,0.0000,0.0000,0.0000,0.0000,0.0000,0.0000,0.0000,0.0000,13734.0000,0.0000,0.0000,0.0000,0.0000,0.0000,0.0000,0.0000,0.0000,0.0000,0.0000,0.0000,0.0000,0.0000,0.0000
0.1000,accel,0.0000,0.0000,0.0000,0.0189,0.0039,0.0000,0.0000,0.0667,0.0000,0.0000,1,1000.0000,3719.9820,3719.9820,3147.1162,3147.1162,0.0008,0.0008,0.0027,0.0027,0.0000,0.0000,0.0000,0.0000,-1.0390,-1.0390,112.8766,112.8766,0.0000,0.0000,0.0000,0.0000,0.0000,-0.1182,-0.1182,0.1926,0.1926,-4.1920,-4.1920,5.1647,5.1647,0.0000,-0.0068,13734.1964,0.0000,0.0003,0.0003,0.0359,0.0359,0.0000,0.0000,0.0002,0.0011,0.0000,0.0000,0.0011,0.0000,-0.0002
0.2000,accel,0.0018,0.0000,0.0000,0.1124,0.0284,0.0000,0.0000,0.1333,0.0000,0.0000,1,1000.0000,3697.7664,3697.7664,3169.3250,3169.3250,0.0008,0.0008,0.0048,0.0048,0.0000,0.0000,0.0000,0.0000,-2.8283,-2.8283,243.5822,243.5822,0.0000,0.0000,0.0000,0.0000,0.0000,-0.6791,-0.6791,0.8528,0.8528,-6.5330,-6.5330,7.4459,7.4459,0.0000,-0.0338,13734.1827,0.0000,0.0008,0.0008,0.0769,0.0769,0.0000,0.0000,0.0011,0.0064,0.0000,0.0000,0.0058,0.0006,-0.0004
0.3000,accel,0.0072,0.0000,0.0000,0.2748,0.0707,0.0000,0.0000,0.2000,0.0000,0.0000,1,1000.0000,3684.7050,3684.7050,3182.2586,3182.2586,0.0007,0.0007,0.0087,0.0087,0.0000,0.0000,0.0000,0.0000,-4.3055,-4.3055,478.3488,478.3488,0.0000,0.0000,0.0000,0.0000,0.0000,-1.3850,-1.3850,1.6275,1.6275,-5.2234,-5.2234,4.8724,4.8724,0.0000,-0.0664,13733.9272,0.0000,0.0012,0.0012,0.1503,0.1503,0.0000,0.0000,0.0046,0.0183,0.0000,0.0000,0.0143,0.0039,-0.0007
0.4000,accel,0.0179,0.0000,0.0000,0.5225,0.1317,0.0000,0.0000,0.2667,0.0000,0.0000,1,1000.0000,3277.0215,3277.0215,3592.3899,3592.3899,-0.0025,-0.0025,0.0216,0.0216,0.0000,0.0000,0.0000,0.0000,-203.5846,-203.5846,1332.1839,1332.1839,0.0000,0.0000,0.0000,0.0000,0.0000,-1.0419,-1.0419,3.7130,3.7130,-124.1555,-124.1555,148.0681,148.0681,0.0000,-0.1048,13738.8227,0.0000,0.0621,0.0621,0.3708,0.3708,0.0000,0.0000,0.0154,0.0459,0.0000,0.0000,0.0371,0.0089,-0.0065
0.5000,accel,0.0357,0.0000,0.0000,0.8543,0.2041,0.0000,0.0000,0.3333,0.0000,0.0000,1,1000.0000,3777.0994,3777.0994,3087.7102,3087.7102,0.0042,0.0042,0.0633,0.0633,0.0000,0.0000,0.0000,0.0000,241.7835,241.7835,2544.5403,2544.5403,0.0000,0.0000,0.0000,0.0000,0.0000,-1.0275,-1.0275,4.9615,4.9615,26.0687,26.0687,-47.3507,-47.3507,0.0000,-0.1320,13729.6193,0.0000,0.0640,0.0640,0.8241,0.8241,0.0000,0.0000,0.0435,0.0945,0.0000,0.0000,0.0687,0.0258,-0.0177
0.6000,accel,0.0627,0.0000,0.0000,1.1603,0.3211,0.0000,0.0000,0.4000,0.0000,0.0000,1,1000.0000,3670.5635,3670.5635,3193.8369,3193.8369,0.0866,0.0866,-0.1877,-0.1877,0.0000,0.0000,0.0000,0.0000,3321.2982,3321.2982,-3217.0304,-3217.0304,0.0000,0.0000,0.0000,0.0000,0.0000,-2.8579,-2.8579,6.4020,6.4020,1.7546,1.7546,-27.3214,-27.3214,0.0000,-0.2041,13728.8007,0.0000,0.9048,0.9048,1.0073,1.0073,0.0000,0.0000,0.1320,0.1800,0.0000,0.0000,0.1261,0.0539,-0.0781
0.7000,accel,0.1001,0.0000,0.0000,1.3826,0.4533,0.0000,0.0000,0.4667,0.0000,0.0000,1,1000.0000,2788.6929,2788.6929,4082.8150,4082.8150,-0.1723,-0.1723,-0.0489,-0.0489,0.0000,0.0000,0.0000,0.0000,-2847.3072,-2847.3072,-2973.7996,-2973.7996,0.0000,0.0000,0.0000,0.0000,0.0000,-3.3844,-3.3844,9.0255,9.0255,-246.9538,-246.9538,291.0970,291.0970,0.0000,-0.2735,13743.0157,0.0000,1.0210,1.0210,0.7284,0.7284,0.0000,0.0000,0.1959,0.3256,0.0000,0.0000,0.2599,0.0656,-0.1302
0.8000,accel,0.1496,0.0000,0.0000,1.8857,0.5666,0.0000,0.0000,0.5333,0.0000,0.0000,1,1000.0000,3503.7364,3503.7364,3357.5901,3357.5901,-0.0637,-0.0637,-0.0092,-0.0092,0.0000,0.0000,0.0000,0.0000,-2963.8523,-2963.8523,-630.8515,-630.8515,0.0000,0.0000,0.0000,0.0000,0.0000,-2.5811,-2.5811,10.2113,10.2113,-48.3978,-48.3978,-7.7579,-7.7579,0.0000,-0.2819,13722.6529,0.0000,0.8459,0.8459,0.1879,0.1879,0.0000,0.0000,0.2730,0.5833,0.0000,0.0000,0.4556,0.1277,-0.1452
0.9000,accel,0.2133,0.0000,0.0000,2.6423,0.6557,0.0000,0.0000,0.6000,0.0000,0.0000,1,1006.0431,4696.0158,4696.0158,2176.3872,2176.3872,0.1521,0.1521,0.6841,0.6841,0.0000,0.0000,0.0000,0.0000,4468.4852,4468.4852,2110.2584,2110.2584,0.0000,0.0000,0.0000,0.0000,0.0000,-0.7821,-0.7821,9.2989,9.2989,391.1579,391.1579,-338.7341,-338.7341,0.0000,-0.2222,13744.8060,0.0000,0.9515,0.9515,0.9696,0.9696,0.0000,0.0000,0.4785,0.9419,0.0000,0.0000,0.6585,0.2834,-0.1951
1.0000,accel,0.2937,0.0000,0.0000,3.2517,0.8520,0.0000,0.0000,0.6667,0.0000,0.0000,1,1000.0000,4318.6916,4318.6916,2550.0194,2550.0194,0.0251,0.0251,0.4381,0.4381,0.0000,0.0000,0.0000,0.0000,1802.6321,1802.6321,2501.2363,2501.2363,0.0000,0.0000,0.0000,0.0000,0.0000,-2.7475,-2.7475,11.0936,11.0936,259.8648,259.8648,-244.8199,-244.8199,0.0000,-0.3050,13737.4220,0.0000,0.4174,0.4174,0.9809,0.9809,0.0000,0.0000,0.5937,1.3261,0.0000,0.0000,0.8696,0.4565,-0.1372
1.1000,accel,0.3914,0.0000,0.0000,3.8353,1.0509,0.0000,0.0000,0.7333,0.0000,0.0000,1,1333.2073,2611.6777,2611.6777,4258.7563,4258.7563,-0.4099,-0.4099,0.6880,0.6880,0.0000,0.0000,0.0000,0.0000,-2643.4522,-2643.4522,3855.6211,3855.6211,0.0000,0.0000,0.0000,0.0000,0.0000,-4.0235,-4.0235,12.7989,12.7989,-293.0020,-293.0020,323.6601,323.6601,0.0000,-0.3707,13740.8680,0.0000,1.0122,1.0122,0.9053,0.9053,0.0000,0.0000,0.8887,1.9762,0.0001,0.0000,1.3209,0.6552,-0.2335
1.2000,accel,0.5103,0.0000,0.0000,4.7757,1.2481,0.0000,0.0000,0.8000,0.0000,0.0000,1,1000.0000,3802.6174,3802.6174,3060.8472,3060.8472,0.5057,0.5057,0.2147,0.2147,0.0000,0.0000,0.0000,0.0000,3551.6042,3551.6042,3043.5245,3043.5245,0.0000,0.0000,0.0000,0.0000,0.0000,-4.6292,-4.6292,12.8889,12.8889,72.2037,72.2037,-111.7451,-111.7451,0.0000,-0.3860,13726.9291,0.0000,0.9340,0.9340,0.9943,0.9943,0.0000,0.0000,1.2513,2.7284,0.0002,0.0000,1.6652,1.0630,-0.1883
1.3000,accel,0.6521,0.0000,0.0000,5.4513,1.5217,0.0000,0.0000,0.8667,0.0000,0.0000,1,1224.0795,3742.0392,3742.0392,3122.7272,3122.7272,-0.5461,-0.5461,0.5253,0.5253,0.0000,0.0000,0.0000,0.0000,-3596.6901,-3596.6901,2968.7419,2968.7419,0.0000,0.0000,0.0000,0.0000,0.0000,-7.6092,-7.6092,14.7386,14.7386,77.7275,77.7275,-107.3250,-107.3250,0.0000,-0.4925,13729.5328,0.0000,0.9612,0.9612,0.9507,0.9507,0.0000,0.0000,1.7675,3.6561,0.0003,0.0000,2.2373,1.4184,-0.3490
1.4000,accel,0.8195,0.0000,0.0000,6.5706,1.7456,0.0000,0.0000,0.9333,0.0000,0.0000,1,1000.0000,4138.7160,4138.7160,2730.5488,2730.5488,0.2837,0.2837,0.2555,0.2555,0.0000,0.0000,0.0000,0.0000,3952.1734,3952.1734,2731.7047,2731.7047,0.0000,0.0000,0.0000,0.0000,0.0000,-6.9724,-6.9724,14.5343,14.5343,229.9869,229.9869,-217.9632,-217.9632,0.0000,-0.4739,13738.5297,0.0000,0.9549,0.9549,1.0004,1.0004,0.0000,0.0000,2.3846,4.5232,0.0005,0.0000,2.4055,2.1171,-0.2674
1.5000,accel,1.0131,0.0000,0.0000,7.6293,2.0529,0.0000,0.0000,1.0000,0.0000,0.0000,1,1000.0000,3494.6332,3494.6332,3368.8092,3368.8092,0.0444,0.0444,0.1130,0.1130,0.0000,0.0000,0.0000,0.0000,2332.8944,2332.8944,3238.1516,3238.1516,0.0000,0.0000,0.0000,0.0000,0.0000,-9.8139,-9.8139,16.5691,16.5691,0.7001,0.7001,-50.2109,-50.2109,0.0000,-0.5814,13726.8847,0.0000,0.6676,0.6676,0.9612,0.9612,0.0000,0.0000,3.1870,5.7810,0.0009,0.0000,2.8699,2.9102,-0.2767
1.6000,accel,1.2365,0.0000,0.0000,8.6158,2.3157,0.0000,0.0000,1.0000,0.0000,0.0000,1,1684.2645,3838.1656,3838.1656,3029.7891,3029.7891,0.4082,0.4082,0.5041,0.5041,0.0000,0.0000,0.0000,0.0000,3626.0025,3626.0025,2896.4205,2896.4205,0.0000,0.0000,0.0000,0.0000,0.0000,-9.1973,-9.1973,15.7370,15.7370,131.8802,131.8802,-141.2020,-141.2020,0.0000,-0.5495,13735.9095,0.0000,0.9447,0.9447,0.9560,0.9560,0.0000,0.0000,4.3456,7.9860,0.0014,0.0000,4.2311,3.7535,-0.5921
1.7000,accel,1.4941,0.0000,0.0000,9.6563,2.6909,0.0000,0.0000,1.0000,0.0000,0.0000,1,1855.2454,3747.6508,3747.6508,3121.1197,3121.1197,-0.3237,-0.3237,0.4810,0.4810,0.0000,0.0000,0.0000,0.0000,-3705.1499,-3705.1499,2983.0658,2983.0658,0.0000,0.0000,0.0000,0.0000,0.0000,-11.9727,-11.9727,18.0097,18.0097,123.3173,123.3173,-131.4596,-131.4596,0.0000,-0.6607,13737.5408,0.0000,0.9887,0.9887,0.9558,0.9558,0.0000,0.0000,5.6112,9.9064,0.0022,0.0000,5.1378,4.7664,-0.8448
1.8000,accel,1.7860,0.0000,0.0000,11.0440,3.0669,0.0000,0.0000,1.0000,0.0000,0.0000,1,1000.0000,3510.6090,3510.6090,3356.6510,3356.6510,0.2121,0.2121,-0.2136,-0.2136,0.0000,0.0000,0.0000,0.0000,3443.4394,3443.4394,-3364.2579,-3364.2579,0.0000,0.0000,0.0000,0.0000,0.0000,-13.8733,-13.8733,19.9532,19.9532,47.3793,47.3793,-78.1838,-78.1838,0.0000,-0.7454,13734.5201,0.0000,0.9809,0.9809,1.0023,1.0023,0.0000,0.0000,7.0622,12.0456,0.0034,0.0000,5.7456,6.2966,-0.7656
1.9000,accel,2.1122,0.0000,0.0000,12.3165,3.4056,0.0000,0.0000,1.0000,0.0000,0.0000,1,2155.6317,2591.7156,2591.7156,4282.4309,4282.4309,-0.2088,-0.2088,0.4383,0.4383,0.0000,0.0000,0.0000,0.0000,-2665.6450,-2665.6450,3984.9852,3984.9852,0.0000,0.0000,0.0000,0.0000,0.0000,-13.7454,-13.7454,20.1486,20.1486,-229.7043,-229.7043,258.7074,258.7074,0.0000,-0.7469,13748.2930,0.0000,1.0285,1.0285,0.9305,0.9305,0.0000,0.0000,8.8641,15.0483,0.0050,0.0000,7.1611,7.8822,-0.9819
2.0000,accel,2.4777,0.0000,0.0000,13.8509,3.8319,0.0000,0.0000,1.0000,0.0000,0.0000,1,2167.4170,2640.2752,2640.2752,4233.6030,4233.6030,-0.4062,-0.4062,0.3720,0.3720,0.0000,0.0000,0.0000,0.0000,-2670.8477,-2670.8477,3980.0302,3980.0302,0.0000,0.0000,0.0000,0.0000,0.0000,-16.2353,-16.2353,22.6992,22.6992,-198.1743,-198.1743,213.3985,213.3985,0.0000,-0.8580,13747.7564,0.0000,1.0116,1.0116,0.9401,0.9401,0.0000,0.0000,10.9907,18.4495,0.0073,0.0000,8.4135,10.0287,-0.9620
2.1000,accel,2.8845,0.0000,0.0000,14.9349,4.2180,0.0000,0.0000,1.0000,0.0000,0.0000,1,1373.9741,3552.9542,3552.9542,3318.5568,3318.5568,-0.0543,-0.0543,-0.0783,-0.0783,0.0000,0.0000,0.0000,0.0000,-2780.8165,-2780.8165,-3044.6848,-3044.6848,0.0000,0.0000,0.0000,0.0000,0.0000,-15.8862,-15.8862,21.8682,21.8682,83.9535,83.9535,-103.2745,-103.2745,0.0000,-0.8320,13743.0221,0.0000,0.7827,0.7827,0.9175,0.9175,0.0000,0.0000,13.1891,20.8908,0.0105,0.0000,9.1862,11.6941,-1.4951
2.2000,accel,3.3285,0.0000,0.0000,16.7588,4.6420,0.0000,0.0000,1.0000,0.0000,0.0000,1,2906.3217,2712.5736,2712.5736,4162.8144,4162.8144,-0.3090,-0.3090,0.4339,0.4339,0.0000,0.0000,0.0000,0.0000,-2774.6108,-2774.6108,3887.0696,3887.0696,0.0000,0.0000,0.0000,0.0000,0.0000,-17.6188,-17.6188,23.8304,23.8304,-167.9243,-167.9243,173.1651,173.1651,0.0000,-0.9134,13750.7760,0.0000,1.0229,1.0229,0.9338,0.9338,0.0000,0.0000,16.3933,26.5403,0.0147,0.0000,11.7317,14.7939,-1.5994
2.3000,accel,3.8215,0.0000,0.0000,18.4994,5.1279,0.0000,0.0000,1.0000,0.0000,0.0000,1,3721.8878,2802.4154,2802.4154,4073.7888,4073.7888,-0.2369,-0.2369,0.5118,0.5118,0.0000,0.0000,0.0000,0.0000,-2859.9139,-2859.9139,3775.6170,3775.6170,0.0000,0.0000,0.0000,0.0000,0.0000,-19.7971,-19.7971,25.2507,25.2507,-126.8950,-126.8950,122.9337,122.9337,0.0000,-0.9927,13752.4084,0.0000,1.0205,1.0205,0.9268,0.9268,0.0000,0.0000,20.4998,33.7541,0.0203,0.0000,15.6449,18.0888,-2.4109
2.4000,accel,4.3627,0.0000,0.0000,20.2445,5.6093,0.0000,0.0000,1.0000,0.0000,0.0000,1,5845.8919,2605.8081,2605.8081,4274.4462,4274.4462,-0.2363,-0.2363,0.6600,0.6600,0.0000,0.0000,0.0000,0.0000,-2678.6865,-2678.6865,3879.2357,3879.2357,0.0000,0.0000,0.0000,0.0000,0.0000,-20.4507,-20.4507,25.9446,25.9446,-178.6171,-178.6171,195.8017,195.8017,0.0000,-1.0224,13760.5087,0.0000,1.0280,1.0280,0.9075,0.9075,0.0000,0.0000,26.4120,45.7134,0.0278,0.0000,23.9661,21.7195,-4.6925
2.5000,accel,4.9520,0.0000,0.0000,21.9644,6.0881,0.0000,0.0000,1.0000,0.0000,0.0000,2,1613.3301,2774.9033,2774.9033,4105.3763,4105.3763,-0.2040,-0.2040,0.2455,0.2455,0.0000,0.0000,0.0000,0.0000,-2834.6326,-2834.6326,3946.3930,3946.3930,0.0000,0.0000,0.0000,0.0000,0.0000,-20.6684,-20.6684,26.0949,26.0949,-128.9842,-128.9842,126.1761,126.1761,0.0000,-1.0305,13760.5592,0.0000,1.0215,1.0215,0.9613,0.9613,0.0000,0.0000,27.0942,52.6148,0.0375,0.0000,26.9570,25.6203,-1.4739
2.6000,accel,5.5624,0.0000,0.0000,21.9762,6.1102,0.0000,0.0000,1.0000,0.0000,0.0000,2,1407.2324,3653.2163,3653.2163,3225.0425,3225.0425,-0.2322,-0.2322,0.1318,0.1318,0.0000,0.0000,0.0000,0.0000,-3630.6263,-3630.6263,3163.3943,3163.3943,0.0000,0.0000,0.0000,0.0000,0.0000,-8.2211,-8.2211,13.2885,13.2885,46.2585,46.2585,-69.9408,-69.9408,0.0000,-0.4740,13756.5176,0.0000,0.9938,0.9938,0.9809,0.9809,0.0000,0.0000,27.0997,52.6148,0.0482,0.0000,26.9185,25.6481,-1.4516
2.7000,accel,6.1748,0.0000,0.0000,22.2307,6.1641,0.0000,0.0000,1.0000,0.0000,0.0000,2,1639.8006,2873.8574,2873.8574,4010.5476,4010.5476,-0.2491,-0.2491,0.2484,0.2484,0.0000,0.0000,0.0000,0.0000,-2925.4481,-2925.4481,3862.7539,3862.7539,0.0000,0.0000,0.0000,0.0000,0.0000,-3.9589,-3.9589,9.4620,9.4620,-220.1047,-220.1047,254.4918,254.4918,0.0000,-0.2958,13768.8100,0.0000,1.0180,1.0180,0.9631,0.9631,0.0000,0.0000,27.8830,53.5661,0.0590,0.0000,27.2614,26.2456,-1.6374
2.8000,accel,6.8022,0.0000,0.0000,22.7210,6.3705,0.0000,0.0000,1.0000,0.0000,0.0000,2,1220.2150,3493.5636,3493.5636,3383.3793,3383.3793,-0.0523,-0.0523,-0.0417,-0.0417,0.0000,0.0000,0.0000,0.0000,-2684.6879,-2684.6879,-2275.6405,-2275.6405,0.0000,0.0000,0.0000,0.0000,0.0000,-5.6110,-5.6110,12.1610,12.1610,-31.3536,-31.3536,-16.8530,-16.8530,0.0000,-0.3916,13753.8858,0.0000,0.7685,0.7685,0.6726,0.6726,0.0000,0.0000,29.6231,55.5045,0.0707,0.0000,28.0228,27.4110,-2.2121
2.9000,accel,7.4486,0.0000,0.0000,23.4810,6.5295,0.0000,0.0000,1.0000,0.0000,0.0000,2,1703.7552,3725.2298,3725.2298,3154.4758,3154.4758,-0.2128,-0.2128,0.2338,0.2338,0.0000,0.0000,0.0000,0.0000,-3694.9747,-3694.9747,3119.6483,3119.6483,0.0000,0.0000,0.0000,0.0000,0.0000,-5.4991,-5.4991,11.2765,11.2765,47.5322,47.5322,-76.0653,-76.0653,0.0000,-0.3697,13759.4111,0.0000,0.9919,0.9919,0.9890,0.9890,0.0000,0.0000,31.3114,57.4462,0.0834,0.0000,28.0666,29.2962,-2.0152
3.0000,accel,8.1140,0.0000,0.0000,24.2381,6.7310,0.0000,0.0000,1.0000,0.0000,0.0000,2,1582.9682,3312.7139,3312.7139,3567.7450,3567.7450,-0.1987,-0.1987,0.1498,0.1498,0.0000,0.0000,0.0000,0.0000,-3324.5988,-3324.5988,3489.0267,3489.0267,0.0000,0.0000,0.0000,0.0000,0.0000,-6.2104,-6.2104,12.3153,12.3153,-78.9416,-78.9416,48.1930,48.1930,0.0000,-0.4082,13760.9177,0.0000,1.0036,1.0036,0.9779,0.9779,0.0000,0.0000,33.0992,59.4371,0.0973,0.0000,28.1088,31.2310,-1.8681
3.1000,accel,8.7978,0.0000,0.0000,24.9607,6.9181,0.0000,0.0000,1.0000,0.0000,0.0000,2,1792.8639,2672.3021,2672.3021,4215.7993,4215.7993,-0.2851,-0.2851,0.2286,0.2286,0.0000,0.0000,0.0000,0.0000,-2740.1271,-2740.1271,4051.0755,4051.0755,0.0000,0.0000,0.0000,0.0000,0.0000,-5.7756,-5.7756,12.9946,12.9946,-265.1298,-265.1298,300.3964,300.3964,0.0000,-0.4136,13776.2029,0.0000,1.0254,1.0254,0.9609,0.9609,0.0000,0.0000,35.0165,61.6538,0.1124,0.0000,28.4113,33.1301,-1.8864
3.2000,accel,9.5007,0.0000,0.0000,25.7264,7.0688,0.0000,0.0000,1.0000,0.0000,0.0000,2,1741.9899,4292.3567,4292.3567,2595.3543,2595.3543,0.0931,0.0931,0.1887,0.1887,0.0000,0.0000,0.0000,0.0000,3890.5357,3890.5357,2629.6294,2629.6294,0.0000,0.0000,0.0000,0.0000,0.0000,-4.2729,-4.2729,11.5003,11.5003,261.6894,261.6894,-237.8744,-237.8744,0.0000,-0.3476,13775.4219,0.0000,0.9064,0.9064,1.0132,1.0132,0.0000,0.0000,37.0463,63.8987,0.1288,0.0000,28.5655,35.2044,-1.8418
3.3000,accel,10.2234,0.0000,0.0000,26.3889,7.2565,0.0000,0.0000,1.0000,0.0000,0.0000,2,1882.7182,4708.6246,4708.6246,2184.5283,2184.5283,0.0745,0.0745,0.2295,0.2295,0.0000,0.0000,0.0000,0.0000,3965.6957,3965.6957,2243.7802,2243.7802,0.0000,0.0000,0.0000,0.0000,0.0000,-3.7358,-3.7358,11.4445,11.4445,422.6679,422.6679,-355.0241,-355.0241,0.0000,-0.3345,13786.3058,0.0000,0.8422,0.8422,1.0271,1.0271,0.0000,0.0000,39.1424,66.2137,0.1466,0.0000,29.0190,37.0481,-2.0942
3.4000,accel,10.9660,0.0000,0.0000,27.0512,7.5113,0.0000,0.0000,1.0000,0.0000,0.0000,2,1725.1328,3246.5205,3246.5205,3637.6862,3637.6862,-0.1886,-0.1886,0.1295,0.1295,0.0000,0.0000,0.0000,0.0000,-3264.7509,-3264.7509,3520.0739,3520.0739,0.0000,0.0000,0.0000,0.0000,0.0000,-6.4760,-6.4760,13.5873,13.5873,-96.4235,-96.4235,62.4692,62.4692,0.0000,-0.4421,13768.4136,0.0000,1.0056,1.0056,0.9677,0.9677,0.0000,0.0000,41.1776,68.4867,0.1659,0.0000,29.3744,38.9463,-2.2313
3.5000,accel,11.7269,0.0000,0.0000,27.5014,7.6471,0.0000,0.0000,1.0000,0.0000,0.0000,1,2965.6709,3639.6090,3639.6090,3245.0399,3245.0399,-0.1593,-0.1593,0.0864,0.0864,0.0000,0.0000,0.0000,0.0000,-3618.4532,-3618.4532,2971.0880,2971.0880,0.0000,0.0000,0.0000,0.0000,0.0000,-5.1446,-5.1446,10.5537,10.5537,8.8066,8.8066,-46.0246,-46.0246,0.0000,-0.3459,13769.2978,0.0000,0.9942,0.9942,0.9156,0.9156,0.0000,0.0000,42.4689,69.8788,0.1867,0.0000,29.4261,40.2659,-2.2029
3.6000,accel,12.4910,0.0000,0.0000,27.4925,7.6436,0.0000,0.0000,1.0000,0.0000,0.0000,1,3013.6064,3650.7991,3650.7991,3235.1317,3235.1317,-0.1662,-0.1662,0.1013,0.1013,0.0000,0.0000,0.0000,0.0000,-3628.4642,-3628.4642,3069.7013,3069.7013,0.0000,0.0000,0.0000,0.0000,0.0000,-1.8444,-1.8444,5.1912,5.1912,-14.0826,-14.0826,-10.5487,-10.5487,0.0000,-0.1550,13771.8617,0.0000,0.9939,0.9939,0.9489,0.9489,0.0000,0.0000,42.4444,69.8788,0.2077,0.0000,29.4319,40.2391,-2.2052
3.7000,accel,13.2590,0.0000,0.0000,28.0993,7.7931,0.0000,0.0000,1.0000,0.0000,0.0000,1,3406.2146,2846.7064,2846.7064,4048.0939,4048.0939,-0.1152,-0.1152,0.1894,0.1894,0.0000,0.0000,0.0000,0.0000,-2875.9201,-2875.9201,3920.4818,3920.4818,0.0000,0.0000,0.0000,0.0000,0.0000,-5.2854,-5.2854,8.8541,8.8541,-219.3416,-219.3416,273.5842,273.5842,0.0000,-0.3116,13789.6005,0.0000,1.0103,1.0103,0.9685,0.9685,0.0000,0.0000,44.9518,72.9076,0.2291,0.0000,30.6249,42.0535,-2.8982
3.8000,accel,14.0692,0.0000,0.0000,29.9328,8.3032,0.0000,0.0000,1.0000,0.0000,0.0000,1,4748.1406,2811.3475,2811.3475,4082.8654,4082.8654,-0.1245,-0.1245,0.3804,0.3804,0.0000,0.0000,0.0000,0.0000,-2867.0789,-2867.0789,3847.8406,3847.8406,0.0000,0.0000,0.0000,0.0000,0.0000,-14.9544,-14.9544,19.5671,19.5671,-160.7249,-160.7249,179.6383,179.6383,0.0000,-0.7607,13788.4258,0.0000,1.0198,1.0198,0.9424,0.9424,0.0000,0.0000,52.1015,82.6297,0.2542,0.0000,34.5968,47.7787,-4.3228
3.9000,accel,14.9291,0.0000,0.0000,31.6984,8.7943,0.0000,0.0000,1.0000,0.0000,0.0000,1,6334.5568,2810.5113,2810.5113,4085.2447,4085.2447,-0.1204,-0.1204,0.5081,0.5081,0.0000,0.0000,0.0000,0.0000,-2856.9879,-2856.9879,3786.8091,3786.8091,0.0000,0.0000,0.0000,0.0000,0.0000,-18.6153,-18.6153,23.6559,23.6559,-135.1669,-135.1669,138.9619,138.9619,0.0000,-0.9315,13791.5121,0.0000,1.0165,1.0165,0.9269,0.9269,0.0000,0.0000,59.9142,95.9822,0.2842,0.0000,42.0628,53.6351,-6.2790
4.0000,accel,15.8376,0.0000,0.0000,33.4500,9.2803,0.0000,0.0000,1.0000,0.0000,0.0000,1,6810.3218,2790.7433,2790.7433,4107.8431,4107.8431,-0.1171,-0.1171,0.5172,0.5172,0.0000,0.0000,0.0000,0.0000,-2830.3251,-2830.3251,3801.5618,3801.5618,0.0000,0.0000,0.0000,0.0000,0.0000,-20.0616,-20.0616,25.3031,25.3031,-130.8537,-130.8537,130.7539,130.7539,0.0000,-0.9997,13797.1729,0.0000,1.0142,1.0142,0.9254,0.9254,0.0000,0.0000,66.7908,109.6722,0.3196,0.0000,49.5747,59.7779,-7.0128
4.1000,accel,16.7947,0.0000,0.0000,35.2029,9.7665,0.0000,0.0000,1.0000,0.0000,0.0000,1,6904.1910,2765.9222,2765.9222,4136.0951,4136.0951,-0.1135,-0.1135,0.4988,0.4988,0.0000,0.0000,0.0000,0.0000,-2797.0691,-2797.0691,3833.3741,3833.3741,0.0000,0.0000,0.0000,0.0000,0.0000,-20.7026,-20.7026,26.0333,26.0333,-133.7554,-133.7554,133.9358,133.9358,0.0000,-1.0299,13804.0345,0.0000,1.0113,1.0113,0.9268,0.9268,0.0000,0.0000,73.5276,123.2754,0.3610,0.0000,56.6568,66.2576,-7.2700
4.2000,accel,17.8004,0.0000,0.0000,36.9584,10.2535,0.0000,0.0000,1.0000,0.0000,0.0000,1,6906.6111,2756.9484,2756.9484,4148.6662,4148.6662,-0.1068,-0.1068,0.4740,0.4740,0.0000,0.0000,0.0000,0.0000,-2765.1107,-2765.1107,3855.4605,3855.4605,0.0000,0.0000,0.0000,0.0000,0.0000,-21.0276,-21.0276,26.3709,26.3709,-134.4075,-134.4075,134.7287,134.7287,0.0000,-1.0445,13811.2292,0.0000,1.0030,1.0030,0.9293,0.9293,0.0000,0.0000,80.5064,136.8585,0.4090,0.0000,63.3702,73.0793,-7.4271
4.3000,accel,18.8549,0.0000,0.0000,38.7192,10.7421,0.0000,0.0000,1.0000,0.0000,0.0000,1,6885.4647,2758.0750,2758.0750,4151.2841,4151.2841,-0.0990,-0.0990,0.4473,0.4473,0.0000,0.0000,0.0000,0.0000,-2731.1513,-2731.1513,3870.6741,3870.6741,0.0000,0.0000,0.0000,0.0000,0.0000,-21.2356,-21.2356,26.5479,26.5479,-133.0306,-133.0306,133.1007,133.1007,0.0000,-1.0530,13818.7182,0.0000,0.9902,0.9902,0.9324,0.9324,0.0000,0.0000,87.8235,150.4415,0.4643,0.0000,69.7209,80.2563,-7.5672
4.4000,accel,19.9583,0.0000,0.0000,40.4872,11.2326,0.0000,0.0000,1.0000,0.0000,0.0000,1,6857.2296,2762.6089,2762.6089,4150.6847,4150.6847,-0.0915,-0.0915,0.4196,0.4196,0.0000,0.0000,0.0000,0.0000,-2691.1996,-2691.1996,3884.1990,3884.1990,0.0000,0.0000,0.0000,0.0000,0.0000,-21.4047,-21.4047,26.6605,26.6605,-130.9802,-130.9802,130.7842,130.7842,0.0000,-1.0592,13826.5873,0.0000,0.9742,0.9742,0.9358,0.9358,0.0000,0.0000,95.5059,164.0292,0.5277,0.0000,75.7021,87.7994,-7.7065
4.5000,accel,21.1110,0.0000,0.0000,42.2575,11.7268,0.0000,0.0000,1.0000,0.0000,0.0000,2,2545.5037,2753.5050,2753.5050,4164.0966,4164.0966,-0.0843,-0.0843,0.0790,0.0790,0.0000,0.0000,0.0000,0.0000,-2629.1926,-2629.1926,3622.6948,3622.6948,0.0000,0.0000,0.0000,0.0000,0.0000,-21.6219,-21.6219,26.8089,26.8089,-132.5063,-132.5063,133.6649,133.6649,0.0000,-1.0673,13835.2033,0.0000,0.9549,0.9549,0.8700,0.8700,0.0000,0.0000,100.0739,173.0906,0.6000,0.0000,76.7997,95.6910,-4.3829
4.6000,accel,22.2834,0.0000,0.0000,42.1861,11.7276,0.0000,0.0000,1.0000,0.0000,0.0000,2,2504.1119,3634.1689,3634.1689,3280.4663,3280.4663,-0.0903,-0.0903,0.0638,0.0638,0.0000,0.0000,0.0000,0.0000,-3434.9633,-3434.9633,2694.7546,2694.7546,0.0000,0.0000,0.0000,0.0000,0.0000,-8.1815,-8.1815,13.2901,13.2901,32.3516,32.3516,-60.4292,-60.4292,0.0000,-0.4732,13829.2704,0.0000,0.9452,0.9452,0.8215,0.8215,0.0000,0.0000,99.9973,173.0906,0.6760,0.0000,77.0502,95.3645,-4.6328
4.7000,accel,23.4568,0.0000,0.0000,42.4534,11.7945,0.0000,0.0000,1.0000,0.0000,0.0000,2,2450.2691,2670.7081,2670.7081,4254.3916,4254.3916,-0.0914,-0.0914,0.0377,0.0377,0.0000,0.0000,0.0000,0.0000,-2609.5726,-2609.5726,2484.6491,2484.6491,0.0000,0.0000,0.0000,0.0000,0.0000,-5.4866,-5.4866,9.7237,9.7237,-271.4818,-271.4818,340.4939,340.4939,0.0000,-0.3352,13850.1994,0.0000,0.9771,0.9771,0.5840,0.5840,0.0000,0.0000,101.3730,174.6706,0.7522,0.0000,77.3360,96.5824,-4.7906
4.8000,accel,24.6502,0.0000,0.0000,43.3486,12.0410,0.0000,0.0000,1.0000,0.0000,0.0000,2,2565.6500,3116.7084,3116.7084,3804.4640,3804.4640,-0.0883,-0.0883,0.0618,0.0618,0.0000,0.0000,0.0000,0.0000,-2974.7543,-2974.7543,3034.8306,3034.8306,0.0000,0.0000,0.0000,0.0000,0.0000,-8.4272,-8.4272,12.4781,12.4781,-123.2958,-123.2958,132.4611,132.4611,0.0000,-0.4607,13842.3448,0.0000,0.9545,0.9545,0.7977,0.7977,0.0000,0.0000,105.7797,179.3359,0.8323,0.0000,77.7799,100.7236,-5.0561
4.9000,accel,25.8692,0.0000,0.0000,44.2694,12.2965,0.0000,0.0000,1.0000,0.0000,0.0000,2,2622.6519,3133.6557,3133.6557,3789.2428,3789.2428,-0.0851,-0.0851,0.0627,0.0627,0.0000,0.0000,0.0000,0.0000,-2961.6171,-2961.6171,3044.4327,3044.4327,0.0000,0.0000,0.0000,0.0000,0.0000,-9.8474,-9.8474,13.8374,13.8374,-108.5706,-108.5706,112.2309,112.2309,0.0000,-0.5219,13845.7970,0.0000,0.9451,0.9451,0.8034,0.8034,0.0000,0.0000,110.3315,184.1599,0.9178,0.0000,78.1681,105.0741,-5.2575
5.0000,accel,27.1139,0.0000,0.0000,45.2030,12.5559,0.0000,0.0000,1.0000,0.0000,0.0000,2,2672.1990,3128.3876,3128.3876,3796.7271,3796.7271,-0.0820,-0.0820,0.0607,0.0607,0.0000,0.0000,0.0000,0.0000,-2927.4874,-2927.4874,3003.3830,3003.3830,0.0000,0.0000,0.0000,0.0000,0.0000,-10.5348,-10.5348,14.5440,14.5440,-105.4367,-105.4367,107.5904,107.5904,0.0000,-0.5527,13850.2293,0.0000,0.9358,0.9358,0.7910,0.7910,0.0000,0.0000,115.0355,189.1452,1.0087,0.0000,78.5581,109.5784,-5.4571
5.1000,accel,28.3848,0.0000,0.0000,46.1482,12.8186,0.0000,0.0000,1.0000,0.0000,0.0000,2,2721.5040,3119.9469,3119.9469,3807.5642,3807.5642,-0.0790,-0.0790,0.0584,0.0584,0.0000,0.0000,0.0000,0.0000,-2888.2584,-2888.2584,2955.3920,2955.3920,0.0000,0.0000,0.0000,0.0000,0.0000,-10.9024,-10.9024,14.9636,14.9636,-105.5022,-105.5022,107.1413,107.1413,0.0000,-0.5700,13855.0223,0.0000,0.9257,0.9257,0.7762,0.7762,0.0000,0.0000,119.8965,194.2977,1.1056,0.0000,78.9581,114.2340,-5.6625
5.2000,accel,29.6822,0.0000,0.0000,47.1048,13.0844,0.0000,0.0000,1.0000,0.0000,0.0000,2,2771.7261,3111.6429,3111.6429,3818.3737,3818.3737,-0.0760,-0.0760,0.0563,0.0563,0.0000,0.0000,0.0000,0.0000,-2846.5390,-2846.5390,2907.7055,2907.7055,0.0000,0.0000,0.0000,0.0000,0.0000,-11.1351,-11.1351,15.2592,15.2592,-106.5018,-106.5018,107.9015,107.9015,0.0000,-0.5816,13860.0332,0.0000,0.9148,0.9148,0.7615,0.7615,0.0000,0.0000,124.9190,199.6231,1.2086,0.0000,79.3703,119.0442,-5.8748
5.3000,accel,31.0063,0.0000,0.0000,48.0731,13.3534,0.0000,0.0000,1.0000,0.0000,0.0000,2,2823.0384,3103.9277,3103.9277,3828.6869,3828.6869,-0.0731,-0.0731,0.0544,0.0544,0.0000,0.0000,0.0000,0.0000,-2802.4759,-2802.4759,2862.0459,2862.0459,0.0000,0.0000,0.0000,0.0000,0.0000,-11.3135,-11.3135,15.5009,15.5009,-107.7303,-107.7303,108.9827,108.9827,0.0000,-0.5909,13865.2293,0.0000,0.9029,0.9029,0.7475,0.7475,0.0000,0.0000,130.1080,205.1273,1.3181,0.0000,79.7955,124.0136,-6.0943
5.4000,accel,32.3575,0.0000,0.0000,49.0533,13.6257,0.0000,0.0000,1.0000,0.0000,0.0000,2,2875.5566,3097.0891,3097.0891,3838.2112,3838.2112,-0.0702,-0.0702,0.0527,0.0527,0.0000,0.0000,0.0000,0.0000,-2756.0280,-2756.0280,2819.8907,2819.8907,0.0000,0.0000,0.0000,0.0000,0.0000,-11.4728,-11.4728,15.7174,15.7174,-108.8548,-108.8548,109.9796,109.9796,0.0000,-0.5992,13870.6007,0.0000,0.8899,0.8899,0.7347,0.7347,0.0000,0.0000,135.4684,210.8164,1.4344,0.0000,80.2348,129.1472,-6.3211
5.5000,accel,33.7362,0.0000,0.0000,50.0457,13.9012,0.0000,0.0000,1.0000,0.0000,0.0000,2,2929.3658,3091.3720,3091.3720,3846.7014,3846.7014,-0.0673,-0.0673,0.0513,0.0513,0.0000,0.0000,0.0000,0.0000,-2707.0843,-2707.0843,2782.4714,2782.4714,0.0000,0.0000,0.0000,0.0000,0.0000,-11.6288,-11.6288,15.9199,15.9199,-109.6930,-109.6930,110.6815,110.6815,0.0000,-0.6071,13876.1467,0.0000,0.8757,0.8757,0.7233,0.7233,0.0000,0.0000,141.0052,216.6969,1.5580,0.0000,80.6889,134.4500,-6.5552
5.6000,accel,35.1425,0.0000,0.0000,51.0504,14.1801,0.0000,0.0000,1.0000,0.0000,0.0000,2,2984.5093,3086.9523,3086.9523,3853.9831,3853.9831,-0.0644,-0.0644,0.0502,0.0502,0.0000,0.0000,0.0000,0.0000,-2655.4580,-2655.4580,2750.5569,2750.5569,0.0000,0.0000,0.0000,0.0000,0.0000,-11.7888,-11.7888,16.1124,16.1124,-110.1418,-110.1418,110.9782,110.9782,0.0000,-0.6149,13881.8708,0.0000,0.8602,0.8602,0.7137,0.7137,0.0000,0.0000,146.7238,222.7753,1.6892,0.0000,81.1589,139.9271,-6.7966
5.7000,accel,36.5770,0.0000,0.0000,52.0671,14.4621,0.0000,0.0000,1.0000,0.0000,0.0000,2,3041.5427,3085.6645,3085.6645,3858.2075,3858.2075,-0.0615,-0.0615,0.0495,0.0495,0.0000,0.0000,0.0000,0.0000,-2602.1181,-2602.1181,2729.4620,2729.4620,0.0000,0.0000,0.0000,0.0000,0.0000,-11.9508,-11.9508,16.2869,16.2869,-109.6915,-109.6915,110.2106,110.2106,0.0000,-0.6223,13887.7438,0.0000,0.8433,0.8433,0.7074,0.7074,0.0000,0.0000,152.6246,229.0529,1.8285,0.0000,81.6437,145.5807,-7.0438
5.8000,accel,38.0399,0.0000,0.0000,53.0937,14.7469,0.0000,0.0000,1.0000,0.0000,0.0000,2,3099.5531,3086.7018,3086.7018,3860.1989,3860.1989,-0.0587,-0.0587,0.0489,0.0489,0.0000,0.0000,0.0000,0.0000,-2546.5357,-2546.5357,2711.5456,2711.5456,0.0000,0.0000,0.0000,0.0000,0.0000,-12.1101,-12.1101,16.4294,16.4294,-108.6067,-108.6067,108.8490,108.8490,0.0000,-0.6289,13893.8013,0.0000,0.8250,0.8250,0.7024,0.7024,0.0000,0.0000,158.7005,235.5233,1.9761,0.0000,82.1440,151.4032,-7.2972
5.9000,accel,39.5314,0.0000,0.0000,54.1281,15.0339,0.0000,0.0000,1.0000,0.0000,0.0000,2,3157.3861,3088.3278,3088.3278,3861.6969,3861.6969,-0.0559,-0.0559,0.0481,0.0481,0.0000,0.0000,0.0000,0.0000,-2488.1968,-2488.1968,2687.1483,2687.1483,0.0000,0.0000,0.0000,0.0000,0.0000,-12.2532,-12.2532,16.5431,16.5431,-107.4792,-107.4792,107.5569,107.5569,0.0000,-0.6346,13900.0496,0.0000,0.8057,0.8057,0.6958,0.6958,0.0000,0.0000,164.9418,242.1762,2.1326,0.0000,82.6589,157.3847,-7.5571
6.0000,accel,41.0517,0.0000,0.0000,55.1699,15.3228,0.0000,0.0000,1.0000,0.0000,0.0000,2,3215.9770,3091.1196,3091.1196,3862.1131,3862.1131,-0.0532,-0.0532,0.0475,0.0475,0.0000,0.0000,0.0000,0.0000,-2426.2867,-2426.2867,2666.0621,2666.0621,0.0000,0.0000,0.0000,0.0000,0.0000,-12.3869,-12.3869,16.6364,16.6364,-106.0946,-106.0946,106.0175,106.0175,0.0000,-0.6396,13906.4653,0.0000,0.7849,0.7849,0.6903,0.6903,0.0000,0.0000,171.3487,249.0122,2.2983,0.0000,83.1881,163.5258,-7.8229
6.1000,accel,42.6011,0.0000,0.0000,56.2191,15.6137,0.0000,0.0000,1.0000,0.0000,0.0000,2,3275.2886,3095.0847,3095.0847,3861.4404,3861.4404,-0.0505,-0.0505,0.0470,0.0470,0.0000,0.0000,0.0000,0.0000,-2360.4527,-2360.4527,2647.8720,2647.8720,0.0000,0.0000,0.0000,0.0000,0.0000,-12.5208,-12.5208,16.7163,16.7163,-104.3831,-104.3831,104.1555,104.1555,0.0000,-0.6443,13913.0503,0.0000,0.7626,0.7626,0.6857,0.6857,0.0000,0.0000,177.9239,256.0349,2.4738,0.0000,83.7320,169.8291,-8.0947
6.2000,accel,44.1796,0.0000,0.0000,57.2757,15.9066,0.0000,0.0000,1.0000,0.0000,0.0000,2,3335.2848,3100.2230,3100.2230,3859.6805,3859.6805,-0.0478,-0.0478,0.0466,0.0466,0.0000,0.0000,0.0000,0.0000,-2290.2902,-2290.2902,2632.1447,2632.1447,0.0000,0.0000,0.0000,0.0000,0.0000,-12.6589,-12.6589,16.7859,16.7859,-102.3166,-102.3166,101.9406,101.9406,0.0000,-0.6489,13919.8070,0.0000,0.7388,0.7388,0.6820,0.6820,0.0000,0.0000,184.6703,263.2482,2.6593,0.0000,84.2913,176.2976,-8.3727
6.3000,accel,45.7877,0.0000,0.0000,58.3399,16.2015,0.0000,0.0000,1.0000,0.0000,0.0000,2,3395.9329,3106.5444,3106.5444,3856.8246,3856.8246,-0.0451,-0.0451,0.0463,0.0463,0.0000,0.0000,0.0000,0.0000,-2215.3361,-2215.3361,2618.4610,2618.4610,0.0000,0.0000,0.0000,0.0000,0.0000,-12.8028,-12.8028,16.8466,16.8466,-99.8806,-99.8806,99.3564,99.3564,0.0000,-0.6534,13926.7381,0.0000,0.7131,0.7131,0.6789,0.6789,0.0000,0.0000,191.5909,270.6559,2.8554,0.0000,84.8662,182.9343,-8.6566
6.4000,accel,47.4254,0.0000,0.0000,59.4117,16.4984,0.0000,0.0000,1.0000,0.0000,0.0000,2,3457.2041,3114.0745,3114.0745,3852.8485,3852.8485,-0.0424,-0.0424,0.0460,0.0460,0.0000,0.0000,0.0000,0.0000,-2135.0545,-2135.0545,2606.4254,2606.4254,0.0000,0.0000,0.0000,0.0000,0.0000,-12.9532,-12.9532,16.8987,16.8987,-97.0627,-97.0627,96.3885,96.3885,0.0000,-0.6578,13933.8460,0.0000,0.6856,0.6856,0.6765,0.6765,0.0000,0.0000,198.6887,278.2618,3.0626,0.0000,85.4572,189.7420,-8.9466
6.5000,accel,49.0929,0.0000,0.0000,60.4910,16.7973,0.0000,0.0000,1.0000,0.0000,0.0000,2,3519.0731,3122.8584,3122.8584,3847.7081,3847.7081,-0.0397,-0.0397,0.0458,0.0458,0.0000,0.0000,0.0000,0.0000,-2048.8160,-2048.8160,2595.6674,2595.6674,0.0000,0.0000,0.0000,0.0000,0.0000,-13.1105,-13.1105,16.9422,16.9422,-93.8476,-93.8476,93.0191,93.0191,0.0000,-0.6623,13941.1331,0.0000,0.6561,0.6561,0.6746,0.6746,0.0000,0.0000,205.9666,286.0698,3.2813,0.0000,86.0646,196.7239,-9.2427
6.6000,accel,50.7905,0.0000,0.0000,61.5781,17.0983,0.0000,0.0000,1.0000,0.0000,0.0000,2,3581.5173,3132.9659,3132.9659,3841.3351,3841.3351,-0.0370,-0.0370,0.0456,0.0456,0.0000,0.0000,0.0000,0.0000,-1955.8698,-1955.8698,2585.8366,2585.8366,0.0000,0.0000,0.0000,0.0000,0.0000,-13.2750,-13.2750,16.9769,16.9769,-90.2132,-90.2132,89.2235,89.2235,0.0000,-0.6667,13948.6019,0.0000,0.6243,0.6243,0.6732,0.6732,0.0000,0.0000,213.4277,294.0838,3.5120,0.0000,86.6889,203.8828,-9.5448
6.7000,accel,52.5183,0.0000,0.0000,62.6729,17.4014,0.0000,0.0000,1.0000,0.0000,0.0000,2,3644.5164,3144.4958,3144.4958,3833.6315,3833.6315,-0.0343,-0.0343,0.0455,0.0455,0.0000,0.0000,0.0000,0.0000,-1855.3044,-1855.3044,2576.5945,2576.5945,0.0000,0.0000,0.0000,0.0000,0.0000,-13.4470,-13.4470,17.0021,17.0021,-86.1290,-86.1290,84.9676,84.9676,0.0000,-0.6710,13956.2547,0.0000,0.5900,0.5900,0.6721,0.6721,0.0000,0.0000,221.0750,302.3077,3.7553,0.0000,87.3304,211.2220,-9.8529
6.8000,accel,54.2767,0.0000,0.0000,63.7755,17.7065,0.0000,0.0000,1.0000,0.0000,0.0000,2,3708.0508,3157.5839,3157.5839,3824.4629,3824.4629,-0.0315,-0.0315,0.0454,0.0454,0.0000,0.0000,0.0000,0.0000,-1745.9951,-1745.9951,2567.6027,2567.6027,0.0000,0.0000,0.0000,0.0000,0.0000,-13.6271,-13.6271,17.0171,17.0171,-81.5532,-81.5532,80.2054,80.2054,0.0000,-0.6753,13964.0935,0.0000,0.5530,0.5530,0.6714,0.6714,0.0000,0.0000,228.9116,310.7458,4.0118,0.0000,87.9894,218.7446,-10.1670
6.9000,accel,56.0657,0.0000,0.0000,64.8860,18.0137,0.0000,0.0000,1.0000,0.0000,0.0000,2,3772.1009,3172.4120,3172.4120,3813.6481,3813.6481,-0.0286,-0.0286,0.0453,0.0453,0.0000,0.0000,0.0000,0.0000,-1626.5336,-1626.5336,2558.5096,2558.5096,0.0000,0.0000,0.0000,0.0000,0.0000,-13.8158,-13.8158,17.0208,17.0208,-76.4293,-76.4293,74.8753,74.8753,0.0000,-0.6795,13972.1201,0.0000,0.5127,0.5127,0.6709,0.6709,0.0000,0.0000,236.9407,319.4020,4.2818,0.0000,88.6662,226.4539,-10.4868
7.0000,accel,57.8857,0.0000,0.0000,66.0044,18.3229,0.0000,0.0000,1.0000,0.0000,0.0000,2,3836.6463,3189.2211,3189.2211,3800.9471,3800.9471,-0.0256,-0.0256,0.0453,0.0453,0.0000,0.0000,0.0000,0.0000,-1495.1394,-1495.1394,2548.9340,2548.9340,0.0000,0.0000,0.0000,0.0000,0.0000,-14.0141,-14.0141,17.0116,17.0116,-70.6827,-70.6827,68.8957,68.8957,0.0000,-0.6837,13980.3363,0.0000,0.4688,0.4688,0.6706,0.6706,0.0000,0.0000,245.1655,328.2804,4.5661,0.0000,89.3611,234.3532,-10.8123
7.1000,accel,59.7367,0.0000,0.0000,67.1308,18.6343,0.0000,0.0000,1.0000,0.0000,0.0000,2,3901.6642,3208.3245,3208.3245,3786.0471,3786.0471,-0.0225,-0.0225,0.0452,0.0452,0.0000,0.0000,0.0000,0.0000,-1349.5671,-1349.5671,2538.4496,2538.4496,0.0000,0.0000,0.0000,0.0000,0.0000,-14.2229,-14.2229,16.9876,16.9876,-64.2160,-64.2160,62.1610,62.1610,0.0000,-0.6878,13988.7433,0.0000,0.4206,0.4206,0.6705,0.6705,0.0000,0.0000,253.5892,337.3855,4.8653,0.0000,90.0741,242.4461,-11.1430
7.2000,accel,61.6191,0.0000,0.0000,68.2654,18.9477,0.0000,0.0000,1.0000,0.0000,0.0000,2,3967.1291,3230.1130,3230.1130,3768.5580,3768.5580,-0.0193,-0.0193,0.0452,0.0452,0.0000,0.0000,0.0000,0.0000,-1187.0822,-1187.0822,2526.5791,2526.5791,0.0000,0.0000,0.0000,0.0000,0.0000,-14.4439,-14.4439,16.9462,16.9462,-56.9069,-56.9069,54.5400,54.5400,0.0000,-0.6917,13997.3420,0.0000,0.3675,0.3675,0.6704,0.6704,0.0000,0.0000,262.2150,346.7213,5.1799,0.0000,90.8053,250.7361,-11.4788
7.3000,accel,63.5331,0.0000,0.0000,69.4080,19.2631,0.0000,0.0000,1.0000,0.0000,0.0000,2,4032.9344,3255.3611,3255.3611,3747.7020,3747.7020,-0.0159,-0.0159,0.0451,0.0451,0.0000,0.0000,0.0000,0.0000,-1004.8740,-1004.8740,2512.0052,2512.0052,0.0000,0.0000,0.0000,0.0000,0.0000,-14.6777,-14.6777,16.8830,16.8830,-48.5296,-48.5296,45.7670,45.7670,0.0000,-0.6955,14006.1263,0.0000,0.3087,0.3087,0.6703,0.6703,0.0000,0.0000,271.0440,356.2899,5.5106,0.0000,91.5536,259.2257,-11.8183
7.4000,accel,65.4788,0.0000,0.0000,70.5564,19.5800,0.0000,0.0000,1.0000,0.0000,0.0000,2,4098.4224,3284.3322,3284.3322,3723.2142,3723.2142,-0.0123,-0.0123,0.0449,0.0449,0.0000,0.0000,0.0000,0.0000,-803.5492,-803.5492,2490.0531,2490.0531,0.0000,0.0000,0.0000,0.0000,0.0000,-14.9104,-14.9104,16.7805,16.7805,-39.1068,-39.1068,35.9112,35.9112,0.0000,-0.6984,14015.0928,0.0000,0.2447,0.2447,0.6688,0.6688,0.0000,0.0000,280.0618,366.0759,5.8580,0.0000,92.3168,267.9011,-12.1607
7.5000,accel,67.4563,0.0000,0.0000,71.7099,19.8981,0.0000,0.0000,1.0000,0.0000,0.0000,2,4164.1331,3315.8892,3315.8892,3696.2393,3696.2393,-0.0086,-0.0086,0.0447,0.0447,0.0000,0.0000,0.0000,0.0000,-586.5522,-586.5522,2466.5832,2466.5832,0.0000,0.0000,0.0000,0.0000,0.0000,-15.1453,-15.1453,16.6441,16.6441,-28.9404,-28.9404,25.3769,25.3769,0.0000,-0.7005,14024.2569,0.0000,0.1769,0.1769,0.6673,0.6673,0.0000,0.0000,289.2652,376.0765,6.2228,0.0000,93.0955,276.7582,-12.5070
7.6000,accel,69.4659,0.0000,0.0000,72.8681,20.2176,0.0000,0.0000,1.0000,0.0000,0.0000,2,4230.2042,3347.5116,3347.5116,3669.3169,3669.3169,-0.0051,-0.0051,0.0446,0.0446,0.0000,0.0000,0.0000,0.0000,-372.2593,-372.2593,2444.0865,2444.0865,0.0000,0.0000,0.0000,0.0000,0.0000,-15.3878,-15.3878,16.4908,16.4908,-18.7111,-18.7111,15.0113,15.0113,0.0000,-0.7025,14033.6569,0.0000,0.1112,0.1112,0.6661,0.6661,0.0000,0.0000,298.6562,386.2944,6.6055,0.0000,93.8926,285.7962,-12.8599
7.7000,accel,71.5076,0.0000,0.0000,74.0302,20.5386,0.0000,0.0000,1.0000,0.0000,0.0000,2,4296.9590,3373.6968,3373.6968,3647.9823,3647.9823,-0.0023,-0.0023,0.0445,0.0445,0.0000,0.0000,0.0000,0.0000,-198.5720,-198.5720,2428.0858,2428.0858,0.0000,0.0000,0.0000,0.0000,0.0000,-15.6300,-15.6300,16.3499,16.3499,-10.0497,-10.0497,6.7321,6.7321,0.0000,-0.7047,14043.3581,0.0000,0.0589,0.0589,0.6656,0.6656,0.0000,0.0000,308.2365,396.7323,7.0070,0.0000,94.7140,295.0112,-13.2252
7.8000,accel,73.5816,0.0000,0.0000,75.1958,20.8613,0.0000,0.0000,1.0000,0.0000,0.0000,2,4364.7022,3389.4995,3389.4995,3637.1884,3637.1884,-0.0007,-0.0007,0.0445,0.0445,0.0000,0.0000,0.0000,0.0000,-96.6437,-96.6437,2423.4982,2423.4982,0.0000,0.0000,0.0000,0.0000,0.0000,-15.8502,-15.8502,16.2581,16.2581,-4.5228,-4.5228,2.1543,2.1543,0.0000,-0.7076,14053.3758,0.0000,0.0285,0.0285,0.6663,0.6663,0.0000,0.0000,318.0078,407.3929,7.4277,0.0000,95.5651,304.4000,-13.6078
7.9000,accel,75.6879,0.0000,0.0000,76.3651,21.1855,0.0000,0.0000,1.0000,0.0000,0.0000,2,4433.3817,3395.8563,3395.8563,3635.9490,3635.9490,-0.0001,-0.0001,0.0447,0.0447,0.0000,0.0000,0.0000,0.0000,-56.8442,-56.8442,2429.1415,2429.1415,0.0000,0.0000,0.0000,0.0000,0.0000,-16.0211,-16.0211,16.2320,16.2320,-2.0579,-2.0579,0.7166,0.7166,0.0000,-0.7108,14063.6106,0.0000,0.0167,0.0167,0.6681,0.6681,0.0000,0.0000,327.9720,418.2790,7.8685,0.0000,96.4451,313.9654,-14.0066
8.0000,cruise,77.8268,0.0000,0.0000,77.5385,21.5113,0.0000,0.0000,0.6444,0.0000,0.0000,2,4502.6956,3397.4991,3397.4991,3639.4905,3639.4905,0.0001,0.0001,0.0449,0.0449,0.0000,0.0000,0.0000,0.0000,-46.8479,-46.8479,2439.9068,2439.9068,0.0000,0.0000,0.0000,0.0000,0.0000,-16.1495,-16.1495,16.2604,16.2604,-1.2559,-1.2559,0.6233,0.6233,0.0000,-0.7142,14073.9793,0.0000,0.0138,0.0138,0.6704,0.6704,0.0000,0.0000,338.1306,429.3931,8.3300,0.0000,97.3498,323.7133,-14.4173
8.1000,cruise,79.9920,0.0000,0.0000,78.2428,21.7198,0.0000,0.0000,0.5401,0.0000,0.0000,2,4442.4232,3581.2035,3581.2035,3459.5409,3459.5409,0.0003,0.0003,0.0226,0.0226,0.0000,0.0000,0.0000,0.0000,-34.0241,-34.0241,1344.3919,1344.3919,0.0000,0.0000,0.0000,0.0000,0.0000,-12.4116,-12.4116,13.2500,13.2500,33.8140,33.8140,-30.0344,-30.0344,0.0000,-0.5655,14081.4888,0.0000,0.0095,0.0095,0.3886,0.3886,0.0000,0.0000,343.9802,435.8852,8.8087,0.0000,97.4393,329.6372,-14.3430
8.2000,cruise,82.1741,0.0000,0.0000,78.8083,21.8792,0.0000,0.0000,0.4604,0.0000,0.0000,2,4459.6511,3615.2663,3615.2663,3427.5701,3427.5701,0.0004,0.0004,0.0192,0.0192,0.0000,0.0000,0.0000,0.0000,-23.6355,-23.6355,1146.3989,1146.3989,0.0000,0.0000,0.0000,0.0000,0.0000,-9.7849,-9.7849,10.7160,10.7160,20.7641,20.7641,-21.5066,-21.5066,0.0000,-0.4518,14085.6727,0.0000,0.0065,0.0065,0.3345,0.3345,0.0000,0.0000,348.9238,441.4322,9.2988,0.0000,97.7008,334.4326,-14.4912
8.3000,cruise,84.3706,0.0000,0.0000,79.2825,22.0128,0.0000,0.0000,0.3936,0.0000,0.0000,2,4474.3715,3643.8781,3643.8781,3401.0293,3401.0293,0.0005,0.0005,0.0165,0.0165,0.0000,0.0000,0.0000,0.0000,-18.1386,-18.1386,980.6476,980.6476,0.0000,0.0000,0.0000,0.0000,0.0000,-8.0609,-8.0609,8.8614,8.8614,14.6243,14.6243,-16.2117,-16.2117,0.0000,-0.3729,14089.8149,0.0000,0.0050,0.0050,0.2883,0.2883,0.0000,0.0000,353.0977,446.1889,9.7985,0.0000,97.9097,338.4806,-14.6170
8.4000,cruise,86.5790,0.0000,0.0000,79.6800,22.1249,0.0000,0.0000,0.3376,0.0000,0.0000,2,4486.8270,3667.9214,3667.9214,3378.8188,3378.8188,0.0006,0.0006,0.0142,0.0142,0.0000,0.0000,0.0000,0.0000,-14.6116,-14.6116,841.6376,841.6376,0.0000,0.0000,0.0000,0.0000,0.0000,-6.7904,-6.7904,7.4375,7.4375,11.2452,11.2452,-12.6991,-12.6991,0.0000,-0.3135,14093.4805,0.0000,0.0040,0.0040,0.2491,0.2491,0.0000,0.0000,356.6167,450.2771,10.3065,0.0000,98.0773,341.8933,-14.7234
8.5000,cruise,88.7975,0.0000,0.0000,80.0132,22.2188,0.0000,0.0000,0.2906,0.0000,0.0000,2,4497.3087,3688.1141,3688.1141,3360.1890,3360.1890,0.0006,0.0006,0.0124,0.0124,0.0000,0.0000,0.0000,0.0000,-12.0290,-12.0290,725.0055,725.0055,0.0000,0.0000,0.0000,0.0000,0.0000,-5.7887,-5.7887,6.3074,6.3074,9.0605,9.0605,-10.2115,-10.2115,0.0000,-0.2666,14096.6062,0.0000,0.0033,0.0033,0.2158,0.2158,0.0000,0.0000,359.5798,453.8009,10.8215,0.0000,98.2126,344.7669,-14.8129
8.6000,cruise,91.0244,0.0000,0.0000,80.2924,22.2975,0.0000,0.0000,0.2513,0.0000,0.0000,2,4506.0699,3705.1213,3705.1213,3344.4976,3344.4976,0.0007,0.0007,0.0108,0.0108,0.0000,0.0000,0.0000,0.0000,-9.9903,-9.9903,626.7758,626.7758,0.0000,0.0000,0.0000,0.0000,0.0000,-4.9711,-4.9711,5.3901,5.3901,7.4819,7.4819,-8.3633,-8.3633,0.0000,-0.2283,14099.2380,0.0000,0.0027,0.0027,0.1874,0.1874,0.0000,0.0000,362.0715,456.8478,11.3423,0.0000,98.3221,347.1835,-14.8880
8.7000,cruise,93.2583,0.0000,0.0000,80.5260,22.3634,0.0000,0.0000,0.2183,0.0000,0.0000,2,4513.3937,3719.3939,3719.3939,3331.3270,3331.3270,0.0007,0.0007,0.0095,0.0095,0.0000,0.0000,0.0000,0.0000,-8.3301,-8.3301,544.4012,544.4012,0.0000,0.0000,0.0000,0.0000,0.0000,-4.2925,-4.2925,4.6346,4.6346,6.2311,6.2311,-6.9153,-6.9153,0.0000,-0.1967,14101.4419,0.0000,0.0022,0.0022,0.1634,0.1634,0.0000,0.0000,364.1637,459.4919,11.8681,0.0000,98.4111,349.2126,-14.9510
8.8000,cruise,95.4982,0.0000,0.0000,80.7216,22.4185,0.0000,0.0000,0.1908,0.0000,0.0000,2,4519.5219,3731.3332,3731.3332,3320.3100,3320.3100,0.0007,0.0007,0.0084,0.0084,0.0000,0.0000,0.0000,0.0000,-6.9602,-6.9602,475.4924,475.4924,0.0000,0.0000,0.0000,0.0000,0.0000,-3.7265,-3.7265,4.0083,4.0083,5.2025,5.2025,-5.7452,-5.7452,0.0000,-0.1705,14103.2866,0.0000,0.0019,0.0019,0.1432,0.1432,0.0000,0.0000,365.9195,461.7977,12.3981,0.0000,98.4839,350.9157,-15.0038
8.9000,cruise,97.7430,0.0000,0.0000,80.8853,22.4646,0.0000,0.0000,0.1677,0.0000,0.0000,2,4524.6468,3741.3232,3741.3232,3311.0925,3311.0925,0.0007,0.0007,0.0075,0.0075,0.0000,0.0000,0.0000,0.0000,-5.8214,-5.8214,417.8358,417.8358,0.0000,0.0000,0.0000,0.0000,0.0000,-3.2538,-3.2538,3.4872,3.4872,4.3489,4.3489,-4.7870,-4.7870,0.0000,-0.1485,14104.8313,0.0000,0.0016,0.0016,0.1262,0.1262,0.0000,0.0000,367.3925,463.8198,12.9316,0.0000,98.5437,352.3444,-15.0481
9.0000,cruise,99.9919,0.0000,0.0000,81.0223,22.5033,0.0000,0.0000,0.1484,0.0000,0.0000,2,4528.9315,3749.6835,3749.6835,3303.3792,3303.3792,0.0007,0.0007,0.0067,0.0067,0.0000,0.0000,0.0000,0.0000,-4.8713,-4.8713,369.5863,369.5863,0.0000,0.0000,0.0000,0.0000,0.0000,-2.8584,-2.8584,3.0525,3.0525,3.6376,3.6376,-3.9958,-3.9958,0.0000,-0.1303,14106.1253,0.0000,0.0013,0.0013,0.1119,0.1119,0.0000,0.0000,368.6279,465.6039,13.4680,0.0000,98.5931,353.5428,-15.0851
9.1000,cruise,102.2443,0.0000,0.0000,81.1370,22.5356,0.0000,0.0000,0.1322,0.0000,0.0000,2,4532.5135,3756.6809,3756.6809,3296.9238,3296.9238,0.0007,0.0007,0.0060,0.0060,0.0000,0.0000,0.0000,0.0000,-4.0774,-4.0774,329.2040,329.2040,0.0000,0.0000,0.0000,0.0000,0.0000,-2.5277,-2.5277,2.6895,2.6895,3.0437,3.0437,-3.3390,-3.3390,0.0000,-0.1150,14107.2095,0.0000,0.0011,0.0011,0.0999,0.0999,0.0000,0.0000,369.6638,467.1885,14.0070,0.0000,98.6339,354.5476,-15.1162
9.2000,cruise,104.4996,0.0000,0.0000,81.2331,22.5627,0.0000,0.0000,0.1186,0.0000,0.0000,2,4535.5080,3762.5382,3762.5382,3291.5208,3291.5208,0.0007,0.0007,0.0055,0.0055,0.0000,0.0000,0.0000,0.0000,-3.4133,-3.4133,295.4028,295.4028,0.0000,0.0000,0.0000,0.0000,0.0000,-2.2510,-2.2510,2.3861,2.3861,2.5473,2.5473,-2.7921,-2.7921,0.0000,-0.1022,14108.1180,0.0000,0.0009,0.0009,0.0897,0.0897,0.0000,0.0000,370.5321,468.6058,14.5480,0.0000,98.6679,355.3899,-15.1422
9.3000,cruise,106.7573,0.0000,0.0000,81.3135,22.5854,0.0000,0.0000,0.1073,0.0000,0.0000,2,4538.0118,3767.4414,3767.4414,3286.9982,3286.9982,0.0008,0.0008,0.0051,0.0051,0.0000,0.0000,0.0000,0.0000,-2.8577,-2.8577,267.1080,267.1080,0.0000,0.0000,0.0000,0.0000,0.0000,-2.0193,-2.0193,2.1323,2.1323,2.1321,2.1321,-2.3358,-2.3358,0.0000,-0.0915,14108.8791,0.0000,0.0008,0.0008,0.0813,0.0813,0.0000,0.0000,371.2599,469.8829,15.0907,0.0000,98.6962,356.0960,-15.1639
9.4000,cruise,109.0171,0.0000,0.0000,81.3809,22.6044,0.0000,0.0000,0.0978,0.0000,0.0000,2,4540.1055,3771.5463,3771.5463,3283.2122,3283.2122,0.0008,0.0008,0.0047,0.0047,0.0000,0.0000,0.0000,0.0000,-2.3926,-2.3926,243.4210,243.4210,0.0000,0.0000,0.0000,0.0000,0.0000,-1.8255,-1.8255,1.9199,1.9199,1.7848,1.7848,-1.9546,-1.9546,0.0000,-0.0825,14109.5169,0.0000,0.0006,0.0006,0.0741,0.0741,0.0000,0.0000,371.8698,471.0426,15.6350,0.0000,98.7199,356.6877,-15.1822
9.5000,cruise,111.2785,0.0000,0.0000,81.4372,22.6203,0.0000,0.0000,0.0899,0.0000,0.0000,2,4541.8565,3774.9829,3774.9829,3280.0427,3280.0427,0.0008,0.0008,0.0044,0.0044,0.0000,0.0000,0.0000,0.0000,-2.0033,-2.0033,223.5904,223.5904,0.0000,0.0000,0.0000,0.0000,0.0000,-1.6631,-1.6631,1.7422,1.7422,1.4941,1.4941,-1.6360,-1.6360,0.0000,-0.0750,14110.0513,0.0000,0.0005,0.0005,0.0682,0.0682,0.0000,0.0000,372.3809,472.1037,16.1804,0.0000,98.7399,357.1835,-15.1974
9.6000,cruise,113.5414,0.0000,0.0000,81.4844,22.6336,0.0000,0.0000,0.0832,0.0000,0.0000,2,4543.3211,3777.8602,3777.8602,3277.3892,3277.3892,0.0008,0.0008,0.0041,0.0041,0.0000,0.0000,0.0000,0.0000,-1.6774,-1.6774,206.9877,206.9877,0.0000,0.0000,0.0000,0.0000,0.0000,-1.5273,-1.5273,1.5934,1.5934,1.2509,1.2509,-1.3694,-1.3694,0.0000,-0.0688,14110.4989,0.0000,0.0004,0.0004,0.0632,0.0632,0.0000,0.0000,372.8091,473.0825,16.7269,0.0000,98.7567,357.5989,-15.2102
9.7000,cruise,115.8055,0.0000,0.0000,81.5240,22.6447,0.0000,0.0000,0.0776,0.0000,0.0000,2,4544.5464,3780.2693,3780.2693,3275.1677,3275.1677,0.0008,0.0008,0.0039,0.0039,0.0000,0.0000,0.0000,0.0000,-1.4045,-1.4045,193.0870,193.0870,0.0000,0.0000,0.0000,0.0000,0.0000,-1.4135,-1.4135,1.4689,1.4689,1.0472,1.0472,-1.1464,-1.1464,0.0000,-0.0635,14110.8740,0.0000,0.0004,0.0004,0.0590,0.0590,0.0000,0.0000,373.1678,473.9921,17.2742,0.0000,98.7710,357.9469,-15.2209
9.8000,cruise,118.0705,0.0000,0.0000,81.5571,22.6540,0.0000,0.0000,0.0730,0.0000,0.0000,2,4545.5716,3782.2865,3782.2865,3273.3076,3273.3076,0.0008,0.0008,0.0037,0.0037,0.0000,0.0000,0.0000,0.0000,-1.1761,-1.1761,181.4483,181.4483,0.0000,0.0000,0.0000,0.0000,0.0000,-1.3183,-1.3183,1.3646,1.3646,0.8768,0.8768,-0.9598,-0.9598,0.0000,-0.0591,14111.1881,0.0000,0.0003,0.0003,0.0554,0.0554,0.0000,0.0000,373.4683,474.8438,17.8223,0.0000,98.7831,358.2384,-15.2299
9.9000,cruise,120.3364,0.0000,0.0000,81.5848,22.6619,0.0000,0.0000,0.0691,0.0000,0.0000,2,4546.4294,3783.9754,3783.9754,3271.7502,3271.7502,0.0008,0.0008,0.0035,0.0035,0.0000,0.0000,0.0000,0.0000,-0.9848,-0.9848,171.7032,171.7032,0.0000,0.0000,0.0000,0.0000,0.0000,-1.2385,-1.2385,1.2773,1.2773,0.7341,0.7341,-0.8036,-0.8036,0.0000,-0.0554,14111.4513,0.0000,0.0003,0.0003,0.0525,0.0525,0.0000,0.0000,373.7200,475.6471,18.3710,0.0000,98.7934,358.4826,-15.2374
10.0000,step,122.6030,0.0000,0.0000,81.6080,22.6684,0.0000,0.0000,0.0658,0.0000,1.5000,2,4547.1473,3785.3896,3785.3896,3270.4463,3270.4463,0.0008,0.0008,0.0034,0.0034,0.0000,0.0000,0.0000,0.0000,-0.8246,-0.8246,163.5435,163.5435,0.0000,0.0000,0.0000,0.0000,0.0000,-1.1718,-1.1718,1.2042,1.2042,0.6147,0.6147,-0.6728,-0.6728,0.0000,-0.0524,14111.6717,0.0000,0.0002,0.0002,0.0500,0.0500,0.0000,13.0779,373.9309,476.4097,18.9202,0.0000,98.8023,358.6872,-15.2437
10.1000,step,124.8699,0.0070,0.2327,81.6105,22.6694,0.0488,4.5035,0.0653,0.0000,1.5000,2,4549.7970,3400.1636,4174.6093,2986.3080,3554.2401,0.0050,0.0035,0.0046,0.0032,-1.4304,-0.8955,-0.1380,-0.1373,9.2343,-8.0249,188.7014,118.1237,1125.3805,843.7474,30.1601,44.5062,0.1487,-5.2597,4.3043,-1.9267,5.0616,-80.4281,101.5389,-59.4945,73.9971,0.3059,-0.0451,14115.3210,1.0254,0.3310,0.2021,0.0640,0.0355,288.4088,13.0785,374.0199,477.1513,19.4696,0.0000,98.9640,358.7177,-15.3022
10.2000,step,127.1368,0.0292,0.8789,81.6143,22.6706,-0.0385,7.8313,0.0647,0.0000,1.5000,2,4561.6537,3080.3451,4494.7709,2750.6996,3787.9558,0.0049,0.0036,0.0078,0.0051,-1.4708,-0.9369,-0.5808,-0.5755,4.5115,-5.9872,203.2787,101.0247,1018.2116,896.8175,267.2394,391.2207,0.1874,-15.0063,15.8363,-9.1374,13.4558,-102.1882,114.2810,-75.3091,83.5377,0.9876,-0.0384,14113.7714,0.6257,0.3306,0.1995,0.1221,0.1067,165.8639,13.0792,374.1087,477.8866,20.0191,0.0000,99.1005,358.7670,-15.3417
10.3000,step,129.4035,0.0705,1.7697,81.6134,22.6699,-0.1686,9.6420,0.0651,0.0000,1.5000,2,4570.8475,2907.6868,4665.6527,2624.5288,3913.7171,0.0051,0.0041,0.0104,0.0067,-1.7022,-1.1664,-1.0333,-1.0216,2.2576,-3.5102,209.5660,102.9116,1100.2569,1147.0646,529.2320,801.4790,0.2606,-24.4080,25.7246,-16.0580,20.6912,-84.3637,83.7507,-61.9246,61.4886,1.6058,-0.0365,14111.5855,0.4069,0.3784,0.2459,0.2169,0.2065,134.7112,13.0788,374.1458,478.6211,20.5686,0.0000,99.2823,358.7702,-15.3755
10.4000,step,131.6694,0.1379,2.7897,81.6060,22.6668,-0.2827,10.5763,0.0666,0.0000,1.5000,2,4576.7921,2819.1780,4751.5669,2561.3122,3978.4118,0.0054,0.0046,0.0122,0.0077,-1.9409,-1.4022,-1.3868,-1.3695,1.3677,-1.6818,217.3435,105.8195,1212.2647,1408.6369,727.7094,1129.0029,0.3262,-31.4735,32.3257,-21.2241,25.5612,-59.1809,52.1110,-43.0808,38.6744,2.0439,-0.0384,14110.4689,0.2935,0.4300,0.2965,0.2965,0.2850,122.7949,13.0770,374.1082,479.3667,21.1180,0.0000,99.5408,358.7078,-15.4003
10.5000,step,133.9338,0.2375,3.8753,81.5927,22.6620,-0.3675,11.0417,0.0690,0.0000,1.5000,2,4580.5177,2775.2183,4792.8624,2531.2373,4010.8551,0.0056,0.0049,0.0134,0.0085,-2.1311,-1.5898,-1.6344,-1.6131,1.0204,-0.5432,225.4614,111.6669,1306.7673,1615.0493,862.8312,1355.6437,0.3745,-36.1947,36.2346,-24.6384,28.4888,-38.0112,29.5497,-27.2757,22.3896,2.3206,-0.0420,14110.1731,0.2367,0.4709,0.3370,0.3523,0.3391,117.5944,13.0742,374.0067,480.1351,21.6673,0.0000,99.8796,358.5883,-15.4184
10.6000,step,136.1959,0.3740,4.9929,81.5758,22.6564,-0.4256,11.2645,0.0718,0.0000,1.5000,2,4582.7867,2753.9613,4811.4563,2517.9926,4026.8308,0.0058,0.0052,0.0143,0.0091,-2.2668,-1.7236,-1.7979,-1.7739,0.8700,0.0926,233.8445,118.7509,1375.9779,1759.7712,950.3435,1501.9367,0.4071,-39.1363,38.3736,-26.7254,30.1379,-23.0639,15.6095,-16.1396,12.3073,2.4836,-0.0460,14110.2410,0.2093,0.4996,0.3657,0.3887,0.3741,115.2391,13.0710,373.8647,480.9338,22.2162,0.0000,100.2851,358.4325,-15.4322
10.7000,step,138.4547,0.5505,6.1255,81.5574,22.6505,-0.4634,11.3654,0.0747,0.0000,1.5000,2,4584.1191,2743.9829,4818.8565,2512.9868,4034.5656,0.0059,0.0053,0.0150,0.0095,-2.3578,-1.8133,-1.9017,-1.8761,0.7821,0.4093,242.0605,126.0278,1423.2725,1854.9420,1005.1703,1592.5131,0.4281,-40.8832,39.4653,-27.9239,31.0276,-13.4279,7.6660,-8.9938,6.5251,2.5746,-0.0498,14110.3918,0.1966,0.5187,0.3849,0.4114,0.3960,114.1867,13.0676,373.7049,481.7656,22.7647,0.0000,100.7396,358.2613,-15.4436
10.8000,step,140.7094,0.7688,7.2647,81.5391,22.6449,-0.4872,11.4072,0.0775,0.0000,1.5000,2,4584.8603,2739.4288,4820.9988,2511.7972,4038.2835,0.0060,0.0054,0.0154,0.0098,-2.4161,-1.8708,-1.9656,-1.9390,0.7093,0.5377,249.7450,132.9120,1454.1577,1914.9642,1038.5310,1646.8915,0.4411,-41.8836,39.9783,-28.5714,31.4932,-7.5735,3.4066,-4.6944,3.3765,2.6232,-0.0532,14110.5083,0.1912,0.5308,0.3972,0.4252,0.4091,113.7398,13.0644,373.5436,482.6303,23.3129,0.0000,101.2275,358.0899,-15.4536
10.9000,step,142.9589,1.0301,8.4064,81.5219,22.6398,-0.5017,11.4222,0.0801,0.0000,1.5000,2,4585.2385,2737.3549,4820.8833,2512.2021,4040.1221,0.0060,0.0054,0.0158,0.0101,-2.4524,-1.9066,-2.0040,-1.9769,0.6381,0.5616,256.6883,139.1222,1473.6178,1951.6545,1058.2428,1678.6928,0.4490,-42.4410,40.1898,-28.8963,31.7328,-4.1751,1.2577,-2.2447,1.7347,2.6478,-0.0561,14110.5625,0.1890,0.5383,0.4048,0.4335,0.4169,113.5650,13.0614,373.3911,483.5257,23.8607,0.0000,101.7370,357.9280,-15.4631
11.0000,step,145.2025,1.3351,9.5488,81.5065,22.6353,-0.5104,11.4262,0.0824,0.0000,1.5000,2,4585.4024,2736.3273,4819.9698,2513.1317,4041.1339,0.0060,0.0055,0.0161,0.0103,-2.4743,-1.9282,-2.0267,-1.9993,0.5668,0.5319,262.8122,144.5640,1485.5050,1973.5384,1069.5383,1696.8692,0.4536,-42.7464,40.2546,-29.0422,31.8570,-2.2791,0.2559,-0.9246,0.9146,2.6596,-0.0585,14110.5628,0.1883,0.5429,0.4095,0.4382,0.4214,113.5026,13.0588,373.2529,484.4488,24.4082,0.0000,102.2601,357.7805,-15.4724
11.1000,step,147.4393,1.6840,10.6915,81.4929,22.6313,-0.5155,11.4266,0.0843,0.0000,1.5000,2,4585.4463,2735.6859,4818.9235,2514.1098,4041.8114,0.0060,0.0055,0.0163,0.0105,-2.4874,-1.9411,-2.0401,-2.0124,0.4973,0.4784,268.1246,149.2479,1492.5708,1986.3618,1075.8076,1707.0752,0.4563,-42.9138,40.2559,-29.0946,31.9248,-1.2598,-0.1177,-0.2596,0.5229,2.6650,-0.0605,14110.5306,0.1880,0.5456,0.4122,0.4410,0.4240,113.4787,13.0565,373.1310,485.3960,24.9554,0.0000,102.7915,357.6491,-15.4818
11.2000,step,149.6684,2.0771,11.8342,81.4811,22.6280,-0.5184,11.4266,0.0860,0.0000,1.5000,2,4585.4283,2735.1556,4817.9983,2514.9567,4042.3666,0.0061,0.0055,0.0164,0.0106,-2.4951,-1.9487,-2.0480,-2.0202,0.4317,0.4178,272.6822,153.2362,1496.6762,1993.8140,1079.1771,1712.7621,0.4578,-43.0082,40.2365,-29.1017,31.9662,-0.7308,-0.2376,0.0599,0.3440,2.6673,-0.0621,14110.4772,0.1878,0.5472,0.4138,0.4426,0.4254,113.4625,13.0546,373.0252,486.3642,25.5024,0.0000,103.3281,357.5337,-15.4914
11.3000,step,151.8889,2.5143,12.9768,81.4710,22.6251,-0.5202,11.4270,0.0875,0.0000,1.5000,2,4585.3821,2734.6432,4817.2655,2515.6283,4042.8765,0.0061,0.0055,0.0166,0.0107,-2.4997,-1.9532,-2.0528,-2.0249,0.3717,0.3585,276.5638,156.6112,1499.0253,1998.1736,1080.9353,1715.9652,0.4586,-43.0653,40.2110,-29.0870,31.9958,-0.4639,-0.2594,0.1922,0.2639,2.6681,-0.0635,14110.4135,0.1876,0.5482,0.4148,0.4435,0.4262,113.4435,13.0529,372.9346,487.3502,26.0491,0.0000,103.8679,357.4333,-15.5013
11.4000,step,154.1001,2.9954,14.1196,81.4625,22.6226,-0.5213,11.4282,0.0887,0.0000,1.5000,2,4585.3267,2734.1319,4816.7193,2516.1347,4043.3606,0.0061,0.0055,0.0167,0.0108,-2.5025,-1.9560,-2.0559,-2.0280,0.3180,0.3046,279.8544,159.4580,1500.3656,2000.7986,1081.8322,1717.8435,0.4591,-43.1037,40.1862,-29.0667,32.0199,-0.3309,-0.2338,0.2016,0.2259,2.6684,-0.0647,14110.3466,0.1873,0.5488,0.4154,0.4441,0.4267,113.4198,13.0515,372.8575,488.3514,26.5956,0.0000,104.4098,357.3460,-15.5114
11.5000,step,156.3010,3.5205,15.2625,81.4552,22.6206,-0.5220,11.4298,0.0897,0.0000,1.5000,2,4585.2716,2733.6320,4816.3249,2516.5110,4043.8169,0.0061,0.0055,0.0168,0.0108,-2.5044,-1.9578,-2.0580,-2.0301,0.2707,0.2573,282.6363,161.8557,1501.1437,2002.4689,1082.2913,1719.0325,0.4594,-43.1327,40.1651,-29.0480,32.0412,-0.2625,-0.1916,0.1729,0.2035,2.6686,-0.0657,14110.2848,0.1870,0.5491,0.4158,0.4445,0.4270,113.3929,13.0503,372.7922,489.3655,27.1420,0.0000,104.9531,357.2703,-15.5218
11.6000,step,158.4909,4.0892,16.4056,81.4491,22.6188,-0.5226,11.4318,0.0906,0.0000,1.5000,2,4585.2213,2733.1588,4816.0432,2516.7903,4044.2380,0.0061,0.0055,0.0168,0.0109,-2.5056,-1.9591,-2.0596,-2.0317,0.2298,0.2167,284.9843,163.8743,1501.6165,2003.6164,1082.5395,1719.8658,0.4596,-43.1567,40.1483,-29.0326,32.0606,-0.2232,-0.1487,0.1377,0.1853,2.6688,-0.0665,14110.2303,0.1867,0.5494,0.4160,0.4448,0.4272,113.3649,13.0493,372.7370,490.3904,27.6883,0.0000,105.4976,357.2046,-15.5324
11.7000,step,160.6688,4.7014,17.5489,81.4439,22.6174,-0.5230,11.4338,0.0913,0.0000,1.5000,2,4585.1773,2732.7242,4815.8412,2516.9995,4044.6186,0.0060,0.0055,0.0169,0.0109,-2.5066,-1.9600,-2.0609,-2.0329,0.1946,0.1823,286.9646,165.5741,1501.9265,2004.4723,1082.6918,1720.5106,0.4597,-43.1775,40.1354,-29.0205,32.0781,-0.1961,-0.1121,0.1068,0.1676,2.6691,-0.0672,14110.1834,0.1864,0.5496,0.4162,0.4450,0.4273,113.3376,13.0485,372.6904,491.4245,28.2344,0.0000,106.0429,357.1472,-15.5432
11.8000,step,162.8340,5.3569,18.6924,81.4395,22.6161,-0.5233,11.4357,0.0919,0.0000,1.5000,2,4585.1397,2732.3345,4815.6942,2517.1588,4044.9560,0.0060,0.0055,0.0169,0.0110,-2.5074,-1.9608,-2.0619,-2.0340,0.1645,0.1534,288.6343,167.0059,1502.1494,2005.1559,1082.8029,1721.0466,0.4598,-43.1959,40.1259,-29.0112,32.0939,-0.1738,-0.0833,0.0824,0.1496,2.6694,-0.0678,14110.1435,0.1861,0.5498,0.4164,0.4452,0.4275,113.3122,13.0478,372.6512,492.4662,28.7804,0.0000,106.5888,357.0970,-15.5542
11.9000,step,164.9856,6.0554,19.8360,81.4359,22.6151,-0.5235,11.4375,0.0925,0.0000,1.5000,2,4585.1079,2731.9915,4815.5846,2517.2826,4045.2509,0.0060,0.0055,0.0170,0.0110,-2.5080,-1.9614,-2.0629,-2.0348,0.1390,0.1291,290.0420,168.2126,1502.3236,2005.7273,1082.8963,1721.5096,0.4599,-43.2121,40.1187,-29.0040,32.1079,-0.1536,-0.0618,0.0640,0.1318,2.6697,-0.0683,14110.1096,0.1858,0.5499,0.4165,0.4453,0.4276,113.2892,13.0472,372.6181,493.5145,29.3264,0.0000,107.1354,357.0528,-15.5653
12.0000,step,167.1227,6.7967,20.9799,81.4328,22.6142,-0.5238,11.4391,0.0929,0.0000,1.5000,2,4585.0811,2731.6938,4815.5006,2517.3808,4045.5057,0.0060,0.0055,0.0170,0.0110,-2.5085,-1.9619,-2.0636,-2.0356,0.1173,0.1087,291.2290,169.2301,1502.4683,2006.2165,1082.9810,1721.9157,0.4600,-43.2265,40.1134,-28.9984,32.1202,-0.1347,-0.0463,0.0505,0.1147,2.6700,-0.0687,14110.0810,0.1856,0.5500,0.4166,0.4455,0.4277,113.2689,13.0467,372.5902,494.5683,29.8723,0.0000,107.6824,357.0136,-15.5765
12.1000,step,169.2445,7.5804,22.1239,81.4302,22.6135,-0.5240,11.4405,0.0933,0.0000,1.5000,2,4585.0587,2731.4380,4815.4345,2517.4602,4045.7241,0.0060,0.0055,0.0171,0.0111,-2.5090,-1.9624,-2.0643,-2.0363,0.0990,0.0916,292.2300,170.0882,1502.5924,2006.6395,1083.0591,1722.2722,0.4601,-43.2390,40.1094,-28.9939,32.1308,-0.1171,-0.0352,0.0404,0.0990,2.6702,-0.0690,14110.0568,0.1854,0.5501,0.4167,0.4456,0.4278,113.2513,13.0462,372.5667,495.6267,30.4181,0.0000,108.2298,356.9788,-15.5879
12.2000,step,171.3502,8.4063,23.2680,81.4280,22.6128,-0.5242,11.4418,0.0936,0.0000,1.5000,2,4585.0399,2731.2196,4815.3813,2517.5252,4045.9103,0.0060,0.0055,0.0171,0.0111,-2.5094,-1.9628,-2.0649,-2.0368,0.0836,0.0772,293.0743,170.8123,1502.7004,2007.0056,1083.1308,1722.5837,0.4602,-43.2498,40.1064,-28.9903,32.1399,-0.1010,-0.0273,0.0328,0.0848,2.6705,-0.0693,14110.0364,0.1852,0.5502,0.4168,0.4457,0.4278,113.2361,13.0459,372.5469,496.6890,30.9639,0.0000,108.7776,356.9475,-15.5993
12.3000,step,173.4390,9.2740,24.4122,81.4261,22.6123,-0.5243,11.4428,0.0938,0.0000,1.5000,2,4585.0241,2731.0340,4815.3377,2517.5791,4046.0683,0.0060,0.0055,0.0171,0.0111,-2.5098,-1.9631,-2.0654,-2.0373,0.0705,0.0651,293.7867,171.4233,1502.7944,2007.3217,1083.1955,1722.8541,0.4602,-43.2591,40.1040,-28.9874,32.1477,-0.0866,-0.0216,0.0269,0.0722,2.6707,-0.0696,14110.0191,0.1851,0.5503,0.4169,0.4458,0.4279,113.2232,13.0456,372.5301,497.7546,31.5097,0.0000,109.3256,356.9193,-15.6108
12.4000,step,175.5099,10.1833,25.5566,81.4245,22.6119,-0.5244,11.4437,0.0941,0.0000,1.5000,2,4585.0109,2730.8768,4815.3015,2517.6242,4046.2021,0.0060,0.0055,0.0171,0.0111,-2.5100,-1.9634,-2.0658,-2.0378,0.0595,0.0549,294.3877,171.9391,1502.8760,2007.5933,1083.2532,1723.0872,0.4603,-43.2670,40.1021,-28.9849,32.1543,-0.0738,-0.0174,0.0224,0.0613,2.6709,-0.0698,14110.0046,0.1849,0.5503,0.4169,0.4459,0.4280,113.2123,13.0453,372.5160,498.8229,32.0554,0.0000,109.8740,356.8936,-15.6224
12.5000,step,177.5623,11.1337,26.7010,81.4232,22.6115,-0.5245,11.4444,0.0942,0.0000,1.5000,2,4584.9997,2730.7439,4815.2712,2517.6620,4046.3151,0.0060,0.0055,0.0171,0.0111,-2.5103,-1.9637,-2.0662,-2.0381,0.0502,0.0463,294.8949,172.3744,1502.9464,2007.8258,1083.3037,1723.2870,0.4603,-43.2738,40.1005,-28.9829,32.1599,-0.0627,-0.0142,0.0187,0.0519,2.6710,-0.0700,14109.9923,0.1848,0.5504,0.4170,0.4459,0.4280,113.2030,13.0451,372.5041,499.8936,32.6011,0.0000,110.4225,356.8700,-15.6340
