time,phase,pos_x,pos_y,yaw_deg,speed_kph,vx_body,vy_body,yaw_rate_dps,throttle,brake,steer_deg,gear,rpm,fz_fl,fz_fr,fz_rl,fz_rr,sr_fl,sr_fr,sr_rl,sr_rr,sa_fl_deg,sa_fr_deg,sa_rl_deg,sa_rr_deg,fx_fl,fx_fr,fx_rl,fx_rr,fy_fl,fy_fr,fy_rl,fy_rr,lat_accel_g,susp_defl_fl_mm,susp_defl_fr_mm,susp_defl_rl_mm,susp_defl_rr_mm,susp_vel_fl,susp_vel_fr,susp_vel_rl,susp_vel_rr,roll_deg,pitch_deg,fz_total,understeer_deg,fc_util_fl,fc_util_fr,fc_util_rl,fc_util_rr,radius_m,yaw_rate_ref_dps,ke_total_kj,energy_engine_kj,energy_drag_kj,energy_brake_kj,energy_tire_loss_kj,energy_body_kj,integrator_err_kj
0.0000,accel,0.0000,0.0000,0.0000,0.0000,0.0000,0.0000,0.0000,0.0000,0.0000,0.0000,1,1000.0000,3776.8500,3776.8500,3090.1500,3090.1500,0.0000,0.0000,0.0000,0.0000,0.0000,0.0000,0.0000,0.0000,0.0000,0.0000,0.0000,0.0000,0.0000,0.0000,0.0000,0.0000,0.0000,0.0000,0.0000,0.0000,0.0000,0.0000,0.0000,0.0000,0.0000,0.0000,0.0000,13734.0000,0.0000,0.0000,0.0000,0.0000,0.0000,0.0000,0.0000,0.0000,0.0000,0.0000,0.0000,0.0000,0.0000,0.0000
0.1000,accel,0.0000,0.0000,0.0000,0.0189,0.0039,0.0000,0.0000,0.0667,0.0000,0.0000,1,1000.0000,3719.9820,3719.9820,3147.1162,3147.1162,0.0008,0.0008,0.0027,0.0027,0.0000,0.0000,0.0000,0.0000,-1.0390,-1.0390,112.8766,112.8766,0.0000,0.0000,0.0000,0.0000,0.0000,-0.1182,-0.1182,0.1926,0.1926,-4.1920,-4.1920,5.1647,5.1647,0.0000,-0.0068,13734.1964,0.0000,0.0003,0.0003,0.0359,0.0359,0.0000,0.0000,0.0002,0.0011,0.0000,0.0000,0.0011,0.0000,-0.0002
0.2000,accel,0.0018,0.0000,0.0000,0.1124,0.0284,0.0000,0.0000,0.1333,0.0000,0.0000,1,1000.0000,3697.7664,3697.7664,3169.3250,3169.3250,0.0008,0.0008,0.0048,0.0048,0.0000,0.0000,0.0000,0.0000,-2.8283,-2.8283,243.5822,243.5822,0.0000,0.0000,0.0000,0.0000,0.0000,-0.6791,-0.6791,0.8528,0.8528,-6.5330,-6.5330,7.4459,7.4459,0.0000,-0.0338,13734.1827,0.0000,0.0008,0.0008,0.0769,0.0769,0.0000,0.0000,0.0011,0.0064,0.0000,0.0000,0.0058,0.0006,-0.0004
0.3000,accel,0.0072,0.0000,0.0000,0.2748,0.0707,0.0000,0.0000,0.2000,0.0000,0.0000,1,1000.0000,3684.7050,3684.7050,3182.2586,3182.2586,0.0007,0.0007,0.0087,0.0087,0.0000,0.0000,0.0000,0.0000,-4.3055,-4.3055,478.3488,478.3488,0.0000,0.0000,0.0000,0.0000,0.0000,-1.3850,-1.3850,1.6275,1.6275,-5.2234,-5.2234,4.8724,4.8724,0.0000,-0.0664,13733.9272,0.0000,0.0012,0.0012,0.1503,0.1503,0.0000,0.0000,0.0046,0.0183,0.0000,0.0000,0.0143,0.0039,-0.0007
0.4000,accel,0.0179,0.0000,0.0000,0.5306,0.1312,0.0000,0.0000,0.2667,0.0000,0.0000,1,1000.0000,3278.2761,3278.2761,3591.1218,3591.1218,-0.0025,-0.0025,0.0258,0.0258,0.0000,0.0000,0.0000,0.0000,-204.1619,-204.1619,1565.0154,1565.0154,0.0000,0.0000,0.0000,0.0000,0.0000,-1.0208,-1.0208,3.6962,3.6962,-123.9474,-123.9474,147.7288,147.7288,0.0000,-0.1039,13738.7959,0.0000,0.0623,0.0623,0.4358,0.4358,0.0000,0.0000,0.0165,0.0454,0.0000,0.0000,0.0361,0.0092,-0.0072
0.5000,accel,0.0353,0.0000,0.0000,0.6907,0.2317,0.0000,0.0000,0.3333,0.0000,0.0000,1,1000.0000,3259.7101,3259.7101,3607.8348,3607.8348,0.0055,0.0055,-0.2021,-0.2021,0.0000,0.0000,0.0000,0.0000,291.3032,291.3032,-3640.5908,-3640.5908,0.0000,0.0000,0.0000,0.0000,0.0000,-1.8860,-1.8860,6.2691,6.2691,-123.0736,-123.0736,128.6819,128.6819,0.0000,-0.1797,13735.0899,0.0000,0.0894,0.0894,1.0091,1.0091,0.0000,0.0000,0.0695,0.1146,0.0000,0.0000,0.1042,0.0104,-0.0591
0.6000,accel,0.0628,0.0000,0.0000,1.2335,0.3002,0.0000,0.0000,0.4000,0.0000,0.0000,1,1000.0000,3814.8542,3814.8542,3049.9724,3049.9724,0.0868,0.0868,0.0029,0.0029,0.0000,0.0000,0.0000,0.0000,3440.0916,3440.0916,126.8243,126.8243,0.0000,0.0000,0.0000,0.0000,0.0000,-1.3533,-1.3533,6.0123,6.0123,44.4253,44.4253,-65.6416,-65.6416,0.0000,-0.1623,13729.6533,0.0000,0.9018,0.9018,0.0416,0.0416,0.0000,0.0000,0.1131,0.1925,0.0000,0.0000,0.1358,0.0567,-0.0563
0.7000,accel,0.1008,0.0000,0.0000,1.6591,0.3820,0.0000,0.0000,0.4667,0.0000,0.0000,1,1000.0000,4628.8789,4628.8789,2243.6168,2243.6168,0.2289,0.2289,0.4910,0.4910,0.0000,0.0000,0.0000,0.0000,4405.7905,4405.7905,2214.7606,2214.7606,0.0000,0.0000,0.0000,0.0000,0.0000,0.2391,0.2391,6.5568,6.5568,354.1078,354.1078,-299.9216,-299.9216,0.0000,-0.1392,13744.9914,0.0000,0.9518,0.9518,0.9871,0.9871,0.0000,0.0000,0.1905,0.3026,0.0000,0.0000,0.2034,0.0992,-0.0912
0.8000,accel,0.1512,0.0000,0.0000,2.0077,0.5077,0.0000,0.0000,0.5333,0.0000,0.0000,1,1032.4337,4882.9960,4882.9960,1992.1089,1992.1089,0.0287,0.0287,0.7408,0.7408,0.0000,0.0000,0.0000,0.0000,2260.7842,2260.7842,1938.2991,1938.2991,0.0000,0.0000,0.0000,0.0000,0.0000,0.0218,0.0218,7.4849,7.4849,457.9208,457.9208,-378.4173,-378.4173,0.0000,-0.1645,13750.2099,0.0000,0.4630,0.4630,0.9730,0.9730,0.0000,0.0000,0.3020,0.4878,0.0000,0.0000,0.3403,0.1475,-0.1545
0.9000,accel,0.2149,0.0000,0.0000,2.4543,0.6893,0.0000,0.0000,0.6000,0.0000,0.0000,1,1000.0000,3662.1947,3662.1947,3199.2834,3199.2834,-0.1264,-0.1264,0.6052,0.6052,0.0000,0.0000,0.0000,0.0000,-3643.9501,-3643.9501,3007.3004,3007.3004,0.0000,0.0000,0.0000,0.0000,0.0000,-2.4066,-2.4066,9.9115,9.9115,-4.3773,-4.3773,-50.8568,-50.8568,0.0000,-0.2715,13722.9563,0.0000,0.9950,0.9950,0.9400,0.9400,0.0000,0.0000,0.4126,0.8270,0.0000,0.0000,0.5948,0.2322,-0.1803
1.0000,accel,0.2946,0.0000,0.0000,3.0683,0.8929,0.0000,0.0000,0.6667,0.0000,0.0000,1,1000.0000,3499.5456,3499.5456,3362.0324,3362.0324,0.0009,0.0009,-0.1604,-0.1604,0.0000,0.0000,0.0000,0.0000,4.5038,4.5038,-3415.3979,-3415.3979,0.0000,0.0000,0.0000,0.0000,0.0000,-4.8857,-4.8857,12.4150,12.4150,-33.1541,-33.1541,-22.2598,-22.2598,0.0000,-0.3813,13723.1560,0.0000,0.0013,0.0013,1.0159,1.0159,0.0000,0.0000,0.6416,1.2670,0.0000,0.0000,0.8762,0.3907,-0.2509
1.1000,accel,0.3927,0.0000,0.0000,3.8232,1.0864,0.0000,0.0000,0.7333,0.0000,0.0000,1,1000.0000,3484.7002,3484.7002,3377.5840,3377.5840,0.0227,0.0227,-0.2469,-0.2469,0.0000,0.0000,0.0000,0.0000,1360.5244,1360.5244,-3412.3943,-3412.3943,0.0000,0.0000,0.0000,0.0000,0.0000,-6.3405,-6.3405,13.1249,13.1249,-27.0202,-27.0202,-22.9109,-22.9109,0.0000,-0.4290,13724.5684,0.0000,0.3904,0.3904,1.0103,1.0103,0.0000,0.0000,0.9165,1.8191,0.0001,0.0000,1.1644,0.6546,-0.2619
1.2000,accel,0.5107,0.0000,0.0000,4.5109,1.2893,0.0000,0.0000,0.8000,0.0000,0.0000,1,1000.0000,2594.8268,2594.8268,4276.5038,4276.5038,-0.2095,-0.2095,-0.0035,-0.0035,0.0000,0.0000,0.0000,0.0000,-2703.0249,-2703.0249,-340.2362,-340.2362,0.0000,0.0000,0.0000,0.0000,0.0000,-6.6951,-6.6951,14.2607,14.2607,-278.7573,-278.7573,316.0915,316.0915,0.0000,-0.4618,13742.6613,0.0000,1.0417,1.0417,0.0796,0.0796,0.0000,0.0000,1.2459,2.3888,0.0002,0.0000,1.4459,0.9427,-0.3031
1.3000,accel,0.6511,0.0000,0.0000,5.3253,1.4874,0.0000,0.0000,0.8667,0.0000,0.0000,1,1299.0558,3740.6227,3740.6227,3124.2835,3124.2835,-0.4472,-0.4472,0.5647,0.5647,0.0000,0.0000,0.0000,0.0000,-3637.1160,-3637.1160,2956.8393,2956.8393,0.0000,0.0000,0.0000,0.0000,0.0000,-6.9010,-6.9010,13.4947,13.4947,70.0850,70.0850,-97.9889,-97.9889,0.0000,-0.4495,13729.8124,0.0000,0.9723,0.9723,0.9464,0.9464,0.0000,0.0000,1.7310,3.1533,0.0003,0.0000,1.7931,1.3598,-0.3711
1.4000,accel,0.8155,0.0000,0.0000,6.4559,1.7154,0.0000,0.0000,0.9333,0.0000,0.0000,1,1334.7540,3807.4555,3807.4555,3058.0755,3058.0755,0.3556,0.3556,0.5200,0.5200,0.0000,0.0000,0.0000,0.0000,3626.7828,3626.7828,2915.2345,2915.2345,0.0000,0.0000,0.0000,0.0000,0.0000,-6.8863,-6.8863,14.0574,14.0574,96.6278,96.6278,-120.9710,-120.9710,0.0000,-0.4615,13731.0618,0.0000,0.9525,0.9525,0.9533,0.9533,0.0000,0.0000,2.4060,4.4972,0.0005,0.0000,2.4448,2.0519,-0.3541
1.5000,accel,1.0091,0.0000,0.0000,7.4706,1.9984,0.0000,0.0000,1.0000,0.0000,0.0000,1,1581.7078,4943.3175,4943.3175,1935.6239,1935.6239,0.4605,0.4605,0.5398,0.5398,0.0000,0.0000,0.0000,0.0000,4520.4915,4520.4915,1928.5350,1928.5350,0.0000,0.0000,0.0000,0.0000,0.0000,-7.1700,-7.1700,15.2104,15.2104,553.7482,553.7482,-449.9735,-449.9735,0.0000,-0.4932,13757.8829,0.0000,0.9145,0.9145,0.9963,0.9963,0.0000,0.0000,3.3514,6.2128,0.0009,0.0000,3.4277,2.7842,-0.5671
1.6000,accel,1.2350,0.0000,0.0000,8.8325,2.4351,0.0000,0.0000,1.0000,0.0000,0.0000,1,1043.8402,2574.1851,2574.1851,4297.2731,4297.2731,-0.4848,-0.4848,0.1562,0.1562,0.0000,0.0000,0.0000,0.0000,-2584.9758,-2584.9758,4129.5001,4129.5001,0.0000,0.0000,0.0000,0.0000,0.0000,-13.4498,-13.4498,20.6906,20.6906,-236.5861,-236.5861,259.7246,259.7246,0.0000,-0.7523,13742.9164,0.0000,1.0042,1.0042,0.9610,0.9610,0.0000,0.0000,4.3441,8.0906,0.0014,0.0000,4.1260,3.9632,-0.3809
1.7000,accel,1.4943,0.0000,0.0000,9.9947,2.6977,0.0000,0.0000,1.0000,0.0000,0.0000,1,1629.6466,3666.8775,3666.8775,3200.2050,3200.2050,0.3209,0.3209,0.4053,0.4053,0.0000,0.0000,0.0000,0.0000,3524.5403,3524.5403,3080.8812,3080.8812,0.0000,0.0000,0.0000,0.0000,0.0000,-11.3981,-11.3981,18.1755,18.1755,85.2603,85.2603,-110.0507,-110.0507,0.0000,-0.6517,13734.1651,0.0000,0.9612,0.9612,0.9627,0.9627,0.0000,0.0000,5.6996,10.4120,0.0022,0.0000,5.2871,5.1227,-0.5770
1.8000,accel,1.7893,0.0000,0.0000,11.3547,3.1380,0.0000,0.0000,1.0000,0.0000,0.0000,1,1935.4012,2616.4023,2616.4023,4255.5451,4255.5451,-0.4995,-0.4995,0.4220,0.4220,0.0000,0.0000,0.0000,0.0000,-2618.6595,-2618.6595,3971.0162,3971.0162,0.0000,0.0000,0.0000,0.0000,0.0000,-15.3493,-15.3493,22.4689,22.4689,-211.1204,-211.1204,224.9042,224.9042,0.0000,-0.8334,13743.8949,0.0000,1.0009,1.0009,0.9331,0.9331,0.0000,0.0000,7.4061,13.6570,0.0034,0.0000,6.9881,6.6655,-0.7405
1.9000,accel,2.1250,0.0000,0.0000,12.8508,3.5179,0.0000,0.0000,1.0000,0.0000,0.0000,1,1381.8912,3509.7600,3509.7600,3359.5185,3359.5185,0.0200,0.0200,0.0942,0.0942,0.0000,0.0000,0.0000,0.0000,1217.5706,1217.5706,3129.3849,3129.3849,0.0000,0.0000,0.0000,0.0000,0.0000,-16.1303,-16.1303,21.8589,21.8589,69.4349,69.4349,-91.1637,-91.1637,0.0000,-0.8372,13738.5570,0.0000,0.3469,0.3469,0.9315,0.9315,0.0000,0.0000,9.1931,16.3185,0.0052,0.0000,7.7091,8.6042,-0.5889
2.0000,accel,2.4990,0.0000,0.0000,14.1935,3.8821,0.0000,0.0000,1.0000,0.0000,0.0000,1,1945.6226,3863.0634,3863.0634,3010.9615,3010.9615,0.0344,0.0344,0.2907,0.2907,0.0000,0.0000,0.0000,0.0000,2122.2225,2122.2225,2966.4300,2966.4300,0.0000,0.0000,0.0000,0.0000,0.0000,-15.1561,-15.1561,21.1194,21.1194,200.8564,200.8564,-185.6387,-185.6387,0.0000,-0.7994,13748.0498,0.0000,0.5494,0.5494,0.9852,0.9852,0.0000,0.0000,11.3925,19.6146,0.0077,0.0000,9.0637,10.5432,-0.8493
2.1000,accel,2.9119,0.0000,0.0000,15.6734,4.2798,0.0000,0.0000,1.0000,0.0000,0.0000,1,2554.4657,3520.6376,3520.6376,3350.3630,3350.3630,0.0712,0.0712,0.4058,0.4058,0.0000,0.0000,0.0000,0.0000,3004.9826,3004.9826,3210.2209,3210.2209,0.0000,0.0000,0.0000,0.0000,0.0000,-15.6558,-15.6558,21.9627,21.9627,68.6921,68.6921,-94.8951,-94.8951,0.0000,-0.8290,13742.0012,0.0000,0.8535,0.8535,0.9582,0.9582,0.0000,0.0000,14.1142,23.8463,0.0110,0.0000,10.9282,12.9070,-1.2071
2.2000,accel,3.3713,0.0000,0.0000,17.2373,4.7740,0.0000,0.0000,1.0000,0.0000,0.0000,1,1631.6546,3580.3828,3580.3828,3294.1464,3294.1464,0.0779,0.0779,-0.0347,-0.0347,0.0000,0.0000,0.0000,0.0000,3148.1772,3148.1772,-1954.2833,-1954.2833,0.0000,0.0000,0.0000,0.0000,0.0000,-18.4075,-18.4075,24.2493,24.2493,119.8440,119.8440,-127.5719,-127.5719,0.0000,-0.9400,13749.0583,0.0000,0.8793,0.8793,0.5933,0.5933,0.0000,0.0000,16.9399,27.7859,0.0156,0.0000,12.1015,15.6688,-1.2710
2.3000,accel,3.8740,0.0000,0.0000,18.8127,5.2151,0.0000,0.0000,1.0000,0.0000,0.0000,1,2528.3838,3066.2072,3066.2072,3807.5553,3807.5553,-0.0730,-0.0730,0.2688,0.2688,0.0000,0.0000,0.0000,0.0000,-2770.5036,-2770.5036,3675.3262,3675.3262,0.0000,0.0000,0.0000,0.0000,0.0000,-19.0557,-19.0557,24.3246,24.3246,-56.8597,-56.8597,25.6215,25.6215,0.0000,-0.9560,13747.5251,0.0000,0.9036,0.9036,0.9653,0.9653,0.0000,0.0000,20.3647,32.9169,0.0216,0.0000,14.1771,18.7182,-1.6465
2.4000,accel,4.4251,0.0000,0.0000,20.5050,5.6865,0.0000,0.0000,1.0000,0.0000,0.0000,1,2272.4848,2897.9116,2897.9116,3979.7250,3979.7250,-0.2444,-0.2444,0.1131,0.1131,0.0000,0.0000,0.0000,0.0000,-2973.3511,-2973.3511,3761.4429,3761.4429,0.0000,0.0000,0.0000,0.0000,0.0000,-19.5311,-19.5311,24.7249,24.7249,-101.7641,-101.7641,90.0324,90.0324,0.0000,-0.9753,13755.2733,0.0000,1.0260,1.0260,0.9452,0.9452,0.0000,0.0000,23.7243,36.7739,0.0295,0.0000,14.4522,22.2921,-1.4321
2.5000,accel,5.0191,0.0000,0.0000,22.0822,6.1231,0.0000,0.0000,1.0000,0.0000,0.0000,1,2403.2872,2767.5361,2767.5361,4113.6860,4113.6860,-0.2325,-0.2325,0.0971,0.0971,0.0000,0.0000,0.0000,0.0000,-2857.0765,-2857.0765,3778.1951,3778.1951,0.0000,0.0000,0.0000,0.0000,0.0000,-19.3152,-19.3152,24.4752,24.4752,-140.7727,-140.7727,145.6595,145.6595,0.0000,-0.9650,13762.4442,0.0000,1.0324,1.0324,0.9184,0.9184,0.0000,0.0000,27.4830,40.9161,0.0394,0.0000,14.9746,25.9021,-1.5809
2.6000,accel,5.6577,0.0000,0.0000,23.7102,6.5738,0.0000,0.0000,1.0000,0.0000,0.0000,1,2594.4332,2711.8380,2711.8380,4172.0470,4172.0470,-0.2183,-0.2183,0.1022,0.1022,0.0000,0.0000,0.0000,0.0000,-2810.0807,-2810.0807,3863.3036,3863.3036,0.0000,0.0000,0.0000,0.0000,0.0000,-19.5336,-19.5336,24.7488,24.7488,-155.3668,-155.3668,165.7634,165.7634,0.0000,-0.9758,13767.7699,0.0000,1.0362,1.0362,0.9260,0.9260,0.0000,0.0000,31.6938,45.5442,0.0517,0.0000,15.5822,29.9103,-1.7834
2.7000,accel,6.3426,0.0000,0.0000,25.4112,7.0439,0.0000,0.0000,1.0000,0.0000,0.0000,1,2825.3139,2639.1101,2639.1101,4247.7262,4247.7262,-0.1948,-0.1948,0.1166,0.1166,0.0000,0.0000,0.0000,0.0000,-2747.7957,-2747.7957,4003.8682,4003.8682,0.0000,0.0000,0.0000,0.0000,0.0000,-20.1233,-20.1233,25.4462,25.4462,-172.2034,-172.2034,188.4960,188.4960,0.0000,-1.0042,13773.6726,0.0000,1.0412,1.0412,0.9426,0.9426,0.0000,0.0000,36.4425,50.8196,0.0669,0.0000,16.3492,34.4035,-2.0389
2.8000,accel,7.0761,0.0000,0.0000,27.1970,7.5387,0.0000,0.0000,1.0000,0.0000,0.0000,1,3152.6461,2626.5022,2626.5022,4262.8076,4262.8076,-0.1776,-0.1776,0.1528,0.1528,0.0000,0.0000,0.0000,0.0000,-2737.1754,-2737.1754,4096.9210,4096.9210,0.0000,0.0000,0.0000,0.0000,0.0000,-21.0351,-21.0351,26.4213,26.4213,-169.5955,-169.5955,184.1414,184.1414,0.0000,-1.0458,13778.6196,0.0000,1.0421,1.0421,0.9611,0.9611,0.0000,0.0000,41.8528,57.0061,0.0855,0.0000,17.4640,39.4566,-2.3961
2.9000,accel,7.8601,0.0000,0.0000,29.0282,8.0480,0.0000,0.0000,1.0000,0.0000,0.0000,1,3876.9886,2640.4035,2640.4035,4251.4231,4251.4231,-0.1623,-0.1623,0.2645,0.2645,0.0000,0.0000,0.0000,0.0000,-2747.6164,-2747.6164,4060.7294,4060.7294,0.0000,0.0000,0.0000,0.0000,0.0000,-21.7777,-21.7777,27.1835,27.1835,-160.6526,-160.6526,171.2653,171.2653,0.0000,-1.0790,13783.6531,0.0000,1.0406,1.0406,0.9551,0.9551,0.0000,0.0000,48.1576,64.8459,0.1083,0.0000,19.7417,44.9959,-3.1617
3.0000,accel,8.6945,0.0000,0.0000,30.8098,8.5450,0.0000,0.0000,1.0000,0.0000,0.0000,1,5712.9500,2679.4240,2679.4240,4214.9755,4214.9755,-0.1496,-0.1496,0.4701,0.4701,0.0000,0.0000,0.0000,0.0000,-2777.7628,-2777.7628,3912.6886,3912.6886,0.0000,0.0000,0.0000,0.0000,0.0000,-21.7131,-21.7131,27.1368,27.1368,-150.3122,-150.3122,156.4266,156.4266,0.0000,-1.0765,13788.7990,0.0000,1.0367,1.0367,0.9283,0.9283,0.0000,0.0000,56.0036,76.7849,0.1357,0.0000,25.9165,50.7326,-5.2709
3.1000,accel,9.5779,0.0000,0.0000,32.5604,9.0310,0.0000,0.0000,1.0000,0.0000,0.0000,2,2875.8237,2702.9994,2702.9994,4194.3420,4194.3420,-0.1364,-0.1364,0.3722,0.3722,0.0000,0.0000,0.0000,0.0000,-2786.9798,-2786.9798,3946.7143,3946.7143,0.0000,0.0000,0.0000,0.0000,0.0000,-21.4076,-21.4076,26.8494,26.8494,-146.1170,-146.1170,150.2933,150.2933,0.0000,-1.0634,13794.6828,0.0000,1.0311,1.0311,0.9410,0.9410,0.0000,0.0000,60.4846,87.1024,0.1683,0.0000,30.2302,56.7039,-3.7807
3.2000,accel,10.4889,0.0000,0.0000,32.7731,9.1116,0.0000,0.0000,1.0000,0.0000,0.0000,2,1994.6041,3645.1351,3645.1351,3249.8035,3249.8035,-0.1254,-0.1254,0.0868,0.0868,0.0000,0.0000,0.0000,0.0000,-3626.0649,-3626.0649,2978.5431,2978.5431,0.0000,0.0000,0.0000,0.0000,0.0000,-9.4045,-9.4045,14.8502,14.8502,52.1738,52.1738,-76.8990,-76.8990,0.0000,-0.5345,13789.8773,0.0000,0.9948,0.9948,0.9165,0.9165,0.0000,0.0000,60.3565,87.1024,0.2039,0.0000,29.4478,57.4507,-2.9058
3.3000,accel,11.4003,0.0000,0.0000,32.9451,9.1493,0.0000,0.0000,1.0000,0.0000,0.0000,2,1971.9520,3042.5704,3042.5704,3857.7530,3857.7530,-0.1288,-0.1288,0.0725,0.0725,0.0000,0.0000,0.0000,0.0000,-3087.9522,-3087.9522,3283.5417,3283.5417,0.0000,0.0000,0.0000,0.0000,0.0000,-4.8951,-4.8951,9.1236,9.1236,-167.1336,-167.1336,192.7262,192.7262,0.0000,-0.3089,13800.6467,0.0000,1.0149,1.0149,0.8512,0.8512,0.0000,0.0000,61.0415,87.8560,0.2396,0.0000,29.5571,58.0593,-2.9821
3.4000,accel,12.3277,0.0000,0.0000,33.7643,9.3824,0.0000,0.0000,1.0000,0.0000,0.0000,2,1955.9503,2750.7839,2750.7839,4152.5555,4152.5555,-0.1535,-0.1535,0.0411,0.0411,0.0000,0.0000,0.0000,0.0000,-2846.9390,-2846.9390,2584.0014,2584.0014,0.0000,0.0000,0.0000,0.0000,0.0000,-7.2010,-7.2010,12.7516,12.7516,-234.2116,-234.2116,273.9858,273.9858,0.0000,-0.4397,13806.6787,0.0000,1.0350,1.0350,0.6223,0.6223,0.0000,0.0000,64.0304,91.0773,0.2772,0.0000,29.8045,60.9956,-3.0348
3.5000,accel,13.2770,0.0000,0.0000,34.4792,9.5784,0.0000,0.0000,1.0000,0.0000,0.0000,2,2227.2947,3436.4313,3436.4313,3460.5113,3460.5113,-0.1252,-0.1252,0.1403,0.1403,0.0000,0.0000,0.0000,0.0000,-3437.8283,-3437.8283,3384.1012,3384.1012,0.0000,0.0000,0.0000,0.0000,0.0000,-7.4920,-7.4920,12.4645,12.4645,-36.3900,-36.3900,-0.2063,-0.2063,0.0000,-0.4398,13793.8851,0.0000,1.0004,1.0004,0.9779,0.9779,0.0000,0.0000,67.1393,94.3990,0.3176,0.0000,30.4610,63.6204,-3.5188
3.6000,accel,14.2494,0.0000,0.0000,35.3176,9.8338,0.0000,0.0000,1.0000,0.0000,0.0000,2,1992.2128,2808.8766,2808.8766,4096.9509,4096.9509,-0.1238,-0.1238,0.0132,0.0132,0.0000,0.0000,0.0000,0.0000,-2863.4421,-2863.4421,928.1256,928.1256,0.0000,0.0000,0.0000,0.0000,0.0000,-9.1497,-9.1497,14.1594,14.1594,-204.0589,-204.0589,236.9007,236.9007,0.0000,-0.5137,13811.6550,0.0000,1.0194,1.0194,0.2265,0.2265,0.0000,0.0000,70.3376,97.8010,0.3610,0.0000,30.6713,66.7687,-3.5688
3.7000,accel,15.2449,0.0000,0.0000,36.1642,10.0614,0.0000,0.0000,1.0000,0.0000,0.0000,2,2061.8483,2894.0047,2894.0047,4011.9267,4011.9267,-0.1283,-0.1283,0.0245,0.0245,0.0000,0.0000,0.0000,0.0000,-2950.8263,-2950.8263,1650.5087,1650.5087,0.0000,0.0000,0.0000,0.0000,0.0000,-9.0323,-9.0323,14.5763,14.5763,-180.7653,-180.7653,198.3233,198.3233,0.0000,-0.5203,13811.8628,0.0000,1.0196,1.0196,0.4114,0.4114,0.0000,0.0000,73.6462,101.2892,0.4075,0.0000,30.8566,70.0251,-3.6210
3.8000,accel,16.2631,0.0000,0.0000,37.0167,10.2843,0.0000,0.0000,1.0000,0.0000,0.0000,2,2177.1100,3044.3619,3044.3619,3862.2611,3862.2611,-0.1147,-0.1147,0.0557,0.0557,0.0000,0.0000,0.0000,0.0000,-3053.6573,-3053.6573,2920.3198,2920.3198,0.0000,0.0000,0.0000,0.0000,0.0000,-9.3308,-9.3308,14.0072,14.0072,-135.8646,-135.8646,143.7481,143.7481,0.0000,-0.5143,13813.2459,0.0000,1.0031,1.0031,0.7561,0.7561,0.0000,0.0000,77.0881,104.9230,0.4573,0.0000,31.0781,73.3876,-3.7005
3.9000,accel,17.3047,0.0000,0.0000,37.8481,10.5127,0.0000,0.0000,1.0000,0.0000,0.0000,2,2289.7052,3218.1955,3218.1955,3688.3076,3688.3076,-0.1132,-0.1132,0.0822,0.0822,0.0000,0.0000,0.0000,0.0000,-3205.1172,-3205.1172,3286.9364,3286.9364,0.0000,0.0000,0.0000,0.0000,0.0000,-9.3500,-9.3500,13.8036,13.8036,-86.2598,-86.2598,75.7832,75.7832,0.0000,-0.5102,13813.0062,0.0000,0.9959,0.9959,0.8912,0.8912,0.0000,0.0000,80.6511,108.6994,0.5106,0.0000,31.4472,76.7416,-3.9095
4.0000,accel,18.3698,0.0000,0.0000,38.6944,10.7471,0.0000,0.0000,1.0000,0.0000,0.0000,2,2365.4581,3255.9358,3255.9358,3652.4428,3652.4428,-0.1062,-0.1062,0.0917,0.0917,0.0000,0.0000,0.0000,0.0000,-3210.1140,-3210.1140,3353.7482,3353.7482,0.0000,0.0000,0.0000,0.0000,0.0000,-9.6847,-9.6847,13.5834,13.5834,-73.2959,-73.2959,63.1997,63.1997,0.0000,-0.5128,13816.7572,0.0000,0.9859,0.9859,0.9182,0.9182,0.0000,0.0000,84.3460,112.6244,0.5676,0.0000,31.8224,80.2344,-4.1116
4.1000,accel,19.4589,0.0000,0.0000,39.5582,10.9871,0.0000,0.0000,1.0000,0.0000,0.0000,2,2418.3730,3272.4920,3272.4920,3637.6100,3637.6100,-0.1028,-0.1028,0.0918,0.0918,0.0000,0.0000,0.0000,0.0000,-3207.6702,-3207.6702,3341.7464,3341.7464,0.0000,0.0000,0.0000,0.0000,0.0000,-9.8341,-9.8341,13.6932,13.6932,-67.7175,-67.7175,55.7083,55.7083,0.0000,-0.5185,13820.2039,0.0000,0.9802,0.9802,0.9187,0.9187,0.0000,0.0000,88.1650,116.6728,0.6285,0.0000,32.1661,83.8782,-4.2867
4.2000,accel,20.5723,0.0000,0.0000,40.4387,11.2317,0.0000,0.0000,1.0000,0.0000,0.0000,2,2455.8214,3251.4482,3251.4482,3660.8371,3660.8371,-0.0996,-0.0996,0.0857,0.0857,0.0000,0.0000,0.0000,0.0000,-3171.0603,-3171.0603,3303.9824,3303.9824,0.0000,0.0000,0.0000,0.0000,0.0000,-10.0174,-10.0174,13.8982,13.8982,-72.6487,-72.6487,62.4703,62.4703,0.0000,-0.5270,13824.5706,0.0000,0.9753,0.9753,0.9025,0.9025,0.0000,0.0000,92.1148,120.8569,0.6936,0.0000,32.4880,87.6753,-4.4394
4.3000,accel,21.7102,0.0000,0.0000,41.3291,11.4790,0.0000,0.0000,1.0000,0.0000,0.0000,2,2495.7503,3227.2393,3227.2393,3687.3650,3687.3650,-0.0958,-0.0958,0.0805,0.0805,0.0000,0.0000,0.0000,0.0000,-3126.4916,-3126.4916,3266.6487,3266.6487,0.0000,0.0000,0.0000,0.0000,0.0000,-10.2069,-10.2069,14.0790,14.0790,-78.4477,-78.4477,70.7785,70.7785,0.0000,-0.5352,13829.2087,0.0000,0.9688,0.9688,0.8859,0.8859,0.0000,0.0000,96.2013,125.1864,0.7631,0.0000,32.8227,91.6005,-4.6007
4.4000,accel,22.8730,0.0000,0.0000,42.2308,11.7296,0.0000,0.0000,1.0000,0.0000,0.0000,2,2533.4820,3196.3409,3196.3409,3720.7314,3720.7314,-0.0923,-0.0923,0.0745,0.0745,0.0000,0.0000,0.0000,0.0000,-3075.0497,-3075.0497,3209.6411,3209.6411,0.0000,0.0000,0.0000,0.0000,0.0000,-10.4101,-10.4101,14.2751,14.2751,-86.0690,-86.0690,81.6504,81.6504,0.0000,-0.5440,13834.1445,0.0000,0.9621,0.9621,0.8626,0.8626,0.0000,0.0000,100.4277,129.6641,0.8373,0.0000,33.1637,95.6632,-4.7644
4.5000,accel,24.0608,0.0000,0.0000,43.1430,11.9832,0.0000,0.0000,1.0000,0.0000,0.0000,2,2571.3485,3163.8882,3163.8882,3755.7276,3755.7276,-0.0890,-0.0890,0.0684,0.0684,0.0000,0.0000,0.0000,0.0000,-3021.2842,-3021.2842,3134.3073,3134.3073,0.0000,0.0000,0.0000,0.0000,0.0000,-10.6077,-10.6077,14.4832,14.4832,-94.1824,-94.1824,93.0380,93.0380,0.0000,-0.5529,13839.2316,0.0000,0.9549,0.9549,0.8345,0.8345,0.0000,0.0000,104.7979,134.2945,0.9163,0.0000,33.5158,99.8624,-4.9355
4.6000,accel,25.2741,0.0000,0.0000,44.0647,12.2395,0.0000,0.0000,1.0000,0.0000,0.0000,2,2614.1281,3142.1441,3142.1441,3779.9381,3779.9381,-0.0858,-0.0858,0.0640,0.0640,0.0000,0.0000,0.0000,0.0000,-2975.4452,-2975.4452,3065.8910,3065.8910,0.0000,0.0000,0.0000,0.0000,0.0000,-10.7741,-10.7741,14.6862,14.6862,-99.4669,-99.4669,100.1445,100.1445,0.0000,-0.5611,13844.1644,0.0000,0.9469,0.9469,0.8111,0.8111,0.0000,0.0000,109.3159,139.0820,1.0006,0.0000,33.8854,104.1960,-5.1199
4.7000,accel,26.5132,0.0000,0.0000,44.9963,12.4985,0.0000,0.0000,1.0000,0.0000,0.0000,2,2661.5323,3130.8212,3130.8212,3793.6608,3793.6608,-0.0827,-0.0827,0.0612,0.0612,0.0000,0.0000,0.0000,0.0000,-2936.5144,-2936.5144,3014.0774,3014.0774,0.0000,0.0000,0.0000,0.0000,0.0000,-10.9140,-10.9140,14.8828,14.8828,-101.9717,-101.9717,103.1028,103.1028,0.0000,-0.5685,13848.9640,0.0000,0.9379,0.9379,0.7945,0.7945,0.0000,0.0000,113.9858,144.0309,1.0903,0.0000,34.2707,108.6700,-5.3158
4.8000,accel,27.7783,0.0000,0.0000,45.9390,12.7605,0.0000,0.0000,1.0000,0.0000,0.0000,2,2710.5610,3121.9191,3121.9191,3805.0029,3805.0029,-0.0797,-0.0797,0.0589,0.0589,0.0000,0.0000,0.0000,0.0000,-2897.3248,-2897.3248,2965.8123,2965.8123,0.0000,0.0000,0.0000,0.0000,0.0000,-11.0465,-11.0465,15.0819,15.0819,-103.8469,-103.8469,105.0641,105.0641,0.0000,-0.5758,13853.8440,0.0000,0.9281,0.9281,0.7795,0.7795,0.0000,0.0000,118.8118,149.1461,1.1858,0.0000,34.6680,113.2922,-5.5195
4.9000,accel,29.0698,0.0000,0.0000,46.8931,13.0256,0.0000,0.0000,1.0000,0.0000,0.0000,2,2760.5665,3113.4686,3113.4686,3815.9659,3815.9659,-0.0767,-0.0767,0.0567,0.0567,0.0000,0.0000,0.0000,0.0000,-2856.0129,-2856.0129,2917.9985,2917.9985,0.0000,0.0000,0.0000,0.0000,0.0000,-11.1790,-11.1790,15.2838,15.2838,-105.6024,-105.6024,106.8281,106.8281,0.0000,-0.5832,13858.8691,0.0000,0.9173,0.9173,0.7647,0.7647,0.0000,0.0000,123.7983,154.4329,1.2874,0.0000,35.0774,118.0680,-5.7303
5.0000,accel,30.3880,0.0000,0.0000,47.8588,13.2939,0.0000,0.0000,1.0000,0.0000,0.0000,2,2811.6314,3105.5772,3105.5772,3826.4481,3826.4481,-0.0737,-0.0737,0.0548,0.0548,0.0000,0.0000,0.0000,0.0000,-2812.4217,-2812.4217,2871.8174,2871.8174,0.0000,0.0000,0.0000,0.0000,0.0000,-11.3142,-11.3142,15.4859,15.4859,-107.1876,-107.1876,108.3766,108.3766,0.0000,-0.5906,13864.0505,0.0000,0.9056,0.9056,0.7505,0.7505,0.0000,0.0000,128.9502,159.8971,1.3955,0.0000,35.4997,123.0020,-5.9482
5.1000,accel,31.7332,0.0000,0.0000,48.8363,13.5654,0.0000,0.0000,1.0000,0.0000,0.0000,2,2863.8766,3098.5137,3098.5137,3836.1834,3836.1834,-0.0708,-0.0708,0.0531,0.0531,0.0000,0.0000,0.0000,0.0000,-2766.4864,-2766.4864,2828.7943,2828.7943,0.0000,0.0000,0.0000,0.0000,0.0000,-11.4543,-11.4543,15.6862,15.6862,-108.5114,-108.5114,109.6247,109.6247,0.0000,-0.5981,13869.3943,0.0000,0.8928,0.8928,0.7374,0.7374,0.0000,0.0000,134.2724,165.5450,1.5103,0.0000,35.9358,128.0990,-6.1734
5.2000,accel,33.1058,0.0000,0.0000,49.8260,13.8402,0.0000,0.0000,1.0000,0.0000,0.0000,2,2917.3966,3092.5279,3092.5279,3844.9252,3844.9252,-0.0679,-0.0679,0.0516,0.0516,0.0000,0.0000,0.0000,0.0000,-2718.0971,-2718.0971,2790.2560,2790.2560,0.0000,0.0000,0.0000,0.0000,0.0000,-11.6010,-11.6010,15.8826,15.8826,-109.4902,-109.4902,110.4930,110.4930,0.0000,-0.6057,13874.9062,0.0000,0.8789,0.8789,0.7257,0.7257,0.0000,0.0000,139.7699,171.3828,1.6322,0.0000,36.3865,133.3640,-6.4058
5.3000,accel,34.5060,0.0000,0.0000,50.8279,14.1184,0.0000,0.0000,1.0000,0.0000,0.0000,2,2972.2448,3087.8097,3087.8097,3852.4866,3852.4866,-0.0650,-0.0650,0.0504,0.0504,0.0000,0.0000,0.0000,0.0000,-2667.0780,-2667.0780,2757.0934,2757.0934,0.0000,0.0000,0.0000,0.0000,0.0000,-11.7558,-11.7558,16.0735,16.0735,-110.0590,-110.0590,110.9229,110.9229,0.0000,-0.6133,13880.5926,0.0000,0.8637,0.8637,0.7157,0.7157,0.0000,0.0000,145.4480,177.4170,1.7617,0.0000,36.8529,138.8023,-6.6457
5.4000,accel,35.9343,0.0000,0.0000,51.8422,14.3998,0.0000,0.0000,1.0000,0.0000,0.0000,2,3028.7806,3085.5458,3085.5458,3857.6730,3857.6730,-0.0622,-0.0622,0.0496,0.0496,0.0000,0.0000,0.0000,0.0000,-2613.9419,-2613.9419,2732.7997,2732.7997,0.0000,0.0000,0.0000,0.0000,0.0000,-11.9170,-11.9170,16.2531,16.2531,-109.8915,-109.8915,110.4938,110.4938,0.0000,-0.6208,13886.4376,0.0000,0.8472,0.8472,0.7084,0.7084,0.0000,0.0000,151.3095,183.6515,1.8992,0.0000,37.3346,144.4177,-6.8917
5.5000,accel,37.3909,0.0000,0.0000,52.8668,14.6839,0.0000,0.0000,1.0000,0.0000,0.0000,2,3086.9182,3086.5076,3086.5076,3859.7157,3859.7157,-0.0593,-0.0593,0.0491,0.0491,0.0000,0.0000,0.0000,0.0000,-2558.9842,-2558.9842,2717.4103,2717.4103,0.0000,0.0000,0.0000,0.0000,0.0000,-12.0760,-12.0760,16.4006,16.4006,-108.8284,-108.8284,109.1063,109.1063,0.0000,-0.6275,13892.4465,0.0000,0.8291,0.8291,0.7040,0.7040,0.0000,0.0000,157.3473,190.0800,2.0449,0.0000,37.8314,150.2036,-7.1437
5.6000,accel,38.8761,0.0000,0.0000,53.8996,14.9705,0.0000,0.0000,1.0000,0.0000,0.0000,2,3144.5780,3087.8709,3087.8709,3861.4583,3861.4583,-0.0566,-0.0566,0.0483,0.0483,0.0000,0.0000,0.0000,0.0000,-2501.3456,-2501.3456,2692.2261,2692.2261,0.0000,0.0000,0.0000,0.0000,0.0000,-12.2231,-12.2231,16.5204,16.5204,-107.7444,-107.7444,107.8564,107.8564,0.0000,-0.6334,13898.6584,0.0000,0.8101,0.8101,0.6972,0.6972,0.0000,0.0000,163.5526,196.6931,2.1994,0.0000,38.3432,156.1504,-7.4022
5.7000,accel,40.3900,0.0000,0.0000,54.9397,15.2590,0.0000,0.0000,1.0000,0.0000,0.0000,2,3203.0050,3090.4036,3090.4036,3862.1150,3862.1150,-0.0538,-0.0538,0.0476,0.0476,0.0000,0.0000,0.0000,0.0000,-2440.2509,-2440.2509,2670.4439,2670.4439,0.0000,0.0000,0.0000,0.0000,0.0000,-12.3577,-12.3577,16.6172,16.6172,-106.4257,-106.4257,106.3819,106.3819,0.0000,-0.6385,13905.0372,0.0000,0.7896,0.7896,0.6914,0.6914,0.0000,0.0000,169.9228,203.4884,2.3631,0.0000,38.8692,162.2561,-7.6667
5.8000,accel,41.9330,0.0000,0.0000,55.9873,15.5494,0.0000,0.0000,1.0000,0.0000,0.0000,2,3262.1610,3094.1105,3094.1105,3861.6819,3861.6819,-0.0511,-0.0511,0.0471,0.0471,0.0000,0.0000,0.0000,0.0000,-2375.3141,-2375.3141,2651.6531,2651.6531,0.0000,0.0000,0.0000,0.0000,0.0000,-12.4911,-12.4911,16.6996,16.6996,-104.7898,-104.7898,104.5949,104.5949,0.0000,-0.6433,13911.5848,0.0000,0.7677,0.7677,0.6867,0.6867,0.0000,0.0000,176.4606,210.4696,2.5364,0.0000,39.4099,168.5234,-7.9372
5.9000,accel,43.5051,0.0000,0.0000,57.0423,15.8419,0.0000,0.0000,1.0000,0.0000,0.0000,2,3322.0093,3098.9899,3098.9899,3860.1618,3860.1618,-0.0484,-0.0484,0.0467,0.0467,0.0000,0.0000,0.0000,0.0000,-2306.1428,-2306.1428,2635.4199,2635.4199,0.0000,0.0000,0.0000,0.0000,0.0000,-12.6280,-12.6280,16.7714,16.7714,-102.8031,-102.8031,102.4596,102.4596,0.0000,-0.6479,13918.3035,0.0000,0.7442,0.7442,0.6827,0.6827,0.0000,0.0000,183.1691,217.6406,2.7196,0.0000,39.9657,174.9553,-8.2138
6.0000,accel,45.1066,0.0000,0.0000,58.1048,16.1363,0.0000,0.0000,1.0000,0.0000,0.0000,2,3382.5164,3105.0490,3105.0490,3857.5489,3857.5489,-0.0457,-0.0457,0.0463,0.0463,0.0000,0.0000,0.0000,0.0000,-2232.2877,-2232.2877,2621.3208,2621.3208,0.0000,0.0000,0.0000,0.0000,0.0000,-12.7705,-12.7705,16.8340,16.8340,-100.4496,-100.4496,99.9581,99.9581,0.0000,-0.6524,13925.1959,0.0000,0.7189,0.7189,0.6795,0.6795,0.0000,0.0000,190.0511,225.0052,2.9134,0.0000,40.5372,181.5546,-8.4964
6.1000,accel,46.7377,0.0000,0.0000,59.1749,16.4328,0.0000,0.0000,1.0000,0.0000,0.0000,2,3443.6526,3112.3097,3112.3097,3853.8227,3853.8227,-0.0430,-0.0430,0.0460,0.0460,0.0000,0.0000,0.0000,0.0000,-2153.2302,-2153.2302,2608.9547,2608.9547,0.0000,0.0000,0.0000,0.0000,0.0000,-12.9194,-12.9194,16.8880,16.8880,-97.7171,-97.7171,97.0761,97.0761,0.0000,-0.6569,13932.2646,0.0000,0.6918,0.6918,0.6770,0.6770,0.0000,0.0000,197.1095,232.5671,3.1181,0.0000,41.1246,188.3244,-8.7851
6.2000,accel,48.3987,0.0000,0.0000,60.2526,16.7313,0.0000,0.0000,1.0000,0.0000,0.0000,2,3505.3919,3120.8123,3120.8123,3848.9437,3848.9437,-0.0403,-0.0403,0.0458,0.0458,0.0000,0.0000,0.0000,0.0000,-2068.3638,-2068.3638,2597.9459,2597.9459,0.0000,0.0000,0.0000,0.0000,0.0000,-13.0752,-13.0752,16.9334,16.9334,-94.5910,-94.5910,93.7971,93.7971,0.0000,-0.6613,13939.5121,0.0000,0.6628,0.6628,0.6750,0.6750,0.0000,0.0000,204.3475,240.3302,3.3342,0.0000,41.7283,195.2676,-9.0798
6.3000,accel,50.0896,0.0000,0.0000,61.3379,17.0319,0.0000,0.0000,1.0000,0.0000,0.0000,2,3567.7112,3130.6208,3130.6208,3842.8495,3842.8495,-0.0376,-0.0376,0.0457,0.0457,0.0000,0.0000,0.0000,0.0000,-1976.9675,-1976.9675,2587.9403,2587.9403,0.0000,0.0000,0.0000,0.0000,0.0000,-13.2381,-13.2381,16.9700,16.9700,-91.0513,-91.0513,90.0979,90.0979,0.0000,-0.6657,13946.9407,0.0000,0.6315,0.6315,0.6734,0.6734,0.0000,0.0000,211.7679,248.2984,3.5622,0.0000,42.3489,202.3873,-9.3806
6.4000,accel,51.8108,0.0000,0.0000,62.4310,17.3345,0.0000,0.0000,1.0000,0.0000,0.0000,2,3630.5898,3141.8271,3141.8271,3835.4492,3835.4492,-0.0349,-0.0349,0.0455,0.0455,0.0000,0.0000,0.0000,0.0000,-1878.1689,-1878.1689,2578.5973,2578.5973,0.0000,0.0000,0.0000,0.0000,0.0000,-13.4084,-13.4084,16.9974,16.9974,-87.0694,-87.0694,85.9470,85.9470,0.0000,-0.6700,13954.5527,0.0000,0.5978,0.5978,0.6723,0.6723,0.0000,0.0000,219.3739,256.4758,3.8027,0.0000,42.9866,209.6865,-9.6874
6.5000,accel,53.5624,0.0000,0.0000,63.5319,17.6391,0.0000,0.0000,1.0000,0.0000,0.0000,2,3694.0078,3154.5580,3154.5580,3826.6172,3826.6172,-0.0321,-0.0321,0.0454,0.0454,0.0000,0.0000,0.0000,0.0000,-1770.8959,-1770.8959,2569.5799,2569.5799,0.0000,0.0000,0.0000,0.0000,0.0000,-13.5867,-13.5867,17.0147,17.0147,-82.6062,-82.6062,81.3010,81.3010,0.0000,-0.6744,13962.3503,0.0000,0.5614,0.5614,0.6715,0.6715,0.0000,0.0000,227.1686,264.8663,4.0562,0.0000,43.6417,217.1684,-10.0002
6.6000,accel,55.3447,0.0000,0.0000,64.6406,17.9458,0.0000,0.0000,1.0000,0.0000,0.0000,2,3757.9461,3168.9843,3168.9843,3816.1834,3816.1834,-0.0292,-0.0292,0.0453,0.0453,0.0000,0.0000,0.0000,0.0000,-1653.8095,-1653.8095,2560.5405,2560.5405,0.0000,0.0000,0.0000,0.0000,0.0000,-13.7735,-13.7735,17.0210,17.0210,-77.6088,-77.6088,76.1022,76.1022,0.0000,-0.6786,13970.3355,0.0000,0.5219,0.5219,0.6710,0.6710,0.0000,0.0000,235.1550,273.4741,4.3232,0.0000,44.3146,224.8363,-10.3187
6.7000,accel,57.1578,0.0000,0.0000,65.7573,18.2546,0.0000,0.0000,1.0000,0.0000,0.0000,2,3822.3842,3185.3328,3185.3328,3803.9221,3803.9221,-0.0263,-0.0263,0.0453,0.0453,0.0000,0.0000,0.0000,0.0000,-1525.2197,-1525.2197,2551.1060,2551.1060,0.0000,0.0000,0.0000,0.0000,0.0000,-13.9695,-13.9695,17.0148,17.0148,-72.0069,-72.0069,70.2739,70.2739,0.0000,-0.6828,13978.5098,0.0000,0.4788,0.4788,0.6707,0.6707,0.0000,0.0000,243.3364,282.3032,4.6043,0.0000,45.0054,232.6935,-10.6429
6.8000,accel,59.0020,0.0000,0.0000,66.8820,18.5655,0.0000,0.0000,1.0000,0.0000,0.0000,2,3887.3001,3203.8998,3203.8998,3789.5375,3789.5375,-0.0232,-0.0232,0.0452,0.0452,0.0000,0.0000,0.0000,0.0000,-1382.9900,-1382.9900,2540.8612,2540.8612,0.0000,0.0000,0.0000,0.0000,0.0000,-14.1759,-14.1759,16.9942,16.9942,-65.7084,-65.7084,63.7160,63.7160,0.0000,-0.6869,13986.8746,0.0000,0.4317,0.4317,0.6705,0.6705,0.0000,0.0000,251.7160,291.3580,4.9002,0.0000,45.7144,240.7434,-10.9726
6.9000,accel,60.8774,0.0000,0.0000,68.0147,18.8784,0.0000,0.0000,1.0000,0.0000,0.0000,2,3952.6688,3225.0598,3225.0598,3772.6557,3772.6557,-0.0200,-0.0200,0.0452,0.0452,0.0000,0.0000,0.0000,0.0000,-1224.4858,-1224.4858,2529.3391,2529.3391,0.0000,0.0000,0.0000,0.0000,0.0000,-14.3941,-14.3941,16.9570,16.9570,-58.5965,-58.5965,56.3026,56.3026,0.0000,-0.6909,13995.4310,0.0000,0.3797,0.3797,0.6704,0.6704,0.0000,0.0000,260.2970,300.6426,5.2113,0.0000,46.4416,248.9897,-11.3073
7.0000,accel,62.7844,0.0000,0.0000,69.1556,19.1934,0.0000,0.0000,1.0000,0.0000,0.0000,2,4018.4681,3249.3716,3249.3716,3752.7170,3752.7170,-0.0166,-0.0166,0.0452,0.0452,0.0000,0.0000,0.0000,0.0000,-1046.7833,-1046.7833,2516.0200,2516.0200,0.0000,0.0000,0.0000,0.0000,0.0000,-14.6255,-14.6255,16.8997,16.8997,-50.5011,-50.5011,47.8424,47.8424,0.0000,-0.6947,14004.1773,0.0000,0.3221,0.3221,0.6705,0.6705,0.0000,0.0000,269.0820,310.1606,5.5384,0.0000,47.1865,257.4358,-11.6462
7.1000,accel,64.7231,0.0000,0.0000,70.3029,19.5101,0.0000,0.0000,1.0000,0.0000,0.0000,2,4083.9757,3277.6956,3277.6956,3728.8548,3728.8548,-0.0131,-0.0131,0.0450,0.0450,0.0000,0.0000,0.0000,0.0000,-849.5022,-849.5022,2495.0468,2495.0468,0.0000,0.0000,0.0000,0.0000,0.0000,-14.8593,-14.8593,16.8064,16.8064,-41.2529,-41.2529,38.1490,38.1490,0.0000,-0.6978,14013.1007,0.0000,0.2592,0.2592,0.6691,0.6691,0.0000,0.0000,278.0591,319.8997,5.8821,0.0000,47.9464,266.0712,-11.9878
7.2000,accel,66.6936,0.0000,0.0000,71.4553,19.8279,0.0000,0.0000,1.0000,0.0000,0.0000,2,4149.6322,3308.7934,3308.7934,3702.3164,3702.3164,-0.0094,-0.0094,0.0448,0.0448,0.0000,0.0000,0.0000,0.0000,-635.1109,-635.1109,2471.8086,2471.8086,0.0000,0.0000,0.0000,0.0000,0.0000,-15.0929,-15.0929,16.6763,16.6763,-31.2250,-31.2250,27.7316,27.7316,0.0000,-0.7001,14022.2196,0.0000,0.1919,0.1919,0.6676,0.6676,0.0000,0.0000,287.2215,329.8528,6.2430,0.0000,48.7215,274.8883,-12.3331
7.3000,accel,68.6962,0.0000,0.0000,72.6125,20.1471,0.0000,0.0000,1.0000,0.0000,0.0000,2,4215.6019,3340.7841,3340.7841,3674.9970,3674.9970,-0.0058,-0.0058,0.0446,0.0446,0.0000,0.0000,0.0000,0.0000,-417.5134,-417.5134,2448.7132,2448.7132,0.0000,0.0000,0.0000,0.0000,0.0000,-15.3339,-15.3339,16.5247,16.5247,-20.8990,-20.8990,17.1945,17.1945,0.0000,-0.7021,14031.5623,0.0000,0.1250,0.1250,0.6663,0.6663,0.0000,0.0000,296.5709,340.0225,6.6217,0.0000,49.5141,283.8867,-12.6842
7.4000,accel,70.7308,0.0000,0.0000,73.7739,20.4677,0.0000,0.0000,1.0000,0.0000,0.0000,2,4282.1731,3368.7151,3368.7151,3651.8810,3651.8810,-0.0028,-0.0028,0.0445,0.0445,0.0000,0.0000,0.0000,0.0000,-231.2489,-231.2489,2430.7319,2430.7319,0.0000,0.0000,0.0000,0.0000,0.0000,-15.5776,-15.5776,16.3779,16.3779,-11.7249,-11.7249,8.2680,8.2680,0.0000,-0.7042,14041.1923,0.0000,0.0686,0.0686,0.6656,0.6656,0.0000,0.0000,306.1094,350.4117,7.0190,0.0000,50.3296,293.0631,-13.0462
7.5000,accel,72.7976,0.0000,0.0000,74.9387,20.7900,0.0000,0.0000,1.0000,0.0000,0.0000,2,4349.6879,3386.9638,3386.9638,3638.6086,3638.6086,-0.0010,-0.0010,0.0445,0.0445,0.0000,0.0000,0.0000,0.0000,-112.7705,-112.7705,2423.4825,2423.4825,0.0000,0.0000,0.0000,0.0000,0.0000,-15.8047,-15.8047,16.2728,16.2728,-5.4470,-5.4470,2.8377,2.8377,0.0000,-0.7069,14051.1448,0.0000,0.0333,0.0333,0.6660,0.6660,0.0000,0.0000,315.8385,361.0230,7.4354,0.0000,51.1740,302.4136,-13.4248
7.6000,accel,74.8968,0.0000,0.0000,76.1071,21.1140,0.0000,0.0000,1.0000,0.0000,0.0000,2,4418.1845,3395.0284,3395.0284,3635.6430,3635.6430,-0.0002,-0.0002,0.0447,0.0447,0.0000,0.0000,0.0000,0.0000,-61.9555,-61.9555,2427.2780,2427.2780,0.0000,0.0000,0.0000,0.0000,0.0000,-15.9881,-15.9881,16.2325,16.2325,-2.4030,-2.4030,0.8571,0.8571,0.0000,-0.7100,14061.3429,0.0000,0.0182,0.0182,0.6676,0.6676,0.0000,0.0000,325.7600,371.8592,7.8717,0.0000,52.0480,311.9395,-13.8204
7.7000,accel,77.0286,0.0000,0.0000,77.2796,21.4394,0.0000,0.0000,1.0000,0.0000,0.0000,2,4487.3835,3397.3300,3397.3300,3638.5125,3638.5125,0.0000,0.0000,0.0449,0.0449,0.0000,0.0000,0.0000,0.0000,-47.8589,-47.8589,2437.3233,2437.3233,0.0000,0.0000,0.0000,0.0000,0.0000,-16.1236,-16.1236,16.2502,16.2502,-1.3596,-1.3596,0.6064,0.6064,0.0000,-0.7134,14071.6850,0.0000,0.0141,0.0141,0.6699,0.6699,0.0000,0.0000,335.8758,382.9231,8.3286,0.0000,52.9477,321.6468,-14.2290
7.8000,accel,79.1929,0.0000,0.0000,78.4537,21.7656,0.0000,0.0000,1.0000,0.0000,0.0000,2,4555.2165,3399.8271,3399.8271,3641.2236,3641.2236,0.0001,0.0001,0.0448,0.0448,0.0000,0.0000,0.0000,0.0000,-45.1972,-45.1972,2435.7238,2435.7238,0.0000,0.0000,0.0000,0.0000,0.0000,-16.2155,-16.2155,16.2838,16.2838,-0.5815,-0.5815,0.1119,0.1119,0.0000,-0.7162,14082.1014,0.0000,0.0133,0.0133,0.6689,0.6689,0.0000,0.0000,346.1569,394.1833,8.8068,0.0000,53.8601,331.5164,-14.6404
7.9000,accel,81.3898,0.0000,0.0000,79.6232,22.0905,0.0000,0.0000,1.0000,0.0000,0.0000,2,4622.2423,3403.0125,3403.0125,3643.2991,3643.2991,0.0001,0.0001,0.0446,0.0446,0.0000,0.0000,0.0000,0.0000,-44.7073,-44.7073,2429.6956,2429.6956,0.0000,0.0000,0.0000,0.0000,0.0000,-16.2426,-16.2426,16.2761,16.2761,-0.0767,-0.0767,-0.1699,-0.1699,0.0000,-0.7166,14092.6231,0.0000,0.0131,0.0131,0.6669,0.6669,0.0000,0.0000,356.5514,405.5828,9.3069,0.0000,54.7799,341.4960,-15.0553
8.0000,cruise,83.6191,0.0000,0.0000,80.7881,22.4142,0.0000,0.0000,0.1929,0.0000,0.0000,2,4688.9752,3406.1456,3406.1456,3645.4773,3645.4773,0.0001,0.0001,0.0444,0.0444,0.0000,0.0000,0.0000,0.0000,-44.5024,-44.5024,2423.7477,2423.7477,0.0000,0.0000,0.0000,0.0000,0.0000,-16.2335,-16.2335,16.2521,16.2521,0.2078,0.2078,-0.2842,-0.2842,0.0000,-0.7159,14103.2458,0.0000,0.0131,0.0131,0.6649,0.6649,0.0000,0.0000,367.0569,417.1193,9.8294,0.0000,55.7075,351.5824,-15.4745
8.1000,cruise,85.8671,0.0000,0.0000,80.9902,22.4953,0.0000,0.0000,0.1524,0.0000,0.0000,2,4527.0451,3735.8615,3735.8615,3317.5179,3317.5179,-0.0004,-0.0004,0.0066,0.0066,0.0000,0.0000,0.0000,0.0000,-82.0089,-82.0089,367.1747,367.1747,0.0000,0.0000,0.0000,0.0000,0.0000,-8.4688,-8.4688,10.0671,10.0671,54.2335,54.2335,-50.0376,-50.0376,0.0000,-0.4085,14106.7588,0.0000,0.0220,0.0220,0.1107,0.1107,0.0000,0.0000,368.3547,418.9793,10.3652,0.0000,55.2664,353.3477,-15.0070
8.2000,cruise,88.1187,0.0000,0.0000,81.1109,22.5287,0.0000,0.0000,0.1357,0.0000,0.0000,2,4531.6229,3750.3929,3750.3929,3302.6206,3302.6206,0.0002,0.0002,0.0062,0.0062,0.0000,0.0000,0.0000,0.0000,-39.0960,-39.0960,336.5672,336.5672,0.0000,0.0000,0.0000,0.0000,0.0000,-4.6335,-4.6335,6.1550,6.1550,21.6044,21.6044,-26.4447,-26.4447,0.0000,-0.2377,14106.0271,0.0000,0.0104,0.0104,0.1019,0.1019,0.0000,0.0000,369.4346,420.6080,10.9036,0.0000,55.2996,354.4048,-15.0298
8.3000,cruise,90.3734,0.0000,0.0000,81.2115,22.5568,0.0000,0.0000,0.1216,0.0000,0.0000,2,4534.7901,3758.9293,3758.9293,3294.5378,3294.5378,0.0005,0.0005,0.0056,0.0056,0.0000,0.0000,0.0000,0.0000,-19.0822,-19.0822,301.9895,301.9895,0.0000,0.0000,0.0000,0.0000,0.0000,-3.0608,-3.0608,4.1101,4.1101,9.2181,9.2181,-14.2277,-14.2277,0.0000,-0.1580,14106.9343,0.0000,0.0051,0.0051,0.0917,0.0917,0.0000,0.0000,370.3400,422.0623,11.4441,0.0000,55.3314,355.2868,-15.0532
8.4000,cruise,92.6306,0.0000,0.0000,81.2956,22.5804,0.0000,0.0000,0.1098,0.0000,0.0000,2,4537.4279,3765.2409,3765.2409,3288.7782,3288.7782,0.0007,0.0007,0.0052,0.0052,0.0000,0.0000,0.0000,0.0000,-9.9374,-9.9374,272.8836,272.8836,0.0000,0.0000,0.0000,0.0000,0.0000,-2.3464,-2.3464,2.9994,2.9994,4.5358,4.5358,-8.0069,-8.0069,0.0000,-0.1178,14108.0382,0.0000,0.0026,0.0026,0.0830,0.0830,0.0000,0.0000,371.0989,423.3704,11.9865,0.0000,55.3593,356.0246,-15.0743
8.5000,cruise,94.8899,0.0000,0.0000,81.3659,22.6002,0.0000,0.0000,0.0999,0.0000,0.0000,2,4539.6268,3770.1042,3770.1042,3284.3840,3284.3840,0.0007,0.0007,0.0048,0.0048,0.0000,0.0000,0.0000,0.0000,-5.6371,-5.6371,248.4099,248.4099,0.0000,0.0000,0.0000,0.0000,0.0000,-1.9700,-1.9700,2.3638,2.3638,2.6646,2.6646,-4.7789,-4.7789,0.0000,-0.0955,14108.9763,0.0000,0.0015,0.0015,0.0756,0.0756,0.0000,0.0000,371.7349,424.5561,12.5304,0.0000,55.3833,356.6424,-15.0925
8.6000,cruise,97.1509,0.0000,0.0000,81.4247,22.6167,0.0000,0.0000,0.0916,0.0000,0.0000,2,4541.4614,3773.9683,3773.9683,3280.8875,3280.8875,0.0007,0.0007,0.0044,0.0044,0.0000,0.0000,0.0000,0.0000,-3.5184,-3.5184,227.8503,227.8503,0.0000,0.0000,0.0000,0.0000,0.0000,-1.7365,-1.7365,1.9758,1.9758,1.8315,1.8315,-3.0533,-3.0533,0.0000,-0.0818,14109.7117,0.0000,0.0009,0.0009,0.0694,0.0694,0.0000,0.0000,372.2679,425.6390,13.0756,0.0000,55.4037,357.1597,-15.1081
8.7000,cruise,99.4135,0.0000,0.0000,81.4740,22.6306,0.0000,0.0000,0.0847,0.0000,0.0000,2,4542.9934,3777.1029,3777.1029,3278.0381,3278.0381,0.0008,0.0008,0.0042,0.0042,0.0000,0.0000,0.0000,0.0000,-2.4036,-2.4036,210.5973,210.5973,0.0000,0.0000,0.0000,0.0000,0.0000,-1.5712,-1.5712,1.7214,1.7214,1.3946,1.3946,-2.0901,-2.0901,0.0000,-0.0726,14110.2821,0.0000,0.0006,0.0006,0.0642,0.0642,0.0000,0.0000,372.7144,426.6360,13.6219,0.0000,55.4211,357.5931,-15.1213
8.8000,cruise,101.6773,0.0000,0.0000,81.5152,22.6422,0.0000,0.0000,0.0789,0.0000,0.0000,2,4544.2736,3779.6792,3779.6792,3275.6857,3275.6857,0.0008,0.0008,0.0039,0.0039,0.0000,0.0000,0.0000,0.0000,-1.7659,-1.7659,196.1308,196.1308,0.0000,0.0000,0.0000,0.0000,0.0000,-1.4438,-1.4438,1.5430,1.5430,1.1204,1.1204,-1.5207,-1.5207,0.0000,-0.0658,14110.7298,0.0000,0.0005,0.0005,0.0599,0.0599,0.0000,0.0000,373.0885,427.5609,14.1690,0.0000,55.4358,357.9561,-15.1324
8.9000,cruise,103.9421,0.0000,0.0000,81.5497,22.6520,0.0000,0.0000,0.0740,0.0000,0.0000,2,4545.3440,3781.8132,3781.8132,3273.7305,3273.7305,0.0008,0.0008,0.0037,0.0037,0.0000,0.0000,0.0000,0.0000,-1.3658,-1.3658,184.0076,184.0076,0.0000,0.0000,0.0000,0.0000,0.0000,-1.3412,-1.3412,1.4105,1.4105,0.9225,0.9225,-1.1606,-1.1606,0.0000,-0.0606,14111.0874,0.0000,0.0004,0.0004,0.0562,0.0562,0.0000,0.0000,373.4018,428.4254,14.7169,0.0000,55.4484,358.2601,-15.1417
9.0000,cruise,106.2079,0.0000,0.0000,81.5787,22.6601,0.0000,0.0000,0.0699,0.0000,0.0000,2,4546.2393,3783.5890,3783.5890,3272.0996,3272.0996,0.0008,0.0008,0.0036,0.0036,0.0000,0.0000,0.0000,0.0000,-1.0917,-1.0917,173.8513,173.8513,0.0000,0.0000,0.0000,0.0000,0.0000,-1.2569,-1.2569,1.3078,1.3078,0.7676,0.7676,-0.9164,-0.9164,0.0000,-0.0565,14111.3773,0.0000,0.0003,0.0003,0.0531,0.0531,0.0000,0.0000,373.6644,429.2394,15.2655,0.0000,55.4591,358.5148,-15.1495
9.1000,cruise,108.4743,0.0000,0.0000,81.6029,22.6669,0.0000,0.0000,0.0665,0.0000,0.0000,2,4546.9884,3785.0707,3785.0707,3270.7368,3270.7368,0.0008,0.0008,0.0034,0.0034,0.0000,0.0000,0.0000,0.0000,-0.8901,-0.8901,165.3447,165.3447,0.0000,0.0000,0.0000,0.0000,0.0000,-1.1868,-1.1868,1.2259,1.2259,0.6413,0.6413,-0.7401,-0.7401,0.0000,-0.0532,14111.6151,0.0000,0.0002,0.0002,0.0506,0.0506,0.0000,0.0000,373.8842,430.0110,15.8146,0.0000,55.4683,358.7282,-15.1560
9.2000,cruise,110.7414,0.0000,0.0000,81.6231,22.6727,0.0000,0.0000,0.0637,0.0000,0.0000,2,4547.6152,3786.3090,3786.3090,3269.5968,3269.5968,0.0008,0.0008,0.0033,0.0033,0.0000,0.0000,0.0000,0.0000,-0.7342,-0.7342,158.2206,158.2206,0.0000,0.0000,0.0000,0.0000,0.0000,-1.1283,-1.1283,1.1592,1.1592,0.5366,0.5366,-0.6064,-0.6064,0.0000,-0.0504,14111.8116,0.0000,0.0002,0.0002,0.0484,0.0484,0.0000,0.0000,374.0684,430.7472,16.3641,0.0000,55.4762,358.9069,-15.1615
9.3000,cruise,113.0089,0.0000,0.0000,81.6401,22.6774,0.0000,0.0000,0.0613,0.0000,0.0000,2,4548.1398,3787.3446,3787.3446,3268.6428,3268.6428,0.0008,0.0008,0.0032,0.0032,0.0000,0.0000,0.0000,0.0000,-0.6096,-0.6096,152.2547,152.2547,0.0000,0.0000,0.0000,0.0000,0.0000,-1.0794,-1.0794,1.1044,1.1044,0.4493,0.4493,-0.5012,-0.5012,0.0000,-0.0481,14111.9748,0.0000,0.0002,0.0002,0.0466,0.0466,0.0000,0.0000,374.2227,431.4536,16.9140,0.0000,55.4831,359.0565,-15.1661
9.4000,cruise,115.2769,0.0000,0.0000,81.6543,22.6815,0.0000,0.0000,0.0593,0.0000,0.0000,2,4548.5789,3788.2113,3788.2113,3267.8441,3267.8441,0.0008,0.0008,0.0031,0.0031,0.0000,0.0000,0.0000,0.0000,-0.5081,-0.5081,147.2589,147.2589,0.0000,0.0000,0.0000,0.0000,0.0000,-1.0385,-1.0385,1.0590,1.0590,0.3762,0.3762,-0.4165,-0.4165,0.0000,-0.0462,14112.1108,0.0000,0.0001,0.0001,0.0451,0.0451,0.0000,0.0000,374.3518,432.1351,17.4642,0.0000,55.4891,359.1819,-15.1700
9.5000,cruise,117.5453,0.0000,0.0000,81.6662,22.6848,0.0000,0.0000,0.0576,0.0000,0.0000,2,4548.9465,3788.9367,3788.9367,3267.1755,3267.1755,0.0008,0.0008,0.0031,0.0031,0.0000,0.0000,0.0000,0.0000,-0.4243,-0.4243,143.0755,143.0755,0.0000,0.0000,0.0000,0.0000,0.0000,-1.0043,-1.0043,1.0212,1.0212,0.3151,0.3151,-0.3471,-0.3471,0.0000,-0.0446,14112.2244,0.0000,0.0001,0.0001,0.0438,0.0438,0.0000,0.0000,374.4600,432.7958,18.0146,0.0000,55.4943,359.2868,-15.1732
9.6000,cruise,119.8140,0.0000,0.0000,81.6762,22.6876,0.0000,0.0000,0.0562,0.0000,0.0000,2,4549.2542,3789.5441,3789.5441,3266.6156,3266.6156,0.0008,0.0008,0.0030,0.0030,0.0000,0.0000,0.0000,0.0000,-0.3548,-0.3548,139.5724,139.5724,0.0000,0.0000,0.0000,0.0000,0.0000,-0.9756,-0.9756,0.9897,0.9897,0.2639,0.2639,-0.2899,-0.2899,0.0000,-0.0433,14112.3194,0.0000,0.0001,0.0001,0.0427,0.0427,0.0000,0.0000,374.5507,433.4391,18.5653,0.0000,55.4990,359.3747,-15.1759
9.7000,cruise,122.0829,0.0000,0.0000,81.6845,22.6900,0.0000,0.0000,0.0550,0.0000,0.0000,2,4549.5118,3790.0526,3790.0526,3266.1469,3266.1469,0.0008,0.0008,0.0030,0.0030,0.0000,0.0000,0.0000,0.0000,-0.2968,-0.2968,136.6390,136.6390,0.0000,0.0000,0.0000,0.0000,0.0000,-0.9516,-0.9516,0.9634,0.9634,0.2210,0.2210,-0.2424,-0.2424,0.0000,-0.0422,14112.3988,0.0000,0.0001,0.0001,0.0418,0.0418,0.0000,0.0000,374.6265,434.0677,19.1162,0.0000,55.5031,359.4484,-15.1781
9.8000,cruise,124.3520,0.0000,0.0000,81.6915,22.6919,0.0000,0.0000,0.0540,0.0000,0.0000,2,4549.7275,3790.4783,3790.4783,3265.7543,3265.7543,0.0008,0.0008,0.0029,0.0029,0.0000,0.0000,0.0000,0.0000,-0.2484,-0.2484,134.1827,134.1827,0.0000,0.0000,0.0000,0.0000,0.0000,-0.9315,-0.9315,0.9413,0.9413,0.1850,0.1850,-0.2028,-0.2028,0.0000,-0.0413,14112.4653,0.0000,0.0001,0.0001,0.0411,0.0411,0.0000,0.0000,374.6901,434.6841,19.6672,0.0000,55.5068,359.5100,-15.1800
9.9000,cruise,126.6213,0.0000,0.0000,81.6974,22.6936,0.0000,0.0000,0.0532,0.0000,0.0000,2,4549.9081,3790.8348,3790.8348,3265.4257,3265.4257,0.0008,0.0008,0.0029,0.0029,0.0000,0.0000,0.0000,0.0000,-0.2080,-0.2080,132.1258,132.1258,0.0000,0.0000,0.0000,0.0000,0.0000,-0.9147,-0.9147,0.9229,0.9229,0.1549,0.1549,-0.1697,-0.1697,0.0000,-0.0405,14112.5210,0.0000,0.0001,0.0001,0.0405,0.0405,0.0000,0.0000,374.7433,435.2902,20.2184,0.0000,55.5102,359.5617,-15.1816
10.0000,step,128.8907,0.0000,0.0000,81.7023,22.6950,0.0000,0.0000,0.0525,0.0000,1.5000,2,4550.0593,3791.1334,3791.1334,3265.1504,3265.1504,0.0008,0.0008,0.0029,0.0029,0.0000,0.0000,0.0000,0.0000,-0.1741,-0.1741,130.4034,130.4034,0.0000,0.0000,0.0000,0.0000,0.0000,-0.9006,-0.9006,0.9075,0.9075,0.1297,0.1297,-0.1421,-0.1421,0.0000,-0.0398,14112.5676,0.0000,0.0000,0.0000,0.0399,0.0399,0.0000,13.0933,374.7879,435.8878,20.7696,0.0000,55.5132,359.6049,-15.1829
10.1000,step,131.1600,0.0071,0.2329,81.6897,22.6917,0.0500,4.5178,0.0541,0.0000,1.5000,2,4552.3242,3403.6987,4180.7990,2980.8591,3550.7484,0.0046,0.0039,0.0042,0.0029,-1.1589,-1.1606,-0.1354,-0.1348,10.0105,-7.7459,159.5469,92.3761,922.5239,1084.1142,31.7781,46.7704,0.1517,-5.0304,4.5409,-2.1804,4.8305,-81.0984,101.5897,-59.3026,74.8224,0.3065,-0.0346,14116.1051,1.0247,0.2711,0.2593,0.0546,0.0292,287.7839,13.0914,374.7397,436.4910,21.3208,0.0000,55.6683,359.5019,-15.2378
10.2000,step,133.4289,0.0296,0.8842,81.6806,22.6893,-0.0353,7.9211,0.0554,0.0000,1.5000,2,4563.4062,3076.3438,4507.1463,2740.8564,3790.1205,0.0044,0.0041,0.0073,0.0048,-1.1906,-1.1934,-0.5775,-0.5722,4.9767,-5.5178,177.0679,82.6566,825.2431,1149.3449,270.6760,394.7225,0.1922,-14.9106,16.1601,-9.4226,13.3608,-104.0507,115.9432,-76.1380,85.2783,0.9954,-0.0296,14114.4670,0.6171,0.2683,0.2550,0.1180,0.1064,164.1181,13.0900,374.7118,437.1100,21.8717,0.0000,55.7991,359.4392,-15.2725
10.3000,step,135.6972,0.0718,1.7893,81.6687,22.6855,-0.1658,9.8294,0.0573,0.0000,1.5000,2,4572.0043,2893.8007,4686.3173,2608.7666,3923.2900,0.0047,0.0046,0.0099,0.0063,-1.4174,-1.4183,-1.0368,-1.0248,2.6466,-3.1201,189.1948,84.3847,915.4354,1402.1623,533.6665,810.8425,0.2667,-24.5628,26.2767,-16.4704,20.8197,-87.2555,86.4544,-63.5275,63.9705,1.6289,-0.0290,14112.1745,0.3871,0.3163,0.2992,0.2170,0.2078,132.2347,13.0878,374.6485,437.7467,22.4225,0.0000,55.9789,359.3454,-15.3032
10.4000,step,137.9645,0.1406,2.8328,81.6515,22.6797,-0.2824,10.8493,0.0602,0.0000,1.5000,2,4577.7437,2796.7712,4779.5906,2540.2449,3994.3242,0.0050,0.0050,0.0118,0.0073,-1.6579,-1.6559,-1.4023,-1.3843,1.7218,-1.3487,200.8492,89.9880,1034.8526,1666.7143,734.9755,1149.3675,0.3341,-31.9359,33.1613,-21.8141,25.9432,-62.3046,54.9299,-44.9220,41.1675,2.0858,-0.0320,14110.9309,0.2636,0.3700,0.3487,0.2999,0.2886,119.7725,13.0844,374.5233,438.4111,22.9729,0.0000,56.2409,359.1973,-15.3260
10.5000,step,140.2300,0.2425,3.9493,81.6295,22.6724,-0.3708,11.3779,0.0638,0.0000,1.5000,2,4581.4455,2746.4575,4826.1547,2506.3915,4031.5127,0.0053,0.0053,0.0132,0.0082,-1.8538,-1.8491,-1.6634,-1.6410,1.3437,-0.2445,212.5303,98.3887,1136.1826,1877.7822,873.7183,1388.2441,0.3844,-36.9553,37.3292,-25.4048,29.1009,-40.8155,31.8927,-28.9294,24.4904,2.3804,-0.0366,14110.5164,0.1992,0.4137,0.3891,0.3588,0.3452,114.1712,13.0802,374.3438,439.1133,23.5230,0.0000,56.5894,359.0009,-15.3428
10.6000,step,142.4927,0.3822,5.1030,81.6047,22.6644,-0.4326,11.6434,0.0678,0.0000,1.5000,2,4583.7666,2720.8372,4848.1111,2490.7658,4050.7734,0.0055,0.0056,0.0143,0.0089,-1.9968,-1.9900,-1.8394,-1.8141,1.1625,0.3666,224.1503,107.9009,1211.3674,2027.8981,964.8861,1545.5109,0.4189,-40.1483,39.6677,-27.6379,30.9328,-25.3153,17.3079,-17.4241,13.9029,2.5577,-0.0416,14110.4876,0.1666,0.4452,0.4183,0.3977,0.3825,111.5291,13.0756,374.1316,439.8593,24.0725,0.0000,57.0112,358.7756,-15.3560
10.7000,step,144.7519,0.5629,6.2751,81.5791,22.6565,-0.4738,11.7713,0.0717,0.0000,1.5000,2,4585.1692,2708.0018,4857.4613,2484.4135,4060.6870,0.0056,0.0057,0.0150,0.0094,-2.0949,-2.0866,-1.9537,-1.9265,1.0442,0.6604,235.2687,117.4490,1263.6055,2128.2645,1022.9784,1644.9170,0.4415,-42.0889,40.8966,-28.9437,31.9564,-15.1078,8.7784,-9.8916,7.6608,2.6594,-0.0463,14110.5636,0.1507,0.4666,0.4381,0.4225,0.4061,110.2787,13.0711,373.9085,440.6510,24.6216,0.0000,57.4879,358.5415,-15.3670
10.8000,step,147.0065,0.7868,7.4558,81.5545,22.6491,-0.5003,11.8295,0.0755,0.0000,1.5000,2,4585.9719,2701.6306,4860.6111,2482.5638,4065.8163,0.0057,0.0058,0.0156,0.0098,-2.1594,-2.1502,-2.0258,-1.9974,0.9420,0.7651,245.5223,126.4112,1298.3840,2192.7556,1059.0171,1705.9391,0.4558,-43.2299,41.4953,-29.6626,32.5152,-8.7647,4.0698,-5.2654,4.1520,2.7151,-0.0505,14110.6219,0.1431,0.4806,0.4511,0.4379,0.4207,109.7003,13.0668,373.6906,441.4867,25.1701,0.0000,58.0028,358.3138,-15.3768
10.9000,step,149.2556,1.0552,8.6402,81.5318,22.6423,-0.5169,11.8539,0.0788,0.0000,1.5000,2,4586.3936,2698.4164,4860.9234,2482.7266,4068.5629,0.0057,0.0058,0.0161,0.0101,-2.2005,-2.1906,-2.0704,-2.0413,0.8429,0.7645,254.7138,134.4831,1320.7802,2233.0028,1080.7773,1742.5016,0.4646,-43.8852,41.7553,-30.0306,32.8176,-4.9904,1.6113,-2.5719,2.2519,2.7444,-0.0542,14110.6292,0.1398,0.4895,0.4594,0.4472,0.4296,109.4415,13.0629,373.4881,442.3631,25.7182,0.0000,58.5431,358.1018,-15.3862
11.0000,step,151.4982,1.3686,9.8262,81.5114,22.6364,-0.5271,11.8632,0.0818,0.0000,1.5000,2,4586.5829,2696.6678,4860.1105,2483.6456,4070.1665,0.0057,0.0059,0.0164,0.0104,-2.2261,-2.2158,-2.0974,-2.0679,0.7457,0.7104,262.7855,141.5642,1334.7990,2257.5597,1093.5467,1763.9614,0.4700,-44.2567,41.8441,-30.1997,32.9835,-2.8253,0.4139,-1.0856,1.2574,2.7591,-0.0573,14110.5904,0.1383,0.4950,0.4645,0.4528,0.4348,109.3267,13.0594,373.3059,443.2758,26.2658,0.0000,59.0997,357.9102,-15.3956
11.1000,step,153.7334,1.7277,11.0127,81.4936,22.6312,-0.5332,11.8666,0.0844,0.0000,1.5000,2,4586.6375,2695.5546,4859.0000,2484.7246,4071.2447,0.0058,0.0059,0.0167,0.0106,-2.2417,-2.2313,-2.1138,-2.0841,0.6525,0.6336,269.7725,147.6718,1343.3629,2272.3058,1100.8202,1776.3652,0.4731,-44.4682,41.8538,-30.2621,33.0790,-1.6235,-0.0815,-0.3167,0.7532,2.7661,-0.0598,14110.5239,0.1375,0.4984,0.4676,0.4561,0.4378,109.2704,13.0565,373.1457,444.2203,26.8131,0.0000,59.6667,357.7405,-15.4051
11.2000,step,155.9604,2.1323,12.1995,81.4781,22.6268,-0.5369,11.8683,0.0866,0.0000,1.5000,2,4586.6199,2694.6952,4857.9471,2485.7129,4072.0876,0.0058,0.0059,0.0169,0.0107,-2.2512,-2.2407,-2.1238,-2.0939,0.5656,0.5513,275.7609,152.8842,1348.4943,2281.0996,1104.8406,1783.4939,0.4749,-44.5921,41.8356,-30.2715,33.1394,-0.9758,-0.2441,0.0628,0.5040,2.7694,-0.0620,14110.4429,0.1371,0.5004,0.4696,0.4581,0.4396,109.2337,13.0539,373.0070,445.1922,27.3600,0.0000,60.2403,357.5920,-15.4150
11.3000,step,158.1781,2.5827,13.3864,81.4649,22.6230,-0.5392,11.8699,0.0885,0.0000,1.5000,2,4586.5679,2693.9345,4857.0723,2486.5285,4072.8190,0.0058,0.0059,0.0171,0.0109,-2.2571,-2.2464,-2.1300,-2.1001,0.4865,0.4725,280.8594,157.3040,1351.5342,2286.3772,1107.0029,1787.6365,0.4760,-44.6693,41.8080,-30.2542,33.1824,-0.6342,-0.2898,0.2308,0.3810,2.7708,-0.0638,14110.3542,0.1367,0.5017,0.4707,0.4593,0.4406,109.2008,13.0517,372.8881,446.1877,27.9066,0.0000,60.8181,357.4629,-15.4252
11.4000,step,160.3858,3.0787,14.5735,81.4536,22.6198,-0.5406,11.8719,0.0901,0.0000,1.5000,2,4586.5033,2693.2214,4856.3960,2487.1628,4073.4841,0.0058,0.0059,0.0172,0.0110,-2.2608,-2.2500,-2.1341,-2.1041,0.4161,0.4014,285.1817,161.0382,1353.3370,2289.6290,1108.1409,1790.1339,0.4766,-44.7221,41.7795,-30.2294,33.2167,-0.4550,-0.2738,0.2494,0.3166,2.7714,-0.0653,14110.2643,0.1363,0.5025,0.4715,0.4601,0.4412,109.1668,13.0499,372.7870,447.2030,28.4530,0.0000,61.3987,357.3513,-15.4357
11.5000,step,162.5825,3.6201,15.7608,81.4441,22.6171,-0.5416,11.8743,0.0915,0.0000,1.5000,2,4586.4380,2692.5487,4855.8933,2487.6455,4074.0947,0.0058,0.0059,0.0173,0.0111,-2.2632,-2.2524,-2.1370,-2.1069,0.3544,0.3392,288.8365,164.1874,1354.4275,2291.7337,1108.7406,1791.7442,0.4770,-44.7619,41.7543,-30.2059,33.2461,-0.3579,-0.2321,0.2186,0.2774,2.7718,-0.0666,14110.1822,0.1358,0.5030,0.4719,0.4606,0.4416,109.1316,13.0483,372.7013,448.2352,28.9992,0.0000,61.9813,357.2547,-15.4465
11.6000,step,164.7673,4.2068,16.9484,81.4361,22.6148,-0.5423,11.8770,0.0926,0.0000,1.5000,2,4586.3774,2691.9234,4855.5260,2488.0102,4074.6506,0.0058,0.0059,0.0174,0.0111,-2.2649,-2.2541,-2.1392,-2.1090,0.3009,0.2859,291.9220,166.8413,1355.1166,2293.1923,1109.0706,1792.8792,0.4773,-44.7943,41.7336,-30.1863,33.2722,-0.3004,-0.1852,0.1772,0.2479,2.7721,-0.0677,14110.1102,0.1354,0.5034,0.4723,0.4609,0.4419,109.0963,13.0470,372.6288,449.2817,29.5452,0.0000,62.5654,357.1711,-15.4577
11.7000,step,166.9392,4.8385,18.1362,81.4293,22.6129,-0.5428,11.8796,0.0936,0.0000,1.5000,2,4586.3238,2691.3536,4855.2585,2488.2866,4075.1497,0.0058,0.0059,0.0175,0.0112,-2.2662,-2.2554,-2.1409,-2.1107,0.2549,0.2407,294.5250,169.0776,1355.5823,2294.2809,1109.2726,1793.7536,0.4775,-44.8221,41.7175,-30.1707,33.2956,-0.2609,-0.1426,0.1393,0.2216,2.7725,-0.0686,14110.0484,0.1350,0.5037,0.4725,0.4612,0.4421,109.0625,13.0459,372.5677,450.3402,30.0910,0.0000,63.1506,357.0985,-15.4691
11.8000,step,169.0975,5.5150,19.3243,81.4235,22.6112,-0.5433,11.8822,0.0944,0.0000,1.5000,2,4586.2777,2690.8441,4855.0618,2488.4985,4075.5914,0.0058,0.0059,0.0176,0.0112,-2.2672,-2.2564,-2.1423,-2.1121,0.2156,0.2026,296.7203,170.9626,1355.9225,2295.1472,1109.4165,1794.4743,0.4776,-44.8465,41.7052,-30.1585,33.3164,-0.2295,-0.1078,0.1085,0.1967,2.7729,-0.0694,14109.9958,0.1346,0.5039,0.4727,0.4615,0.4423,109.0312,13.0449,372.5161,451.4088,30.6368,0.0000,63.7367,357.0353,-15.4807
11.9000,step,171.2411,6.2360,20.5127,81.4187,22.6099,-0.5436,11.8845,0.0951,0.0000,1.5000,2,4586.2386,2690.3956,4854.9147,2488.6635,4075.9775,0.0058,0.0059,0.0176,0.0113,-2.2680,-2.2572,-2.1435,-2.1133,0.1822,0.1705,298.5716,172.5519,1356.1896,2295.8681,1109.5347,1795.0925,0.4777,-44.8679,41.6959,-30.1490,33.3348,-0.2020,-0.0810,0.0848,0.1729,2.7733,-0.0701,14109.9512,0.1342,0.5041,0.4729,0.4617,0.4424,109.0030,13.0442,372.4726,452.4860,31.1824,0.0000,64.3236,356.9800,-15.4926
12.0000,step,173.3692,7.0013,21.7013,81.4146,22.6087,-0.5439,11.8867,0.0956,0.0000,1.5000,2,4586.2055,2690.0056,4854.8022,2488.7942,4076.3115,0.0057,0.0059,0.0177,0.0113,-2.2688,-2.2579,-2.1445,-2.1143,0.1539,0.1437,300.1331,173.8926,1356.4105,2296.4836,1109.6400,1795.6323,0.4778,-44.8867,41.6889,-30.1415,33.3508,-0.1768,-0.0612,0.0670,0.1505,2.7736,-0.0706,14109.9135,0.1339,0.5042,0.4730,0.4619,0.4426,108.9780,13.0435,372.4359,453.5704,31.7279,0.0000,64.9112,356.9313,-15.5046
12.1000,step,175.4809,7.8105,22.8900,81.4112,22.6077,-0.5442,11.8885,0.0961,0.0000,1.5000,2,4586.1777,2689.6697,4854.7140,2488.8995,4076.5984,0.0057,0.0059,0.0177,0.0114,-2.2694,-2.2585,-2.1454,-2.1152,0.1300,0.1211,301.4504,175.0239,1356.5988,2297.0150,1109.7367,1796.1055,0.4779,-44.9032,41.6836,-30.1356,33.3647,-0.1537,-0.0467,0.0536,0.1299,2.7740,-0.0711,14109.8817,0.1336,0.5044,0.4732,0.4620,0.4427,108.9563,13.0429,372.4049,454.6610,32.2734,0.0000,65.4993,356.8882,-15.5167
12.2000,step,177.5753,8.6633,24.0790,81.4083,22.6069,-0.5444,11.8901,0.0965,0.0000,1.5000,2,4586.1544,2689.3824,4854.6435,2488.9855,4076.8433,0.0057,0.0059,0.0178,0.0114,-2.2699,-2.2590,-2.1462,-2.1159,0.1097,0.1021,302.5619,175.9788,1356.7617,2297.4751,1109.8255,1796.5191,0.4780,-44.9174,41.6796,-30.1308,33.3767,-0.1327,-0.0362,0.0434,0.1114,2.7743,-0.0714,14109.8548,0.1334,0.5045,0.4733,0.4622,0.4428,108.9376,13.0425,372.3788,455.7566,32.8188,0.0000,66.0879,356.8499,-15.5289
12.3000,step,179.6515,9.5593,25.2681,81.4058,22.6062,-0.5446,11.8915,0.0969,0.0000,1.5000,2,4586.1348,2689.1379,4854.5860,2489.0566,4077.0516,0.0057,0.0059,0.0178,0.0114,-2.2704,-2.2595,-2.1469,-2.1166,0.0927,0.0861,303.4999,176.7851,1356.9031,2297.8727,1109.9061,1796.8785,0.4781,-44.9296,41.6764,-30.1269,33.3870,-0.1139,-0.0286,0.0356,0.0951,2.7746,-0.0718,14109.8321,0.1332,0.5046,0.4733,0.4623,0.4429,108.9216,13.0421,372.3568,456.8566,33.3642,0.0000,66.6769,356.8155,-15.5413
12.4000,step,181.7086,10.4981,26.4573,81.4038,22.6056,-0.5448,11.8927,0.0972,0.0000,1.5000,2,4586.1183,2688.9304,4854.5385,2489.1159,4077.2282,0.0057,0.0059,0.0178,0.0114,-2.2708,-2.2599,-2.1474,-2.1171,0.0782,0.0727,304.2917,177.4658,1357.0256,2298.2151,1109.9782,1797.1889,0.4782,-44.9401,41.6738,-30.1237,33.3957,-0.0973,-0.0229,0.0295,0.0808,2.7748,-0.0720,14109.8129,0.1330,0.5047,0.4734,0.4624,0.4429,108.9080,13.0417,372.3382,457.9602,33.9095,0.0000,67.2663,356.7845,-15.5537
12.5000,step,183.7457,11.4794,27.6466,81.4020,22.6051,-0.5449,11.8937,0.0974,0.0000,1.5000,2,4586.1044,2688.7547,4854.4988,2489.1656,4077.3776,0.0057,0.0059,0.0179,0.0114,-2.2711,-2.2602,-2.1479,-2.1176,0.0661,0.0614,304.9601,178.0408,1357.1314,2298.5087,1110.0417,1797.4555,0.4782,-44.9490,41.6718,-30.1210,33.4031,-0.0828,-0.0187,0.0246,0.0686,2.7751,-0.0723,14109.7967,0.1329,0.5047,0.4735,0.4625,0.4430,108.8964,13.0414,372.3225,459.0670,34.4547,0.0000,67.8559,356.7563,-15.5662
